~Version Information Block
VERS .                  2.0:  CWLS LOG ASCII STANDARD - VERSION 2.0
WRAP .                   NO:  One line per depth step
~Well Information Block
#MNEM.UNIT        Data Type   Information
#---------- ----------------  -----------
STRT .FT            1860.00:  START DEPTH
STOP .FT           10042.00:  STOP DEPTH
STEP .FT               0.50:  STEP
NULL .              -999.25:  NULL VALUE
COMP .                     :  COMPANY
WELL .             SA-15RD3:  WELL
FLD  .                     :  FIELD
LOC  .                     :  LOCATION
CTRY .                     :  COUNTRY
STAT .                     :  STATE
CNTY .                     :  COUNTY
SRVC .                     :  SERVICE COMPANY
DATE .                     :  DATE
API  .                     :  API NUMBER
UWI  .                     :  UNIQUE WELL ID
~Curve Information Block
#MNEM.UNIT         API CODE   Curve Description
#---------- ----------------  -----------------
DEPTH.FT                   :  DEPTH
GR   .GAPI                 :  Gamma Ray
RT   .OHMM                 :  Deep resistivity
RHOB .G/C3                 :  IFC(DEPTH>8079&DEPTH<8084,DRHO,RHOB_EDT)
NPHI .V/V                  :  Neutron porosity
~Parameter Information Block
#MNEM.UNIT            Value   Description
#---------- ----------------  -----------
PROJECT.            SERANG_FE:  
~Other Information Block
# 
~A       DEPTH             GR             RT           RHOB           NPHI 
# ...
       3518.50        92.5100         1.4300      -999.2500    -999.250000
       3519.00        89.8700         1.4200      -999.2500    -999.250000
       3519.50        88.7700         1.4200      -999.2500    -999.250000
       3520.00        83.2200         1.4200      -999.2500    -999.250000
       3520.50        86.2700         1.3900      -999.2500    -999.250000
       3521.00        85.5900         1.4000      -999.2500    -999.250000
       3521.50        94.1000         1.3700      -999.2500    -999.250000
       3522.00        88.1800         1.3800      -999.2500    -999.250000
       3522.50        91.7100         1.3700      -999.2500    -999.250000
       3523.00        86.6200         1.3700      -999.2500    -999.250000
       3523.50        88.7500         1.3600      -999.2500    -999.250000
       3524.00        83.2000         1.3500      -999.2500    -999.250000
       3524.50        87.1800         1.3400      -999.2500    -999.250000
       3525.00        90.6700         1.3400      -999.2500    -999.250000
       3525.50        87.0500         1.3700      -999.2500    -999.250000
       3526.00        87.9800         1.3600      -999.2500    -999.250000
       3526.50        87.5000         1.3500      -999.2500    -999.250000
       3527.00        87.4600         1.3600      -999.2500    -999.250000
       3527.50        85.0300         1.3600      -999.2500    -999.250000
       3528.00        83.2000         1.3600      -999.2500    -999.250000
       3528.50        88.7700         1.3800      -999.2500    -999.250000
       3529.00        92.7500         1.3500      -999.2500    -999.250000
       3529.50        91.1600         1.3200      -999.2500    -999.250000
       3530.00        94.1800         1.3200      -999.2500    -999.250000
       3530.50        95.1300         1.3200      -999.2500    -999.250000
       3531.00        95.4500         1.3100      -999.2500    -999.250000
       3531.50        96.7300         1.3200      -999.2500    -999.250000
       3532.00        98.1300         1.3600      -999.2500    -999.250000
       3532.50        95.3900         1.4300      -999.2500    -999.250000
       3533.00        94.5800         1.5300      -999.2500    -999.250000
       3533.50        91.4800         1.6500      -999.2500    -999.250000
       3534.00        89.5400         1.8100      -999.2500    -999.250000
       3534.50        84.1900         1.9100      -999.2500    -999.250000
       3535.00        79.1400         1.9200      -999.2500    -999.250000
       3535.50        74.2100         1.9000      -999.2500    -999.250000
       3536.00        71.4800         1.8800      -999.2500    -999.250000
       3536.50        66.0200         1.8500      -999.2500    -999.250000
       3537.00        65.4700         1.8300      -999.2500    -999.250000
       3537.50        64.1300         1.8300      -999.2500    -999.250000
       3538.00        65.7000         1.8900      -999.2500    -999.250000
       3538.50        65.7000         1.9000      -999.2500    -999.250000
       3539.00        61.4900         1.9000      -999.2500    -999.250000
       3539.50        57.1700         1.9100      -999.2500    -999.250000
       3540.00        58.0700         1.9400      -999.2500    -999.250000
       3540.50        59.1000         1.9300      -999.2500    -999.250000
       3541.00        60.1400         1.9100      -999.2500    -999.250000
       3541.50        61.0400         1.7900      -999.2500    -999.250000
       3542.00        62.2100         1.8800      -999.2500    -999.250000
       3542.50        60.9300         2.0000      -999.2500    -999.250000
       3543.00        56.7100         2.0900      -999.2500    -999.250000
       3543.50        56.8900         2.2600      -999.2500    -999.250000
       3544.00        56.8100         2.2700      -999.2500    -999.250000
       3544.50        56.9500         1.8900      -999.2500    -999.250000
       3545.00        56.9500         1.7500      -999.2500    -999.250000
       3545.50        58.8900         1.6900      -999.2500    -999.250000
       3546.00        62.9400         1.6800      -999.2500    -999.250000
       3546.50        61.4700         1.6800      -999.2500    -999.250000
       3547.00        59.9000         1.6700      -999.2500    -999.250000
       3547.50        63.2400         1.6200      -999.2500    -999.250000
       3548.00        65.1500         1.5300      -999.2500    -999.250000
       3548.50        63.9500         1.4300      -999.2500    -999.250000
       3549.00        63.0600         1.3800      -999.2500    -999.250000
       3549.50        63.8700         1.3600      -999.2500    -999.250000
       3550.00        65.4600         1.3200      -999.2500    -999.250000
       3550.50        66.5000         1.3300      -999.2500    -999.250000
       3551.00        73.8100         1.3000      -999.2500    -999.250000
       3551.50        80.6800         1.3300      -999.2500    -999.250000
       3552.00        85.5900         1.3200      -999.2500    -999.250000
       3552.50        87.9800         1.3600      -999.2500    -999.250000
       3553.00        89.0100         1.3800      -999.2500    -999.250000
       3553.50        85.2500         1.3800      -999.2500    -999.250000
       3554.00        84.7300         1.3900      -999.2500    -999.250000
       3554.50        82.9600         1.3800      -999.2500    -999.250000
       3555.00        81.3700         1.3500      -999.2500    -999.250000
       3555.50        84.7900         1.3300      -999.2500    -999.250000
       3556.00        85.6500         1.2600      -999.2500    -999.250000
       3556.50        86.7300         1.2400      -999.2500    -999.250000
       3557.00        85.5900         1.2000      -999.2500    -999.250000
       3557.50        85.5900         1.1600      -999.2500    -999.250000
       3558.00        87.5400         1.1600      -999.2500    -999.250000
       3558.50       104.5600         1.1900      -999.2500    -999.250000
       3559.00        92.4900         1.2500      -999.2500    -999.250000
       3559.50        91.9500         1.2900      -999.2500    -999.250000
       3560.00        95.4500         1.3200      -999.2500    -999.250000
       3560.50        92.3400         1.3400      -999.2500    -999.250000
       3561.00       101.7100         1.3300      -999.2500    -999.250000
       3561.50       100.7000         1.3100      -999.2500    -999.250000
       3562.00        98.5200         1.2900      -999.2500    -999.250000
       3562.50        93.5400         1.3000      -999.2500    -999.250000
       3563.00        84.1700         1.3400      -999.2500    -999.250000
       3563.50        88.3500         1.3600      -999.2500    -999.250000
       3564.00        91.8000         1.3800      -999.2500    -999.250000
       3564.50       105.4800         1.4100      -999.2500    -999.250000
       3565.00       120.3300         1.4600      -999.2500    -999.250000
       3565.50       129.3400         1.4800      -999.2500    -999.250000
       3566.00       127.2700         1.4100      -999.2500    -999.250000
       3566.50       122.6300         1.3000      -999.2500    -999.250000
       3567.00       119.7900         1.1700      -999.2500    -999.250000
       3567.50       119.7900         1.1100      -999.2500    -999.250000
       3568.00       108.8600         1.1200      -999.2500    -999.250000
       3568.50       102.8500         1.2400      -999.2500    -999.250000
       3569.00        95.7200         1.3000      -999.2500    -999.250000
       3569.50        99.2100         1.3900      -999.2500    -999.250000
       3570.00       101.2600         1.4700      -999.2500    -999.250000
       3570.50       100.7000         1.6100      -999.2500    -999.250000
       3571.00        94.2900         1.7500      -999.2500    -999.250000
       3571.50        81.3700         1.7900      -999.2500    -999.250000
