~Version Information Block
VERS .                  2.0:  CWLS LOG ASCII STANDARD - VERSION 2.0
WRAP .                   NO:  One line per depth step
~Well Information Block
#MNEM.UNIT        Data Type   Information
#---------- ----------------  -----------
STRT .FT        8000.328084:  START DEPTH
STOP .FT       11551.837384:  STOP DEPTH
STEP .FT           1.640420:  STEP
NULL .              -999.25:  NULL VALUE
COMP .                     :  COMPANY
WELL .           SA-15RD1ST:  WELL
FLD  .                     :  FIELD
LOC  .                     :  LOCATION
CTRY .                     :  COUNTRY
STAT .                     :  STATE
CNTY .                     :  COUNTY
SRVC .                     :  SERVICE COMPANY
DATE .                     :  DATE
API  .                     :  API NUMBER
UWI  .                     :  UNIQUE WELL ID
~Curve Information Block
#MNEM.UNIT         API CODE   Curve Description
#---------- ----------------  -----------------
DEPTH.FT                   :  
GR   .GAPI                 :  Merged WIRE with WIRE_ST at 9000.00 F
RT   .OHMM                 :  Merged WIRE with WIRE_ST at 9000.00 F
RHOB .G/C3                 :  Merged WIRE with WIRE_ST at 9000.00 F
NPHI .V/V                  :  Merged WIRE with WIRE_ST at 9000.00 F
~Parameter Information Block
#MNEM.UNIT            Value   Description
#---------- ----------------  -----------
PROJECT.            SERANG_FE:  
~Other Information Block
# 
~A       DEPTH             GR             RT           RHOB           NPHI 
   8000.328084      -999.2500      -999.0000      -999.0000        0.53180
   8001.968504      -999.2500      -999.0000      -999.0000        0.53180
   8003.608924      -999.2500      2000.0000      -999.0000        0.54891
   8005.249344      -999.2500      2000.0000      -999.0000        0.54655
   8006.889764      -999.2500      2000.0000      -999.0000        0.53704
   8008.530184      -999.2500      2000.0000      -999.0000        0.55228
   8010.170604      -999.2500      2000.0000      -999.0000        0.57781
   8011.811024      -999.2500      2000.0000      -999.0000        0.59707
   8013.451444      -999.2500      2000.0000      -999.0000        0.59626
   8015.091864      -999.2500      2000.0000      -999.0000        0.60124
   8016.732283      -999.2500      2000.0000      -999.0000        0.61283
   8018.372703      -999.2500      2000.0000      -999.0000        0.62170
   8020.013123      -999.2500      2000.0000      -999.0000        0.62170
   8021.653543      -999.2500      2000.0000      -999.0000        0.61909
   8023.293963        45.2000      2000.0000      -999.0000        0.61252
   8024.934383        44.6797      2000.0000      -999.0000        0.60596
   8026.574803        44.1246      2000.0000      -999.0000        0.60170
   8028.215223        43.5568      2000.0000      -999.0000        0.60170
   8029.855643        43.0162      2000.0000      -999.0000        0.60170
   8031.496063        42.6810      2000.0000      -999.0000        0.60170
   8033.136483        42.1525      2000.0000      -999.0000        0.60170
   8034.776903        39.1873      2000.0000      -999.0000        0.59027
   8036.417323        36.6512      2000.0000      -999.0000        0.57790
   8038.057743        36.7223      2000.0000      -999.0000        0.57284
   8039.698163        38.0302      2000.0000      -999.0000        0.55606
   8041.338583        40.6210      2000.0000      -999.0000        0.52643
   8042.979003        43.7889      2000.0000      -999.0000        0.47930
   8044.619423        45.8408      2000.0000      -999.0000        0.44337
   8046.259843        46.3257      2000.0000      -999.0000        0.42587
   8047.900262        45.0697      2000.0000      -999.0000        0.41838
   8049.540682        43.2636      2000.0000      -999.0000        0.42684
   8051.181102        41.3935      2000.0000      -999.0000        0.43557
   8052.821522        39.5235      2000.0000      -999.0000        0.45346
   8054.461942      -999.2500      2000.0000      -999.0000        0.48039
   8056.102362      -999.2500      2000.0000      -999.0000        0.48121
   8057.742782      -999.2500      2000.0000      -999.0000        0.48286
   8059.383202      -999.2500      2000.0000      -999.0000        0.50142
   8061.023622      -999.2500      2000.0000      -999.0000        0.52761
   8062.664042      -999.2500      2000.0000      -999.0000        0.53182
   8064.304462      -999.2500      2000.0000      -999.0000        0.51296
   8065.944882      -999.2500      2000.0000      -999.0000        0.51001
   8067.585302        47.8048      2000.0000      -999.0000        0.50187
   8069.225722        47.2680      1549.4594      -999.0000        0.53212
   8070.866142        46.8009       734.8216      -999.0000        0.56560
   8072.506562        44.8777      2000.0000      -999.0000        0.56751
   8074.146982        52.1798      2000.0000      -999.0000        0.53001
   8075.787402        51.0320      2000.0000      -999.0000        0.48153
   8077.427822        35.6502      2000.0000      -999.0000        0.50855
   8079.068241        30.5414       863.5498      -999.0000        0.51990
   8080.708661        33.5019         0.0500      -999.0000        0.54509
   8082.349081        38.1552         0.1800      -999.0000        0.55267
   8083.989501        40.8937         0.1018      -999.0000        0.53630
   8085.629921        38.9478       519.7220      -999.0000        0.49943
   8087.270341        31.9230      2000.0000      -999.0000        0.44169
   8088.910761        28.1871       365.1870         2.1100        0.42297
   8090.551181        27.4428         6.1306         2.1110        0.40809
   8092.191601        29.9409         2.0690         2.1238        0.42391
   8093.832021        29.8229         1.7406         2.0601        0.40912
   8095.472441        28.6965         1.2450         2.0500        0.40925
   8097.112861        30.3567         1.2055         2.0300        0.39120
   8098.753281        30.5430         1.3245         2.0500        0.37501
   8100.393701        29.4925         1.1924         2.0121        0.41105
   8102.034121        29.1194         1.8507         2.0014        0.43122
   8103.674541        32.4913         1.6830         2.0670        0.47931
   8105.314961        35.1438         1.8367         2.0863        0.43520
   8106.955381        45.1512         1.8245         2.2073        0.43501
   8108.595801        56.7546         1.8381         2.2900        0.42686
   8110.236220        64.3454         1.8936         2.3111        0.45391
   8111.876640        68.0544         1.9175         2.2725        0.47084
   8113.517060        75.3697         1.8490         2.2400        0.48371
   8115.157480        75.3485         1.7231         2.2437        0.47639
   8116.797900        68.0721         1.7900         2.3019        0.48243
   8118.438320        65.3900         1.9126         2.3300        0.46211
   8120.078740        61.9155         2.0716         2.3531        0.46992
   8121.719160        62.1774         2.0663         2.3900        0.41283
   8123.359580        67.3257         2.0412         2.3428        0.41338
   8125.000000        72.3200         1.9600         2.3700        0.42330
   8126.640420        77.6702         1.9560         2.3925        0.43762
   8128.280840        80.6067         1.8331         2.3456        0.46492
   8129.921260        82.0053         1.7400         2.2879        0.42438
   8131.561680        84.5946         1.4762         2.3588        0.42575
   8133.202100        96.8698         1.6381         2.3221        0.42640
   8134.842520        98.3935         1.6880         2.2931        0.46348
   8136.482940        93.4591         1.8993         2.2603        0.51212
   8138.123360        89.8196         1.6625         2.2600        0.50695
   8139.763780        87.6000         1.8142         2.2547        0.47002
   8141.404199        91.0160         1.9974         2.2847        0.43931
   8143.044619        77.5943         2.0143         2.2345        0.41652
   8144.685039        62.7956         1.5248         2.2074        0.42011
   8146.325459        57.2081         1.6060         2.2451        0.39041
   8147.965879        63.2690         1.7986         2.3293        0.36208
   8149.606299        72.7228         1.7979         2.4000        0.36479
   8151.246719        66.1925         1.8497         2.4249        0.36757
   8152.887139        64.2591         1.8923         2.4500        0.36821
   8154.527559        74.9512         1.7894         2.4761        0.36184
   8156.167979        93.5201         1.7733         2.4200        0.37017
   8157.808399        95.0632         1.6938         2.4238        0.38851
   8159.448819        88.2457         1.7100         2.4200        0.40313
   8161.089239        86.9766         1.6646         2.3882        0.42257
   8162.729659        83.5566         1.6230         2.3554        0.42842
   8164.370079        77.8583         1.6948         2.3774        0.41029
   8166.010499        72.6871         1.7400         2.4400        0.40328
   8167.650919        74.5604         1.7630         2.4000        0.41885
   8169.291339        79.7059         1.9883         2.3617        0.42923
   8170.931759        81.0848         2.0100         2.3300        0.45106
   8172.572178        86.6134         2.1272         2.2200        0.48425
   8174.212598       103.3874         2.1590         2.1415        0.54092
