~Version Information Block
VERS .                  2.0:  CWLS LOG ASCII STANDARD - VERSION 2.0
WRAP .                   NO:  One line per depth step
~Well Information Block
#MNEM.UNIT        Data Type   Information
#---------- ----------------  -----------
STRT .FT            1860.00:  START DEPTH
STOP .FT           10042.00:  STOP DEPTH
STEP .FT               0.50:  STEP
NULL .              -999.25:  NULL VALUE
COMP .                     :  COMPANY
WELL .             SA-15RD3:  WELL
FLD  .                     :  FIELD
LOC  .                     :  LOCATION
CTRY .                     :  COUNTRY
STAT .                     :  STATE
CNTY .                     :  COUNTY
SRVC .                     :  SERVICE COMPANY
DATE .                     :  DATE
API  .                     :  API NUMBER
UWI  .                     :  UNIQUE WELL ID
~Curve Information Block
#MNEM.UNIT         API CODE   Curve Description
#---------- ----------------  -----------------
DEPTH.FT                   :  DEPTH
GR   .GAPI                 :  Gamma Ray
RT   .OHMM                 :  Deep resistivity
RHOB .G/C3                 :  IFC(DEPTH>8079&DEPTH<8084,DRHO,RHOB_EDT)
NPHI .V/V                  :  Neutron porosity
~Parameter Information Block
#MNEM.UNIT            Value   Description
#---------- ----------------  -----------
PROJECT.            SERANG_FE:  
~Other Information Block
# 
~A       DEPTH             GR             RT           RHOB           NPHI 
# ...
       6728.50        68.6780         1.6377         2.3681       0.343100
       6729.00        69.3548         1.6616         2.3567       0.355700
       6729.50        74.1892         1.5627         2.3470       0.391700
       6730.00        81.5598         1.3896         2.3391       0.433600
       6730.50        88.5915         1.2168         2.3202       0.441700
       6731.00        93.2694         1.1464         2.2896       0.429900
       6731.50        94.8096         1.0680         2.2743       0.431300
       6732.00        94.0335         1.0022         2.2696       0.451400
       6732.50        93.8450         0.9653         2.2657       0.452700
       6733.00        94.3190         0.9536         2.2617       0.462700
       6733.50        92.8918         0.9922         2.2611       0.469800
       6734.00        90.3378         1.0952         2.2639       0.468300
       6734.50        87.0342         1.1619         2.2704       0.463500
       6735.00        85.7496         1.1719         2.2793       0.459200
       6735.50        85.4483         1.1075         2.2874       0.457000
       6736.00        86.6900         1.0275         2.2933       0.452700
       6736.50        86.6788         1.0064         2.2938       0.454600
       6737.00        86.2078         1.0032         2.2842       0.450000
       6737.50        84.5801         0.9971         2.2741       0.449600
       6738.00        84.0740         0.9646         2.2666       0.463400
       6738.50        84.4421         0.9331         2.2651       0.474800
       6739.00        86.6901         0.9165         2.2666       0.483200
       6739.50        87.7188         0.8941         2.2686       0.466700
       6740.00        87.2102         0.8890         2.2708       0.443000
       6740.50        85.2479         0.9161         2.2914       0.445300
       6741.00        84.4912         0.9726         2.3083       0.438300
       6741.50        85.9457         1.0583         2.3243       0.447100
       6742.00        85.2372         1.2284         2.3423       0.436000
       6742.50        81.0445         1.5637         2.3688       0.397900
       6743.00        76.5975         2.0480         2.4034       0.352100
       6743.50        74.0006         2.4219         2.4437       0.308000
       6744.00        74.7468         2.4360         2.4864       0.272300
       6744.50        75.0259         1.8904         2.4976       0.257500
       6745.00        75.3564         1.3120         2.4408       0.270700
       6745.50        74.9707         1.0156         2.3395       0.323800
       6746.00        74.4643         0.9358         2.2700       0.374300
       6746.50        74.3993         0.9235         2.2390       0.396200
       6747.00        75.3047         0.9248         2.2242       0.400500
       6747.50        77.4183         0.9094         2.2222       0.436300
       6748.00        79.6635         0.8891         2.2281       0.463300
       6748.50        80.8426         0.8725         2.2300       0.468700
       6749.00        80.1191         0.8681         2.2308       0.434600
       6749.50        80.5448         0.8590         2.2353       0.394300
       6750.00        81.8734         0.8469         2.2392       0.384400
       6750.50        84.5717         0.8314         2.2423       0.438200
       6751.00        86.5841         0.8280         2.2557       0.482700
       6751.50        90.9994         0.8205         2.3418       0.470000
       6752.00        95.6464         0.8221         2.3949       0.390600
       6752.50        98.6480         0.8298         2.4117       0.375900
       6753.00        97.5509         0.8300         2.4084       0.375500
       6753.50        95.2370         0.8300         2.3818       0.415300
       6754.00        94.6875         0.8300         2.3939       0.386200
       6754.50        95.6241         0.8302         2.3876       0.405800
       6755.00        96.4489         0.8353         2.4013       0.382800
       6755.50        96.3156         0.8505         2.3805       0.425200
       6756.00        96.2988         0.8595         2.3839       0.418100
       6756.50        96.2959         0.8921         2.3751       0.436500
       6757.00        95.2692         0.9197         2.3681       0.444000
       6757.50        94.4570         0.9164         2.3529       0.470200
       6758.00        94.1360         0.9066         2.3439       0.486900
       6758.50        96.0138         0.9004         2.3614       0.463000
       6759.00        97.6484         0.9045         2.3793       0.436800
       6759.50        98.7464         0.9185         2.3801       0.442500
       6760.00        98.8358         0.9388         2.3699       0.464500
       6760.50        97.8503         0.9592         2.3726       0.452100
       6761.00        96.2185         0.9812         2.4001       0.383700
       6761.50        92.9070         1.0145         2.3906       0.381100
       6762.00        91.1342         1.0692         2.3435       0.395600
       6762.50        89.4061         1.1450         2.3516       0.412800
       6763.00        86.5731         1.2294         2.3333       0.387800
       6763.50        83.8137         1.2429         2.3376       0.377400
       6764.00        82.3425         1.1963         2.3364       0.367500
       6764.50        82.4507         1.1537         2.3495       0.367300
       6765.00        84.0111         1.1239         2.3449       0.395800
       6765.50        87.1118         1.1138         2.3323       0.442800
       6766.00        88.7605         1.1045         2.3254       0.480700
       6766.50        86.0926         1.1010         2.3348       0.473800
       6767.00        82.1367         1.1077         2.3416       0.436200
       6767.50        82.6001         1.1248         2.3467       0.401900
       6768.00        84.9830         1.1447         2.3479       0.396600
       6768.50        87.8902         1.1339         2.3421       0.427500
       6769.00        91.9666         1.0817         2.3304       0.461100
       6769.50        96.5568         1.0310         2.3233       0.476700
       6770.00        99.2093         1.0066         2.3255       0.475500
       6770.50        98.0089         1.0316         2.3354       0.454700
       6771.00        95.0277         1.1004         2.3583       0.446800
       6771.50        92.4668         1.1783         2.3447       0.460900
       6772.00        88.9997         1.2331         2.3532       0.433000
       6772.50        86.4587         1.2739         2.3633       0.433000
       6773.00        84.8973         1.3133         2.3877       0.409700
       6773.50        85.8728         1.3090         2.3788       0.400800
       6774.00        87.6383         1.2662         2.3852       0.397700
       6774.50        88.0417         1.2329         2.4049       0.400200
       6775.00        87.3108         1.2069         2.4169       0.370400
       6775.50        86.7408         1.1807         2.4100       0.371100
       6776.00        86.8676         1.1593         2.3724       0.391200
       6776.50        86.8707         1.1574         2.3542       0.449300
       6777.00        86.8292         1.1648         2.3743       0.485700
       6777.50        87.6234         1.1959         2.4021       0.447300
       6778.00        88.4089         1.2366         2.4058       0.391400
       6778.50        88.5009         1.2874         2.4116       0.363000
       6779.00        87.1469         1.3048         2.4316       0.364000
       6779.50        85.7006         1.2761         2.4389       0.350500
       6780.00        86.9481         1.2653         2.4443       0.358200
       6780.50        90.6428         1.2472         2.4466       0.383000
       6781.00        92.4684         1.2200         2.4333       0.413000
       6781.50        92.3747         1.2198         2.4067       0.445900
