~Version Information Block
VERS .                  2.0:  CWLS LOG ASCII STANDARD - VERSION 2.0
WRAP .                   NO:  One line per depth step
~Well Information Block
#MNEM.UNIT        Data Type   Information
#---------- ----------------  -----------
STRT .FT            3123.00:  START DEPTH
STOP .FT           14590.00:  STOP DEPTH
STEP .FT               0.50:  STEP
NULL .              -999.25:  NULL VALUE
COMP .                     :  COMPANY
WELL .                SA-10:  WELL
FLD  .                     :  FIELD
LOC  .                     :  LOCATION
CTRY .                     :  COUNTRY
STAT .                     :  STATE
CNTY .                     :  COUNTY
SRVC .                     :  SERVICE COMPANY
DATE .                     :  DATE
API  .                     :  API NUMBER
UWI  .                     :  UNIQUE WELL ID
~Curve Information Block
#MNEM.UNIT         API CODE   Curve Description
#---------- ----------------  -----------------
DEPTH.FT                   :  DEPTH
GR   .GAPI                 :  Gamma Ray
RT   .OHMM                 :  Deep resistivity
RHOB .G/C3                 :  Bulk density
NPHI .V/V                  :  Neutron porosity
DT   .US/F                 :  Sonic
~Parameter Information Block
#MNEM.UNIT            Value   Description
#---------- ----------------  -----------
PROJECT.            SERANG_FE:  
~Other Information Block
# 
~A       DEPTH             GR             RT           RHOB           NPHI             DT 
# ...
      13803.00        97.6100         1.5200         2.5500       0.310000        95.1833
      13803.50        99.5100         1.4800         2.5600       0.330000        95.5833
      13804.00       101.6800         1.5000         2.5500       0.340000        96.0166
      13804.50       102.3800         1.4900         2.5500       0.340000        96.5833
      13805.00       101.9700         1.5100         2.5500       0.340000        96.9000
      13805.50       101.0600         1.5200         2.5600       0.340000        96.4500
      13806.00       101.4400         1.4200         2.5600       0.350000        97.0833
      13806.50       100.1800         1.7300         2.5600       0.340000        96.9167
      13807.00        99.6900         1.5700         2.5500       0.330000        97.4833
      13807.50       101.5300         1.4900         2.5500       0.330000        97.7500
      13808.00       103.2000         1.4700         2.5600       0.340000        97.1667
      13808.50        97.6400         1.5700         2.5800       0.340000        92.3833
      13809.00        85.4700         2.0200         2.6000       0.300000        86.5167
      13809.50        71.3600         3.1200         2.6200       0.230000        80.4667
      13810.00        65.5100         3.1900         2.6200       0.180000        76.6833
      13810.50        64.6200         3.7200         2.6000       0.150000        76.0333
      13811.00        65.2700         3.3700         2.5900       0.150000        76.2667
      13811.50        65.1500         3.2300         2.5700       0.150000        77.1500
      13812.00        63.7500         3.3400         2.5600       0.140000        76.4333
      13812.50        63.5300         3.4600         2.5400       0.140000        77.8833
      13813.00        65.0000         3.7000         2.5000       0.150000        80.7000
      13813.50        69.1500         3.3600         2.4700       0.170000        83.7500
      13814.00        72.0100         3.2500         2.4600       0.190000        86.3333
      13814.50        75.5500         3.2000         2.4700       0.190000        88.1167
      13815.00        76.9500         3.3200         2.4800       0.190000        87.5500
      13815.50        78.7300         3.3900         2.4900       0.200000        86.6333
      13816.00        75.7700         3.7800         2.5100       0.200000        85.1333
      13816.50        75.7100         3.5600         2.5300       0.200000        83.5833
      13817.00        73.0000         3.7100         2.5400       0.200000        83.2000
      13817.50        72.7300         3.7100         2.5200       0.190000        82.6500
      13818.00        74.4200         3.6500         2.5100       0.210000        83.5500
      13818.50        74.8900         3.4800         2.5100       0.220000        86.3000
      13819.00        79.6100         3.4500         2.5100       0.220000        86.5500
      13819.50        74.6900         3.7000         2.5100       0.200000        86.7333
      13820.00        73.3100         4.1100         2.5100       0.190000        86.1667
      13820.50        67.0000         4.3900         2.5000       0.180000        84.3167
      13821.00        66.1800         4.0300         2.5000       0.180000        83.3333
      13821.50        64.9300         3.7900         2.5000       0.190000        83.2333
      13822.00        65.9100         3.8300         2.5100       0.190000        84.3833
      13822.50        65.9700         3.9800         2.5100       0.190000        84.2167
      13823.00        68.3100         4.0600         2.5100       0.200000        83.9167
      13823.50        71.4100         4.3400         2.5200       0.200000        83.6500
      13824.00        77.3000         4.4300         2.5300       0.210000        83.3667
      13824.50        81.9500         4.1900         2.5400       0.230000        83.6000
      13825.00        85.5400         3.7900         2.5500       0.240000        84.6500
      13825.50        88.3400         3.5400         2.5500       0.250000        85.8167
      13826.00        88.5500         3.5500         2.5400       0.260000        86.8833
      13826.50        88.4100         3.7400         2.5200       0.270000        87.5500
      13827.00        89.2800         4.6900         2.5000       0.270000        87.3667
      13827.50        89.8700         5.8200         2.5000       0.280000        87.5167
      13828.00        91.6600         6.0400         2.5000       0.290000        88.6500
      13828.50        90.4400         3.5700         2.5000       0.290000        88.2667
      13829.00        89.2400         3.9400         2.5300       0.290000        88.9667
      13829.50        81.7200         3.1900         2.5700       0.250000        84.5667
      13830.00        71.2500         3.5200         2.6200       0.190000        75.8667
      13830.50        57.0500        11.2100         2.6600       0.130000        69.3000
      13831.00        45.9800        19.4100         2.6800       0.100000        62.3833
      13831.50        38.0500        16.5900         2.6800       0.080000        60.4833
      13832.00        34.5300        10.3400         2.6600       0.080000        59.5167
      13832.50        30.9100         8.3200         2.6500       0.080000        60.9667
      13833.00        27.2800         7.1200         2.6300       0.090000        60.8000
      13833.50        24.5900         8.1500         2.6100       0.090000        62.1500
      13834.00        21.6700         8.3300         2.5700       0.100000        64.1500
      13834.50        23.5400         9.0400         2.5400       0.110000        67.1167
      13835.00        24.4800         8.9300         2.5400       0.110000        68.4667
      13835.50        26.9900         8.7400         2.5500       0.120000        69.4833
      13836.00        25.1700        10.1800         2.5300       0.130000        71.6167
      13836.50        25.1100        10.6700         2.4800       0.150000        72.5667
      13837.00        24.2300         9.4200         2.4400       0.160000        75.4667
      13837.50        23.0600         5.3700         2.4300       0.180000        77.0167
      13838.00        22.9400         5.7000         2.4600       0.170000        75.2333
      13838.50        22.3500         6.2100         2.4900       0.150000        74.6667
      13839.00        24.0500         6.0700         2.5200       0.140000        71.6000
      13839.50        23.9500         6.8700         2.5500       0.130000        69.8833
      13840.00        26.0500         8.2600         2.5600       0.120000        68.5167
      13840.50        27.0500         9.3800         2.5600       0.110000        68.1167
      13841.00        28.1500         9.5900         2.5500       0.110000        68.1667
      13841.50        28.6200         9.0900         2.5500       0.100000        67.0667
      13842.00        27.5500         9.1600         2.5500       0.100000        67.1000
      13842.50        24.6400        10.2600         2.5600       0.090000        67.1500
      13843.00        22.0000        10.7000         2.5700       0.090000        65.5667
      13843.50        21.6500        11.8700         2.5800       0.090000        65.2833
      13844.00        23.4100        12.4300         2.5900       0.090000        65.1500
      13844.50        23.7900        11.1300         2.5900       0.090000        64.1500
      13845.00        24.1500         9.9100         2.5900       0.080000        63.8500
      13845.50        22.2800        13.6900         2.5900       0.080000        64.1333
      13846.00        22.8900        15.9600         2.5900       0.080000        63.7000
      13846.50        25.0100         7.7800         2.5900       0.080000        63.3167
      13847.00        27.7000        13.0200         2.6000       0.080000        63.1500
