~Version Information Block
VERS .                  2.0:  CWLS LOG ASCII STANDARD - VERSION 2.0
WRAP .                   NO:  One line per depth step
~Well Information Block
#MNEM.UNIT        Data Type   Information
#---------- ----------------  -----------
STRT .FT        8000.328084:  START DEPTH
STOP .FT       11551.837384:  STOP DEPTH
STEP .FT           1.640420:  STEP
NULL .              -999.25:  NULL VALUE
COMP .                     :  COMPANY
WELL .           SA-15RD1ST:  WELL
FLD  .                     :  FIELD
LOC  .                     :  LOCATION
CTRY .                     :  COUNTRY
STAT .                     :  STATE
CNTY .                     :  COUNTY
SRVC .                     :  SERVICE COMPANY
DATE .                     :  DATE
API  .                     :  API NUMBER
UWI  .                     :  UNIQUE WELL ID
~Curve Information Block
#MNEM.UNIT         API CODE   Curve Description
#---------- ----------------  -----------------
DEPTH.FT                   :  
GR   .GAPI                 :  Merged WIRE with WIRE_ST at 9000.00 F
RT   .OHMM                 :  Merged WIRE with WIRE_ST at 9000.00 F
RHOB .G/C3                 :  Merged WIRE with WIRE_ST at 9000.00 F
NPHI .V/V                  :  Merged WIRE with WIRE_ST at 9000.00 F
~Parameter Information Block
#MNEM.UNIT            Value   Description
#---------- ----------------  -----------
PROJECT.            SERANG_FE:  
~Other Information Block
# 
~A       DEPTH             GR             RT           RHOB           NPHI 
# ...
   9931.102362        52.6855         4.5498         2.3287        0.31137
   9932.742782        54.0134         3.8009         2.2937        0.33582
   9934.383202        52.0431         2.8225         2.2708        0.33585
   9936.023622        50.1990         3.1601         2.2850        0.30886
   9937.664042        49.8114         3.6815         2.3326        0.29343
   9939.304462        50.0231         3.6409         2.3626        0.28951
   9940.944882        53.4643         2.7406         2.3614        0.30994
   9942.585302        63.1959         2.2090         2.3796        0.32758
   9944.225722        72.8976         1.6821         2.4443        0.36051
   9945.866142        78.9000         1.3152         2.5029        0.35793
   9947.506562        80.9978         1.2145         2.4840        0.31551
   9949.146982        81.6232         1.1176         2.4485        0.36530
   9950.787402        80.3834         1.1258         2.4198        0.35710
   9952.427822        83.0400         1.0680         2.4013        0.33875
   9954.068241        82.0540         1.0911         2.4060        0.37220
   9955.708661        80.6404         1.1408         2.4111        0.36867
   9957.349081        81.0716         1.1579         2.4359        0.37374
   9958.989501        76.3685         1.2935         2.4578        0.37492
   9960.629921        74.2110         1.2216         2.4874        0.35741
   9962.270341        75.7394         1.1939         2.4360        0.36616
   9963.910761        77.8858         1.3669         2.3918        0.38205
   9965.551181        81.1888         1.4035         2.4275        0.38403
   9967.191601        80.4208         1.4000         2.4324        0.42153
   9968.832021        79.5345         1.4510         2.4077        0.40252
   9970.472441        79.6708         1.4787         2.4248        0.40200
   9972.112861        81.8877         1.5284         2.4261        0.42374
   9973.753281        84.0811         1.4914         2.4295        0.42293
   9975.393701        82.6538         1.4622         2.4370        0.42719
   9977.034121        74.8237         2.7040         2.4158        0.39227
   9978.674541        60.7649         4.6130         2.4085        0.27842
   9980.314961        47.0341         5.2540         2.4461        0.22582
   9981.955381        43.6281         5.9841         2.4568        0.23753
   9983.595801        46.1292         6.5700         2.4190        0.23400
   9985.236220        52.1253         4.2580         2.3063        0.21777
   9986.876640        54.8208         2.3980         2.1470        0.27404
   9988.517060        55.4202         2.3100         2.1546        0.29921
   9990.157480        64.1648         1.9558         2.2513        0.34154
   9991.797900        82.3656         1.8540         2.2700        0.38868
   9993.438320       101.7266         1.3997         2.3629        0.39870
   9995.078740        95.2621         1.6303         2.4794        0.33560
   9996.719160        78.0435         1.8440         2.3796        0.28209
   9998.359580        68.9406         1.7250         2.3071        0.29519
  10000.000000        63.1340         1.9710         2.3100        0.28167
  10001.640420        48.1184         1.9380         2.3145        0.23399
  10003.280840        37.3360         1.5172         2.2192        0.24808
  10004.921260        28.8207         1.2379         2.1724        0.24082
  10006.561680        26.9563         1.1164         2.1675        0.25588
  10008.202100        24.5052         1.0066         2.2019        0.26136
  10009.842520        35.2115         0.9859         2.2232        0.27828
  10011.482940        58.3496         1.5881         2.2848        0.32801
  10013.123360        75.1574         1.7648         2.3635        0.34074
  10014.763780        82.9111         1.8231         2.4168        0.35628
  10016.404199        87.4895         1.7133         2.4364        0.40140
  10018.044619        84.0421         1.7095         2.4194        0.40202
  10019.685039        76.4572         1.6803         2.4216        0.39819
  10021.325459        77.0341         1.5605         2.4159        0.39396
  10022.965879        78.0598         1.4311         2.4201        0.40836
  10024.606299        81.8096         1.3943         2.4098        0.40063
  10026.246719        83.5899         1.3715         2.4131        0.39211
  10027.887139        80.6619         1.3224         2.3960        0.40197
  10029.527559        76.7978         1.3439         2.4047        0.38456
  10031.167979        68.6618         1.9128         2.3966        0.34149
  10032.808399        63.5773         2.0584         2.3644        0.30632
  10034.448819        60.8671         2.0490         2.3670        0.30643
  10036.089239        68.0803         1.9856         2.3699        0.30396
  10037.729659        78.1803         1.9263         2.3944        0.34732
  10039.370079        71.9697         1.9423         2.3943        0.35206
  10041.010499        63.6399         1.9211         2.3683        0.32746
  10042.650919        70.7947         1.7699         2.3990        0.34445
  10044.291339        72.4787         1.6755         2.4167        0.37912
  10045.931759        70.5623         1.6318         2.4020        0.36287
  10047.572178        63.6158         1.8912         2.3478        0.30228
  10049.212598        58.9163         1.9934         2.3294        0.29290
  10050.853018        60.8666         2.0090         2.3349        0.28678
  10052.493438        65.0456         1.9642         2.3171        0.31735
  10054.133858        68.5820         1.8638         2.3206        0.32785
  10055.774278        72.2389         1.7719         2.3673        0.35399
  10057.414698        78.6451         1.7025         2.4043        0.38539
  10059.055118        79.3999         1.6531         2.4241        0.37672
  10060.695538        74.2929         1.6270         2.4285        0.41060
  10062.335958        73.3184         1.5391         2.4254        0.41637
  10063.976378        77.7514         1.3973         2.4279        0.40336
  10065.616798        83.0503         1.3190         2.4313        0.41578
  10067.257218        78.2405         1.2513         2.4360        0.43420
  10068.897638        70.3919         1.5242         2.4230        0.38830
  10070.538058        63.2855         2.1218         2.3775        0.31014
  10072.178478        62.8198         2.0486         2.3825        0.30919
  10073.818898        61.0103         2.1580         2.3904        0.31463
  10075.459318        62.9411         1.9558         2.3518        0.31410
  10077.099738        66.7208         1.9090         2.3672        0.33219
  10078.740157        63.8190         2.0193         2.3888        0.31807
  10080.380577        56.5782         2.0909         2.3744        0.27595
  10082.020997        47.7461         1.4340         2.2770        0.27843
  10083.661417        44.3046         1.2410         2.1869        0.27254
  10085.301837        43.6864         1.4204         2.1859        0.28921
  10086.942257        55.1383         1.7783         2.2658        0.27694
  10088.582677        65.5466         1.9968         2.3433        0.29038
  10090.223097        62.7937         2.0584         2.3614        0.27912
  10091.863517        57.1773         1.9829         2.3684        0.27283
  10093.503937        61.7139         1.8574         2.4240        0.29323
  10095.144357        62.6824         1.9160         2.3986        0.29345
  10096.784777        60.4582         1.8990         2.4057        0.28603
  10098.425197        68.9651         1.6559         2.4348        0.30253
  10100.065617        74.7587         1.8817         2.4315        0.30965
  10101.706037        74.2213         1.8627         2.4214        0.31913
  10103.346457        75.5691         1.7274         2.4180        0.33792
  10104.986877        74.4626         1.6010         2.4321        0.33977
