~Version Information Block
VERS .                  2.0:  CWLS LOG ASCII STANDARD - VERSION 2.0
WRAP .                   NO:  One line per depth step
~Well Information Block
#MNEM.UNIT        Data Type   Information
#---------- ----------------  -----------
STRT .FT        8000.328084:  START DEPTH
STOP .FT       11551.837384:  STOP DEPTH
STEP .FT           1.640420:  STEP
NULL .              -999.25:  NULL VALUE
COMP .                     :  COMPANY
WELL .           SA-15RD1ST:  WELL
FLD  .                     :  FIELD
LOC  .                     :  LOCATION
CTRY .                     :  COUNTRY
STAT .                     :  STATE
CNTY .                     :  COUNTY
SRVC .                     :  SERVICE COMPANY
DATE .                     :  DATE
API  .                     :  API NUMBER
UWI  .                     :  UNIQUE WELL ID
~Curve Information Block
#MNEM.UNIT         API CODE   Curve Description
#---------- ----------------  -----------------
DEPTH.FT                   :  
GR   .GAPI                 :  Merged WIRE with WIRE_ST at 9000.00 F
RT   .OHMM                 :  Merged WIRE with WIRE_ST at 9000.00 F
RHOB .G/C3                 :  Merged WIRE with WIRE_ST at 9000.00 F
NPHI .V/V                  :  Merged WIRE with WIRE_ST at 9000.00 F
~Parameter Information Block
#MNEM.UNIT            Value   Description
#---------- ----------------  -----------
PROJECT.            SERANG_FE:  
~Other Information Block
# 
~A       DEPTH             GR             RT           RHOB           NPHI 
# ...
  10808.727034        70.6548         2.2261         2.3483        0.31341
  10810.367454        66.9723         2.2322         2.3659        0.32495
  10812.007874        65.5854         2.2703         2.3930        0.30895
  10813.648294        69.9771         2.2757         2.3719        0.30242
  10815.288714        67.0326         2.2050         2.3970        0.31713
  10816.929134        69.9547         2.0306         2.4412        0.31115
  10818.569554        69.6813         1.9267         2.4323        0.33321
  10820.209974        69.0788         1.8366         2.4012        0.34772
  10821.850394        66.9299         1.9340         2.4177        0.34049
  10823.490814        67.4855         1.9531         2.4480        0.33160
  10825.131234        70.4183         1.9562         2.4593        0.33533
  10826.771654        73.1433         1.9354         2.4727        0.36044
  10828.412073        73.2706         1.8265         2.4725        0.36229
  10830.052493        71.7934         1.8709         2.4626        0.35409
  10831.692913        68.9162         1.8417         2.4525        0.34617
  10833.333333        67.6553         2.0683         2.4257        0.33340
  10834.973753        68.1672         1.9531         2.4097        0.32863
  10836.614173        70.7630         2.0165         2.3818        0.34962
  10838.254593        75.4054         1.9665         2.4086        0.34651
  10839.895013        75.3675         1.8905         2.4392        0.36240
  10841.535433        73.2596         1.9178         2.4300        0.33053
  10843.175853        73.3070         1.9130         2.4127        0.31516
  10844.816273        71.9044         2.0177         2.3974        0.33578
  10846.456693        72.8003         1.9980         2.4080        0.37811
  10848.097113        77.6400         1.8978         2.4270        0.39605
  10849.737533        81.8430         1.8170         2.4249        0.40975
  10851.377953        82.3240         1.7877         2.4521        0.42412
  10853.018373        79.8380         1.8032         2.4439        0.42431
  10854.658793        79.2201         1.8236         2.4494        0.39698
  10856.299213        79.4878         1.7624         2.4748        0.38047
  10857.939633        78.4168         1.7940         2.4481        0.40669
  10859.580052        77.0150         1.8210         2.4577        0.39200
  10861.220472        76.6304         1.8037         2.4699        0.37095
  10862.860892        76.0807         1.7387         2.4870        0.38013
  10864.501312        78.9410         1.7160         2.4740        0.38454
  10866.141732        80.5312         1.6773         2.4767        0.38696
  10867.782152        80.1217         1.6092         2.4839        0.39413
  10869.422572        82.1100         1.5624         2.4915        0.39684
  10871.062992        82.2120         1.4704         2.4897        0.41112
  10872.703412        87.5413         1.4013         2.4634        0.41368
  10874.343832        90.7664         1.3230         2.4846        0.43867
  10875.984252        92.9572         1.3087         2.4771        0.44840
  10877.624672        90.7395         1.2988         2.4842        0.47280
  10879.265092        86.3056         1.3010         2.5024        0.46696
  10880.905512        87.4973         1.2446         2.4922        0.44473
  10882.545932        82.6352         1.2422         2.5086        0.46837
  10884.186352        82.2559         1.1460         2.5205        0.43297
  10885.826772        84.2224         1.1935         2.5058        0.43927
  10887.467192        83.6592         1.2638         2.4991        0.42597
  10889.107612        87.4773         1.2562         2.4949        0.43151
  10890.748031        90.5260         1.1241         2.4895        0.46262
  10892.388451        94.9390         1.1156         2.4722        0.48487
  10894.028871       101.6837         1.0769         2.4724        0.47692
  10895.669291       103.9448         1.0690         2.4557        0.49117
  10897.309711        97.2552         1.2814         2.4928        0.45280
  10898.950131        86.9678         1.6834         2.5073        0.37126
  10900.590551        90.3611         1.5734         2.4215        0.41003
  10902.230971        93.3539         1.4709         2.4424        0.41120
  10903.871391        94.3672         1.0458         2.4721        0.43423
  10905.511811        89.1746         1.0045         2.4495        0.42339
  10907.152231        80.6704         1.2470         2.4409        0.38650
  10908.792651        85.2964         1.0451         2.4412        0.40743
  10910.433071        82.3821         1.0277         2.4549        0.42646
  10912.073491        79.0275         1.8160         2.4660        0.35917
  10913.713911        78.8840         1.7769         2.4660        0.36425
  10915.354331        83.3084         1.8055         2.4530        0.35576
  10916.994751        82.1317         1.7130         2.4461        0.36012
  10918.635171        81.2466         1.4090         2.4776        0.35901
  10920.275591        86.1316         1.2995         2.4650        0.37760
  10921.916010        84.3349         1.3476         2.4613        0.39642
  10923.556430        80.7879         1.4558         2.4646        0.36923
  10925.196850        83.3418         1.5387         2.4333        0.37054
  10926.837270        87.5081         1.3752         2.4113        0.37390
  10928.477690        83.7893         1.4415         2.4287        0.36501
  10930.118110        82.2970         1.7214         2.4481        0.33773
  10931.758530        87.1991         1.8140         2.4651        0.33561
  10933.398950        88.6696         1.7303         2.4524        0.36662
  10935.039370        83.8351         1.8974         2.3794        0.37766
  10936.679790        84.2047         1.7546         2.3780        0.36592
  10938.320210        75.5461         2.1166         2.3995        0.33747
  10939.960630        68.9876         2.3121         2.4094        0.29811
  10941.601050        66.7910         2.5579         2.4216        0.28185
  10943.241470        71.4095         2.2611         2.4569        0.31433
  10944.881890        77.2080         2.3266         2.4520        0.32270
  10946.522310        79.1875         2.1674         2.4260        0.29884
  10948.162730        82.4762         1.9615         2.4377        0.34179
  10949.803150        84.6913         1.6840         2.4412        0.39632
  10951.443570        87.3782         1.4990         2.4487        0.40234
  10953.083990        84.2959         1.3656         2.4434        0.41079
  10954.724409        86.2339         1.3796         2.4551        0.37954
  10956.364829        82.6737         1.6465         2.4896        0.34260
  10958.005249        74.3615         1.9943         2.4789        0.30506
  10959.645669        66.2821         2.5032         2.4308        0.25252
  10961.286089        69.5298         2.1135         2.4089        0.28069
  10962.926509        78.2859         1.6999         2.4440        0.35044
  10964.566929        79.6620         1.4463         2.4495        0.37828
  10966.207349        84.3841         1.2731         2.4556        0.36681
  10967.847769        84.7899         1.3911         2.4665        0.36237
  10969.488189        83.3115         1.5648         2.4732        0.32988
  10971.128609        83.1641         1.8162         2.4779        0.30872
  10972.769029        81.7700         1.7904         2.4812        0.32517
  10974.409449        80.6190         1.5039         2.4835        0.35969
  10976.049869        81.6348         1.3782         2.4810        0.37515
  10977.690289        89.6278         1.2750         2.4546        0.36739
  10979.330709       104.9559         1.5907         2.4022        0.42491
  10980.971129       134.2344         1.3574         2.2690        0.48621
  10982.611549       165.4556         1.1625         2.3308        0.51617
