~Version Information Block
VERS .                  2.0:  CWLS LOG ASCII STANDARD - VERSION 2.0
WRAP .                   NO:  One line per depth step
~Well Information Block
#MNEM.UNIT        Data Type   Information
#---------- ----------------  -----------
STRT .FT            3123.00:  START DEPTH
STOP .FT           14590.00:  STOP DEPTH
STEP .FT               0.50:  STEP
NULL .              -999.25:  NULL VALUE
COMP .                     :  COMPANY
WELL .                SA-10:  WELL
FLD  .                     :  FIELD
LOC  .                     :  LOCATION
CTRY .                     :  COUNTRY
STAT .                     :  STATE
CNTY .                     :  COUNTY
SRVC .                     :  SERVICE COMPANY
DATE .                     :  DATE
API  .                     :  API NUMBER
UWI  .                     :  UNIQUE WELL ID
~Curve Information Block
#MNEM.UNIT         API CODE   Curve Description
#---------- ----------------  -----------------
DEPTH.FT                   :  DEPTH
GR   .GAPI                 :  Gamma Ray
RT   .OHMM                 :  Deep resistivity
RHOB .G/C3                 :  Bulk density
NPHI .V/V                  :  Neutron porosity
DT   .US/F                 :  Sonic
~Parameter Information Block
#MNEM.UNIT            Value   Description
#---------- ----------------  -----------
PROJECT.            SERANG_FE:  
~Other Information Block
# 
~A       DEPTH             GR             RT           RHOB           NPHI             DT 
# ...
       5392.50        46.6300         2.1000         2.2500       0.390000       116.7333
       5393.00        45.0000         1.6700         2.2500       0.400000       114.9500
       5393.50        44.4100         2.0500         2.2700       0.380000       106.5833
       5394.00        42.1800         1.9300         2.2900       0.360000        99.2000
       5394.50        39.7300         2.0600         2.3100       0.340000        88.4500
       5395.00        37.1300         2.4200         2.3500       0.330000        81.1667
       5395.50        36.5200         2.3500         2.4100       0.300000        80.2000
       5396.00        37.5000         3.0000         2.4200       0.290000        90.4500
       5396.50        40.0800         3.4300         2.3700       0.330000       104.7833
       5397.00        42.7100         3.3700         2.3100       0.350000       113.9667
       5397.50        41.9400         2.3200         2.3000       0.380000       115.2000
       5398.00        41.1900         2.3600         2.3000       0.360000       110.9833
       5398.50        39.1000         2.3600         2.3100       0.370000       110.1000
       5399.00        40.2000         2.8500         2.3000       0.370000       111.1500
       5399.50        39.7200         2.6600         2.3000       0.370000       110.6000
       5400.00        42.2900         2.0800         2.2900       0.380000       110.0000
       5400.50        41.3900         2.0200         2.2900       0.370000       108.6667
       5401.00        41.5200         1.9000         2.2900       0.360000       108.4000
       5401.50        40.2500         2.1500         2.2900       0.360000       108.5500
       5402.00        40.9000         2.0500         2.2800       0.370000       107.7833
       5402.50        41.9300         1.9900         2.2700       0.370000       110.4833
       5403.00        42.4100         1.9700         2.2600       0.390000       111.0833
       5403.50        43.0500         1.9800         2.2500       0.380000       113.1667
       5404.00        41.9600         2.0600         2.2400       0.390000       113.1833
       5404.50        41.4100         2.0100         2.2400       0.370000       112.2500
       5405.00        41.2200         1.9900         2.2600       0.370000       112.6333
       5405.50        43.1200         2.0600         2.2800       0.370000       109.0000
       5406.00        43.8700         1.9900         2.3000       0.380000       109.3000
       5406.50        41.7500         2.0100         2.3200       0.390000       110.0833
       5407.00        42.0100         1.9500         2.2800       0.390000       111.2334
       5407.50        40.1100         1.9900         2.2200       0.390000       112.6500
       5408.00        42.5400         1.9800         2.1900       0.370000       114.3333
       5408.50        42.0900         2.0100         2.1900       0.370000       115.6667
       5409.00        43.5900         2.0300         2.2200       0.370000       114.7000
       5409.50        42.9200         1.9200         2.2200       0.380000       116.2667
       5410.00        42.4000         1.9000         2.2200       0.380000       116.3833
       5410.50        43.4500         1.9000         2.2200       0.400000       116.6500
       5411.00        43.7800         1.8500         2.2200       0.400000       117.4667
       5411.50        42.6800         1.8400         2.2100       0.400000       118.8500
       5412.00        41.1400         1.7900         2.2000       0.380000       118.0166
       5412.50        41.6700         1.7500         2.2000       0.410000       116.2167
       5413.00        42.7500         1.8000         2.2100       0.400000       116.9500
       5413.50        40.6900         1.8500         2.2200       0.420000       116.2000
       5414.00        38.6700         1.6700         2.2100       0.420000       116.0500
       5414.50        40.9300         1.7100         2.2100       0.440000       120.1667
       5415.00        44.0700         1.7100         2.2100       0.430000       119.2333
       5415.50        44.0000         1.7400         2.2200       0.410000       118.3500
       5416.00        42.3700         1.6900         2.2200       0.410000       118.8500
       5416.50        39.7900         1.6500         2.2200       0.430000       119.2833
       5417.00        37.9000         1.8600         2.2100       0.420000       112.0833
       5417.50        35.5200         1.6600         2.2300       0.400000       111.1500
       5418.00        38.1500         1.6100         2.2400       0.400000       110.4167
       5418.50        41.2000         1.6300         2.2300       0.420000       111.6833
       5419.00        44.0400         1.6100         2.2200       0.400000       115.4667
       5419.50        44.0400         1.6800         2.2100       0.390000       119.2500
       5420.00        44.7800         1.6400         2.2000       0.390000       120.3000
       5420.50        45.8000         1.6400         2.1900       0.390000       120.9000
       5421.00        43.3100         1.6700         2.1900       0.410000       122.9666
       5421.50        44.7500         1.6000         2.1900       0.400000       123.5167
       5422.00        46.3100         1.5900         2.1900       0.420000       124.7500
       5422.50        52.0600         1.6200         2.1900       0.420000       125.3333
       5423.00        51.8400         1.6700         2.1900       0.420000       122.3500
       5423.50        53.2400         1.6200         2.2000       0.410000       122.0333
       5424.00        51.4800         1.6400         2.2100       0.410000       121.6833
       5424.50        54.3000         1.6000         2.2300       0.410000       120.1000
       5425.00        51.3500         1.5800         2.2300       0.400000       118.3500
       5425.50        50.7600         1.7300         2.2200       0.390000       119.5500
       5426.00        45.1600         1.7000         2.2100       0.390000       121.6667
       5426.50        43.8700         1.6400         2.2000       0.390000       123.2000
       5427.00        43.7800         1.6100         2.2200       0.390000       123.7667
       5427.50        46.5800         1.6400         2.2400       0.380000       124.5833
       5428.00        47.1300         1.6500         2.2200       0.380000       121.8000
       5428.50        47.4800         1.6200         2.2000       0.380000       123.7167
       5429.00        47.7400         1.6600         2.1800       0.380000       124.5667
       5429.50        45.8400         1.7500         2.1600       0.390000       125.5333
       5430.00        43.1000         1.6800         2.1800       0.410000       123.0000
       5430.50        43.5500         1.5800         2.2100       0.420000       121.5333
       5431.00        45.6600         1.5600         2.2200       0.400000       122.0500
       5431.50        48.3400         1.5800         2.2200       0.380000       121.9500
       5432.00        48.7500         1.5600         2.2200       0.400000       124.6167
       5432.50        47.7300         1.5500         2.2200       0.390000       126.9000
       5433.00        46.6200         1.6400         2.2300       0.410000       125.1000
       5433.50        44.7900         1.6500         2.2400       0.380000       123.9667
       5434.00        46.2400         1.5800         2.2300       0.380000       123.0500
       5434.50        47.0300         1.5300         2.2300       0.380000       125.0167
       5435.00        49.3200         1.5400         2.2200       0.390000       125.2000
       5435.50        52.2100         1.6200         2.2100       0.420000       129.1833
       5436.00        56.9100         1.5300         2.2100       0.420000       129.4333
       5436.50        58.8200         1.5400         2.2200       0.410000       128.9833
