~Version Information Block
VERS .                  2.0:  CWLS LOG ASCII STANDARD - VERSION 2.0
WRAP .                   NO:  One line per depth step
~Well Information Block
#MNEM.UNIT        Data Type   Information
#---------- ----------------  -----------
STRT .FT            1860.00:  START DEPTH
STOP .FT           10042.00:  STOP DEPTH
STEP .FT               0.50:  STEP
NULL .              -999.25:  NULL VALUE
COMP .                     :  COMPANY
WELL .             SA-15RD3:  WELL
FLD  .                     :  FIELD
LOC  .                     :  LOCATION
CTRY .                     :  COUNTRY
STAT .                     :  STATE
CNTY .                     :  COUNTY
SRVC .                     :  SERVICE COMPANY
DATE .                     :  DATE
API  .                     :  API NUMBER
UWI  .                     :  UNIQUE WELL ID
~Curve Information Block
#MNEM.UNIT         API CODE   Curve Description
#---------- ----------------  -----------------
DEPTH.FT                   :  DEPTH
GR   .GAPI                 :  Gamma Ray
RT   .OHMM                 :  Deep resistivity
RHOB .G/C3                 :  IFC(DEPTH>8079&DEPTH<8084,DRHO,RHOB_EDT)
NPHI .V/V                  :  Neutron porosity
~Parameter Information Block
#MNEM.UNIT            Value   Description
#---------- ----------------  -----------
PROJECT.            SERANG_FE:  
~Other Information Block
# 
~A       DEPTH             GR             RT           RHOB           NPHI 
# ...
       8868.50        71.1124         2.4540         2.3972       0.304700
       8869.00        74.9809         2.3993         2.4129       0.305900
       8869.50        77.0263         2.2517         2.4102       0.303200
       8870.00        78.5758         2.1485         2.4025       0.307500
       8870.50        78.5037         2.0747         2.3842       0.310000
       8871.00        80.7515         2.0292         2.3685       0.321100
       8871.50        82.5163         1.9923         2.3635       0.339900
       8872.00        83.4294         1.9454         2.3718       0.354100
       8872.50        81.1785         1.9677         2.4107       0.341100
       8873.00        78.4730         2.0714         2.4307       0.319200
       8873.50        75.8679         2.1603         2.4229       0.300800
       8874.00        74.3906         2.2188         2.4322       0.281800
       8874.50        74.1100         2.3106         2.4669       0.292300
       8875.00        73.4737         2.3885         2.4924       0.305500
       8875.50        70.0291         2.4987         2.4799       0.284300
       8876.00        60.3892         2.7138         2.4418       0.255700
       8876.50        48.8143         3.1031         2.4755       0.228900
       8877.00        39.2669         3.5835         2.4949       0.205900
       8877.50        35.9618         3.9487         2.4188       0.192900
       8878.00        36.9496         4.0993         2.3354       0.190000
       8878.50        40.3683         4.0603         2.2921       0.193800
       8879.00        45.1196         3.7804         2.2637       0.200200
       8879.50        49.8304         3.2872         2.2394       0.210300
       8880.00        55.0387         3.1127         2.2310       0.223500
       8880.50        59.8974         3.1216         2.2463       0.239700
       8881.00        66.0591         3.0109         2.2804       0.254100
       8881.50        71.9687         2.8606         2.3241       0.266000
       8882.00        76.5082         2.7516         2.3753       0.269800
       8882.50        78.4013         2.6716         2.4286       0.266600
       8883.00        78.0487         2.6200         2.4775       0.257700
       8883.50        77.4509         2.5814         2.5127       0.251400
       8884.00        77.9413         2.6116         2.5230       0.250000
       8884.50        76.9504         2.7132         2.5162       0.254800
       8885.00        73.8525         2.7569         2.5057       0.259100
       8885.50        69.2330         2.7809         2.5063       0.260000
       8886.00        66.7467         2.7970         2.5094       0.260000
       8886.50        67.6034         2.8348         2.5038       0.247500
       8887.00        69.4334         2.8222         2.4871       0.240600
       8887.50        70.6302         2.7682         2.4595       0.240000
       8888.00        71.5432         2.6456         2.4567       0.247000
       8888.50        73.0934         2.6000         2.4542       0.249300
       8889.00        74.2902         2.5652         2.4614       0.242800
       8889.50        73.6097         2.5152         2.4505       0.240000
       8890.00        72.2367         2.5209         2.4534       0.243400
       8890.50        73.4135         2.5022         2.4523       0.259500
       8891.00        76.0166         2.4204         2.4451       0.275700
       8891.50        77.4902         2.2995         2.4339       0.280000
       8892.00        77.4499         2.2948         2.4335       0.280000
       8892.50        77.3100         2.2682         2.4385       0.280000
       8893.00        77.9445         2.2221         2.4492       0.280000
       8893.50        78.8621         2.1751         2.4476       0.274800
       8894.00        79.1400         2.1600         2.4530       0.270800
       8894.50        78.8190         2.1460         2.4652       0.276300
       8895.00        77.7238         2.1958         2.4834       0.279700
       8895.50        76.9890         2.1851         2.4981       0.286600
       8896.00        77.1710         2.0863         2.5253       0.284800
       8896.50        77.9451         2.0570         2.5581       0.293300
       8897.00        81.4165         1.9832         2.5583       0.294400
       8897.50        84.7123         1.9430         2.5364       0.295300
       8898.00        86.8172         1.8563         2.5157       0.298200
       8898.50        87.0559         1.8549         2.5100       0.306700
       8899.00        87.5551         1.8491         2.5143       0.314300
       8899.50        88.4721         1.7981         2.5235       0.314200
       8900.00        87.7869         1.7940         2.5290       0.311000
       8900.50        85.7787         1.8628         2.5300       0.304900
       8901.00        84.4479         1.9389         2.5300       0.300800
       8901.50        84.1700         1.9740         2.5245       0.300000
       8902.00        84.8140         1.9590         2.5036       0.300000
       8902.50        84.7680         1.9710         2.4858       0.305900
       8903.00        84.3080         1.9450         2.4805       0.297400
       8903.50        84.1700         1.9370         2.4925       0.284500
       8904.00        84.1700         1.9610         2.4865       0.286800
       8904.50        83.8480         1.9840         2.4672       0.296400
       8905.00        83.0730         1.9410         2.4535       0.313500
       8905.50        82.1560         1.9480         2.4501       0.319800
       8906.00        81.5650         1.9530         2.4570       0.319600
       8906.50        80.1490         1.9500         2.4608       0.304700
       8907.00        77.3600         1.9850         2.4743       0.277900
       8907.50        73.1940         1.9860         2.4818       0.262700
       8908.00        70.5390         2.0430         2.4897       0.267500
       8908.50        71.9150         1.9090         2.4884       0.293200
       8909.00        74.0210         1.4480         2.4759       0.314400
       8909.50        74.5700         1.3431         2.4780       0.312800
       8910.00        72.6393         1.5596         2.4873       0.306300
       8910.50        70.8581         1.8928         2.4900       0.283500
       8911.00        67.5574         2.1193         2.4874       0.256400
       8911.50        62.4756         2.3596         2.4785       0.232300
       8912.00        57.6315         2.7630         2.4756       0.217500
       8912.50        55.9470         2.8930         2.4693       0.216000
       8913.00        56.4489         2.9743         2.4619       0.224500
       8913.50        58.3278         2.9468         2.4539       0.235500
       8914.00        61.5796         2.8568         2.4435       0.232800
       8914.50        65.8855         2.5773         2.4396       0.231600
       8915.00        71.4204         2.1821         2.4328       0.256600
       8915.50        76.7215         2.0038         2.4205       0.290200
       8916.00        78.2200         2.0081         2.3817       0.293100
       8916.50        73.7267         2.0972         2.3526       0.269100
       8917.00        64.7570         2.2353         2.3698       0.243700
       8917.50        57.2503         2.6458         2.4196       0.229700
       8918.00        53.4206         3.0253         2.4531       0.222000
       8918.50        52.9269         3.0848         2.4438       0.217800
       8919.00        54.9965         2.9573         2.4320       0.215500
       8919.50        59.9998         2.8677         2.4325       0.226800
       8920.00        65.3020         2.7092         2.4481       0.239800
       8920.50        70.0080         2.5937         2.4808       0.262100
       8921.00        73.6204         2.4714         2.5312       0.270000
       8921.50        77.4641         2.3033         2.5431       0.270000
