~Version Information Block
VERS .                  2.0:  CWLS LOG ASCII STANDARD - VERSION 2.0
WRAP .                   NO:  One line per depth step
~Well Information Block
#MNEM.UNIT        Data Type   Information
#---------- ----------------  -----------
STRT .FT            3123.00:  START DEPTH
STOP .FT           14590.00:  STOP DEPTH
STEP .FT               0.50:  STEP
NULL .              -999.25:  NULL VALUE
COMP .                     :  COMPANY
WELL .                SA-10:  WELL
FLD  .                     :  FIELD
LOC  .                     :  LOCATION
CTRY .                     :  COUNTRY
STAT .                     :  STATE
CNTY .                     :  COUNTY
SRVC .                     :  SERVICE COMPANY
DATE .                     :  DATE
API  .                     :  API NUMBER
UWI  .                     :  UNIQUE WELL ID
~Curve Information Block
#MNEM.UNIT         API CODE   Curve Description
#---------- ----------------  -----------------
DEPTH.FT                   :  DEPTH
GR   .GAPI                 :  Gamma Ray
RT   .OHMM                 :  Deep resistivity
RHOB .G/C3                 :  Bulk density
NPHI .V/V                  :  Neutron porosity
DT   .US/F                 :  Sonic
~Parameter Information Block
#MNEM.UNIT            Value   Description
#---------- ----------------  -----------
PROJECT.            SERANG_FE:  
~Other Information Block
# 
~A       DEPTH             GR             RT           RHOB           NPHI             DT 
       3123.00      -999.2500         0.1300      -999.2500    -999.250000      -999.2500
       3123.50      -999.2500         0.1300      -999.2500    -999.250000      -999.2500
       3124.00        45.9800         0.1300         1.5300       0.620000        72.6500
       3124.50        45.5700         0.1300         1.5300       0.620000        72.6500
       3125.00        45.5100         0.1300         1.5300       0.620000        72.6500
       3125.50        42.9400         0.1300         1.5300       0.620000        72.6500
       3126.00        44.7700         0.1300         1.5300       0.620000        72.6500
       3126.50        43.7400         0.1300         1.5300       0.620000        72.6500
       3127.00        40.9600         0.1300         1.5300       0.620000        72.6500
       3127.50        38.1800         0.1300         1.5300       0.620000        72.6500
       3128.00        37.7700         0.1300         1.5300       0.620000        72.6500
       3128.50        38.5700         0.1300         1.5300       0.620000        72.6500
       3129.00        39.3000         0.1300         1.5300       0.620000        72.6500
       3129.50        42.1200         0.1300         1.5300       0.620000        72.6500
       3130.00        43.2400         0.1300         1.5300       0.620000        72.6500
       3130.50        42.9500         0.1300         1.5300       0.620000        72.6500
       3131.00        41.2600         0.1300         1.5300       0.620000        72.6500
       3131.50        42.2000         0.1300         1.5300       0.620000        72.6500
       3132.00        41.7600         0.1300         1.5300       0.620000        72.6500
       3132.50        40.6500         0.1300         1.5300       0.620000        72.6500
       3133.00        39.0600         0.1300         1.5300       0.620000        72.6500
       3133.50        39.5200         0.1300         1.5300       0.620000        72.6500
       3134.00        40.6100         0.1300         1.5300       0.620000        72.6500
       3134.50        41.1100         0.1300         1.5300       0.620000        72.6500
       3135.00        43.5900         0.1300         1.5300       0.620000        72.6500
       3135.50        41.6900         0.1300         1.5300       0.620000        72.6500
       3136.00        42.4300         0.1300         1.5300       0.620000        72.6500
       3136.50        41.4700         0.1300         1.5300       0.620000        72.6500
       3137.00        43.8300         0.1300         1.5300       0.620000        72.6500
       3137.50        42.7300         0.1300         1.5300       0.620000        72.6500
       3138.00        41.8600         0.1300         1.5300       0.620000        72.6500
       3138.50        40.7400         0.1300         1.5300       0.620000        72.6500
       3139.00        41.8500         0.1300         1.5300       0.620000        72.6500
       3139.50        43.0300         0.1300         1.5300       0.620000        72.6500
       3140.00        43.1800         0.1300         1.5300       0.620000        72.6500
       3140.50        44.4800         0.1300         1.5300       0.620000        72.6500
       3141.00        44.1800         0.1300         1.5300       0.620000        72.6500
       3141.50        44.3200         0.1300         1.5300       0.620000        72.6500
       3142.00        44.7000         0.1300         1.5300       0.620000        72.6500
       3142.50        43.2400         0.1300         1.5300       0.620000        72.6500
       3143.00        42.9500         0.1300         1.5300       0.620000        72.6500
       3143.50        40.3800         0.1300         1.5300       0.620000        72.6500
       3144.00        40.9600         0.1300         1.5300       0.620000        72.6500
       3144.50        41.7800         0.1300         1.5300       0.620000        72.6500
       3145.00        42.7300         0.1300         1.5300       0.620000        72.6500
       3145.50        41.7800         0.1300         1.5300       0.620000        72.6500
       3146.00        39.9300         0.1300         1.5300       0.620000        72.6500
       3146.50        40.0900         0.1300         1.5300       0.620000        72.6500
       3147.00        39.8800         0.1300         1.5300       0.620000        72.6500
       3147.50        41.8600         0.1300         1.5300       0.620000        72.6500
       3148.00        40.4600         0.1300         1.5300       0.620000        72.6500
       3148.50        42.2100         0.1300         1.5300       0.620000        72.6500
       3149.00        40.1600         0.1300         1.5300       0.620000        72.6500
       3149.50        41.3900         0.1300         1.5300       0.620000        72.6500
       3150.00        38.7600         0.1300         1.5300       0.590000        72.6500
       3150.50        38.5600         0.1300         1.5300       0.610000        72.6500
       3151.00        37.8300         0.1300         1.5300       0.570000        72.6500
       3151.50        37.4600         0.1300         1.5300       0.560000        72.6500
       3152.00        37.6700         0.1300         1.5300       0.550000        72.6500
       3152.50        36.5800         0.1300         1.5400       0.570000        72.6500
       3153.00        39.4000         0.1300         1.5500       0.560000        72.6500
       3153.50        41.0200         0.1300         1.5500       0.580000        72.6500
       3154.00        41.0900         0.1300         1.5500       0.560000        72.6500
       3154.50        38.5500         0.1300         1.5900       0.560000        72.6500
       3155.00        36.7200         0.1300         1.6800       0.570000        72.6500
       3155.50        38.7700         0.1300         1.7200       0.580000        72.6500
       3156.00        41.0500         0.1300         1.6800       0.580000        72.6500
       3156.50        42.2100         0.1300         1.7000       0.540000        72.6500
       3157.00        41.3300         0.1300         1.6300       0.530000        72.6500
       3157.50        40.8000         0.1300         1.6000       0.530000        72.6500
       3158.00        38.9000         0.1300         1.5900       0.540000        72.6500
       3158.50        36.5900         0.1300         1.6100       0.550000        72.6500
       3159.00        37.3200         0.1300         1.6200       0.550000        72.6500
       3159.50        38.4900         0.1300         1.6100       0.540000        72.6500
       3160.00        40.7400         0.1300         1.6100       0.520000        72.6500
       3160.50        39.5000         0.1300         1.6200       0.520000        72.6500
       3161.00        39.5000         0.1300         1.6200       0.530000        72.6500
       3161.50        39.7900         0.1300         1.6200       0.540000        72.6500
       3162.00        38.9100         0.1300         1.6100       0.520000        72.6500
       3162.50        39.1300         0.1300         1.6300       0.540000        72.6500
       3163.00        36.1300         0.1300         1.6600       0.520000        72.6500
       3163.50        35.4100         0.1300         1.7000       0.530000        72.6500
       3164.00        35.0300         0.1300         1.7100       0.510000        72.6500
       3164.50        36.7900         0.1300         1.7100       0.510000        72.6500
       3165.00        38.9800         0.1300         1.7300       0.510000        72.6500
       3165.50        39.7900         0.1300         1.7400       0.520000        72.6500
       3166.00        40.2400         0.1300         1.7400       0.540000        72.6500
       3166.50        39.5200         0.1300         1.7400       0.530000        72.6500
       3167.00        36.8000         0.1300         1.7400       0.500000        72.6500
