~Version Information Block
VERS .                  2.0:  CWLS LOG ASCII STANDARD - VERSION 2.0
WRAP .                   NO:  One line per depth step
~Well Information Block
#MNEM.UNIT        Data Type   Information
#---------- ----------------  -----------
STRT .FT        8000.328084:  START DEPTH
STOP .FT       11551.837384:  STOP DEPTH
STEP .FT           1.640420:  STEP
NULL .              -999.25:  NULL VALUE
COMP .                     :  COMPANY
WELL .           SA-15RD1ST:  WELL
FLD  .                     :  FIELD
LOC  .                     :  LOCATION
CTRY .                     :  COUNTRY
STAT .                     :  STATE
CNTY .                     :  COUNTY
SRVC .                     :  SERVICE COMPANY
DATE .                     :  DATE
API  .                     :  API NUMBER
UWI  .                     :  UNIQUE WELL ID
~Curve Information Block
#MNEM.UNIT         API CODE   Curve Description
#---------- ----------------  -----------------
DEPTH.FT                   :  
GR   .GAPI                 :  Merged WIRE with WIRE_ST at 9000.00 F
RT   .OHMM                 :  Merged WIRE with WIRE_ST at 9000.00 F
RHOB .G/C3                 :  Merged WIRE with WIRE_ST at 9000.00 F
NPHI .V/V                  :  Merged WIRE with WIRE_ST at 9000.00 F
~Parameter Information Block
#MNEM.UNIT            Value   Description
#---------- ----------------  -----------
PROJECT.            SERANG_FE:  
~Other Information Block
# 
~A       DEPTH             GR             RT           RHOB           NPHI 
# ...
  10282.152231        37.1387         8.0287         2.5470        0.11714
  10283.792651        37.3792         8.2134         2.5659        0.11789
  10285.433071        42.4543         7.1063         2.5410        0.12523
  10287.073491        40.8474         8.7378         2.5565        0.11422
  10288.713911        49.1169         8.1844         2.5403        0.11932
  10290.354331        47.7055         9.0542         2.5341        0.12632
  10291.994751        50.3107         8.3736         2.5449        0.14082
  10293.635171        52.2325         8.1803         2.5174        0.16575
  10295.275591        60.5022         4.4988         2.4531        0.22657
  10296.916010        75.4657         2.1702         2.4238        0.32096
  10298.556430        89.8374         1.4831         2.4227        0.36167
  10300.196850        90.4935         1.8834         2.3612        0.36126
  10301.837270        81.8717         2.5649         2.2435        0.33038
  10303.477690        68.8101         2.7668         2.2150        0.29167
  10305.118110        55.4898         2.1178         2.1784        0.27761
  10306.758530        48.0854         1.7363         2.1684        0.28758
  10308.398950        43.5023         1.6120         2.1872        0.28868
  10310.039370        49.8318         2.0237         2.2529        0.30118
  10311.679790        54.9581         2.1382         2.3040        0.27505
  10313.320210        60.9324         2.2406         2.2902        0.28275
  10314.960630        66.3308         2.3570         2.3249        0.30349
  10316.601050        64.3030         2.5043         2.3514        0.30371
  10318.241470        58.6200         2.2442         2.2942        0.28790
  10319.881890        51.7088         1.9687         2.2443        0.29487
  10321.522310        51.7766         2.0065         2.2397        0.30926
  10323.162730        61.5779         1.9711         2.2600        0.32189
  10324.803150        71.4989         1.8779         2.3731        0.34341
  10326.443570        70.0727         1.9601         2.4282        0.34432
  10328.083990        74.0690         1.9407         2.4068        0.37655
  10329.724409        72.6854         2.3561         2.3743        0.33283
  10331.364829        66.0766         2.3517         2.3408        0.32908
  10333.005249        62.6355         2.2815         2.3571        0.32877
  10334.645669        62.6542         2.2202         2.3525        0.34357
  10336.286089        64.1203         2.4618         2.3107        0.33736
  10337.926509        63.8148         2.5409         2.2963        0.34083
  10339.566929        70.4648         2.0255         2.3718        0.34614
  10341.207349        74.3456         1.9362         2.4149        0.36448
  10342.847769        77.5128         1.8269         2.4277        0.35709
  10344.488189        75.4989         1.7308         2.4371        0.36677
  10346.128609        72.2446         1.6846         2.4618        0.36571
  10347.769029        75.7927         1.6595         2.4488        0.38338
  10349.409449        76.2759         1.6036         2.4229        0.38891
  10351.049869        77.0860         1.5547         2.3996        0.40723
  10352.690289        80.1895         1.5116         2.3987        0.42042
  10354.330709        82.3136         1.4981         2.3937        0.42996
  10355.971129        81.6810         1.4224         2.3917        0.42935
  10357.611549        80.6812         1.3789         2.4073        0.42052
  10359.251969        82.0129         1.3201         2.4035        0.42417
  10360.892388        85.2840         1.6482         2.4194        0.37110
  10362.532808        90.9790         1.3766         2.4156        0.38919
  10364.173228        88.6660         1.3408         2.4170        0.41503
  10365.813648        88.5288         1.2461         2.4369        0.42660
  10367.454068        86.9712         1.2569         2.4286        0.42702
  10369.094488        79.7625         1.3668         2.4123        0.39834
  10370.734908        66.5442         2.0639         2.3825        0.29753
  10372.375328        61.8013         2.3061         2.3407        0.26159
  10374.015748        63.9770         2.6152         2.3234        0.25615
  10375.656168        59.5546         2.4103         2.2394        0.25764
  10377.296588        63.7429         1.7810         2.1778        0.27099
  10378.937008        79.3043         1.6807         2.2016        0.31512
  10380.577428        98.9038         2.1211         2.2545        0.40553
  10382.217848       110.1270         2.3042         2.2149        0.45093
  10383.858268       116.5888         3.4708         2.1089        0.50104
  10385.498688       106.2490         3.8360         2.1200        0.46454
  10387.139108        87.2532         3.0109         2.1821        0.40725
  10388.779528        75.4829         2.9506         2.2563        0.33897
  10390.419948        64.8375         2.9071         2.2538        0.29760
  10392.060367        53.4949         2.8804         2.1902        0.28227
  10393.700787        44.2714         2.3342         2.1224        0.26706
  10395.341207        41.5700         1.6723         2.1164        0.28014
  10396.981627        42.4863         1.4746         2.1327        0.28310
  10398.622047        44.6032         1.6455         2.1606        0.26826
  10400.262467        55.8137         1.8915         2.2703        0.26739
  10401.902887        65.1273         1.8969         2.3502        0.28595
  10403.543307        68.8499         1.7162         2.4459        0.32800
  10405.183727        68.3577         1.5301         2.4295        0.36186
  10406.824147        71.3105         1.4054         2.4296        0.37839
  10408.464567        71.9522         1.6012         2.4541        0.35808
  10410.104987        69.5126         1.6259         2.4646        0.35225
  10411.745407        69.2418         2.0397         2.4259        0.32808
  10413.385827        66.0437         2.1408         2.4125        0.31465
  10415.026247        62.0461         2.2522         2.3939        0.29266
  10416.666667        65.7900         2.2177         2.3860        0.28429
  10418.307087        69.8772         2.1173         2.3771        0.30384
  10419.947507        72.2209         1.9447         2.3752        0.33254
  10421.587927        75.2555         1.9474         2.4026        0.35531
  10423.228346        75.7671         1.9173         2.4278        0.34743
  10424.868766        75.7611         1.8970         2.4156        0.36210
  10426.509186        77.6809         1.6890         2.4290        0.37753
  10428.149606        79.5411         1.4629         2.4361        0.40944
  10429.790026        84.5606         1.3021         2.4454        0.40898
  10431.430446        84.8917         1.1451         2.4766        0.42057
  10433.070866        77.3391         1.6022         2.5197        0.34999
  10434.711286        74.0034         2.5235         2.5404        0.31161
  10436.351706        84.2842         1.9160         2.4509        0.38759
  10437.992126        90.0255         1.4516         2.4659        0.46149
  10439.632546        88.5662         1.3952         2.4592        0.45573
  10441.272966        89.2788         1.3869         2.4370        0.42705
  10442.913386        87.5047         1.4085         2.4252        0.44299
  10444.553806        91.8534         1.3653         2.4330        0.46504
  10446.194226        89.2221         1.2936         2.4426        0.46045
  10447.834646        81.5554         1.3074         2.4613        0.45254
  10449.475066        82.9321         1.6444         2.4678        0.39137
  10451.115486        83.4072         1.4632         2.4539        0.39463
  10452.755906        85.3947         1.3856         2.4489        0.38031
  10454.396325        79.4646         1.7269         2.4560        0.34630
  10456.036745        72.0865         1.7488         2.4379        0.34209
