~Version Information Block
VERS .                  2.0:  CWLS LOG ASCII STANDARD - VERSION 2.0
WRAP .                   NO:  One line per depth step
~Well Information Block
#MNEM.UNIT        Data Type   Information
#---------- ----------------  -----------
STRT .FT            3123.00:  START DEPTH
STOP .FT           14590.00:  STOP DEPTH
STEP .FT               0.50:  STEP
NULL .              -999.25:  NULL VALUE
COMP .                     :  COMPANY
WELL .                SA-10:  WELL
FLD  .                     :  FIELD
LOC  .                     :  LOCATION
CTRY .                     :  COUNTRY
STAT .                     :  STATE
CNTY .                     :  COUNTY
SRVC .                     :  SERVICE COMPANY
DATE .                     :  DATE
API  .                     :  API NUMBER
UWI  .                     :  UNIQUE WELL ID
~Curve Information Block
#MNEM.UNIT         API CODE   Curve Description
#---------- ----------------  -----------------
DEPTH.FT                   :  DEPTH
GR   .GAPI                 :  Gamma Ray
RT   .OHMM                 :  Deep resistivity
RHOB .G/C3                 :  Bulk density
NPHI .V/V                  :  Neutron porosity
DT   .US/F                 :  Sonic
~Parameter Information Block
#MNEM.UNIT            Value   Description
#---------- ----------------  -----------
PROJECT.            SERANG_FE:  
~Other Information Block
# 
~A       DEPTH             GR             RT           RHOB           NPHI             DT 
# ...
       6950.00        94.5400         6.6700         2.2500       0.410000       117.7500
       6950.50        91.9600         4.8700         2.1800       0.420000       119.9167
       6951.00        91.5600         2.9200         2.0400       0.460000       121.4833
       6951.50        85.9900         2.1700         1.9300       0.470000       124.7000
       6952.00        81.9900         2.1200         1.8800       0.490000       130.5333
       6952.50        81.4600         2.4200         1.9200       0.490000       131.6667
       6953.00        82.7300         2.6800         2.0000       0.480000       132.0333
       6953.50        83.7500         2.7700         2.0400       0.450000       128.0333
       6954.00        84.0100         2.5600         2.0400       0.450000       126.9167
       6954.50        85.5500         2.5300         2.0000       0.470000       128.1333
       6955.00        84.8500         2.2500         2.0200       0.480000       129.6000
       6955.50        82.8800         2.1000         2.1000       0.470000       128.5500
       6956.00        80.0400         2.2500         2.2000       0.430000       124.3833
       6956.50        77.9700         2.3800         2.2800       0.400000       122.5833
       6957.00        79.9300         2.2200         2.3000       0.360000       120.0500
       6957.50        75.7200         1.9700         2.2900       0.350000       116.2667
       6958.00        77.9700         1.9200         2.2900       0.340000       114.8667
       6958.50        74.6200         1.9200         2.2900       0.350000       116.8333
       6959.00        77.8600         1.8800         2.3300       0.350000       115.6000
       6959.50        73.6000         1.9500         2.3600       0.360000       114.6167
       6960.00        74.0200         1.9700         2.3500       0.340000       112.6167
       6960.50        74.1900         1.9500         2.3500       0.350000       113.3667
       6961.00        76.5200         1.8900         2.3400       0.340000       114.0667
       6961.50        76.9900         1.8300         2.3400       0.360000       114.6500
       6962.00        80.0100         1.7900         2.3400       0.370000       113.6000
       6962.50        85.4800         1.8300         2.3500       0.370000       111.7500
       6963.00        87.0500         1.8500         2.3700       0.370000       111.2500
       6963.50        85.4200         1.8300         2.3900       0.360000       111.5333
       6964.00        84.1300         1.9000         2.3900       0.360000       111.0333
       6964.50        85.5500         1.9100         2.4000       0.360000       111.2333
       6965.00        86.9700         1.8900         2.3900       0.350000       110.8667
       6965.50        86.8400         1.8300         2.3800       0.360000       110.7000
       6966.00        85.6600         1.8400         2.3800       0.350000       110.4700
       6966.50        83.9100         1.8100         2.3800       0.340000       109.3667
       6967.00        83.0200         1.8500         2.3700       0.330000       108.2000
       6967.50        79.4900         1.7900         2.3600       0.310000       108.2833
       6968.00        79.5800         1.8900         2.3600       0.320000       108.6167
       6968.50        81.5400         1.8800         2.3600       0.330000       109.2167
       6969.00        82.9600         1.7900         2.3700       0.350000       109.8500
       6969.50        81.3900         1.7900         2.3600       0.340000       109.9833
       6970.00        75.4900         1.8600         2.3600       0.330000       110.8000
       6970.50        75.6400         1.8900         2.3000       0.330000       110.3000
       6971.00        76.8100         1.8100         2.2300       0.360000       109.9167
       6971.50        79.2700         1.8300         2.2100       0.370000       110.3500
       6972.00        79.3600         1.8000         2.2700       0.360000       110.0333
       6972.50        81.3300         1.8000         2.3500       0.360000       110.9500
       6973.00        82.0400         1.7900         2.3800       0.380000       110.4500
       6973.50        83.8500         1.9200         2.3700       0.390000       110.6167
       6974.00        80.7200         1.8900         2.3700       0.370000       110.9333
       6974.50        80.7200         1.7900         2.3800       0.380000       110.8167
       6975.00        78.6000         1.7600         2.3800       0.370000       109.1333
       6975.50        81.3900         1.6900         2.3600       0.370000       109.6833
       6976.00        79.0600         1.7400         2.3400       0.350000       110.6500
       6976.50        78.7500         1.8200         2.3400       0.360000       112.2667
       6977.00        75.5700         1.8200         2.3400       0.370000       112.0667
       6977.50        76.2500         1.7900         2.3300       0.390000       112.7500
       6978.00        77.3500         1.8300         2.3100       0.400000       112.5000
       6978.50        77.9200         1.8800         2.2800       0.390000       113.4500
       6979.00        78.4800         1.8400         2.2600       0.410000       112.2500
       6979.50        77.3700         1.8300         2.2500       0.400000       112.6500
       6980.00        78.7600         1.7600         2.2100       0.440000       112.5833
       6980.50        78.5700         1.7700         2.1900       0.420000       112.3833
       6981.00        80.4100         1.7200         2.1700       0.400000       113.7833
       6981.50        79.4600         1.8400         2.1400       0.360000       113.6500
       6982.00        79.2700         1.6800         2.0800       0.360000       113.7667
       6982.50        79.2700         1.6400         2.0300       0.390000       114.7167
       6983.00        83.5400         1.8300         2.0600       0.400000       113.9500
       6983.50        84.7700         1.8700         2.1100       0.400000       114.8833
       6984.00        84.9200         1.7200         2.1600       0.380000       114.5000
       6984.50        79.4000         1.6600         2.1300       0.390000       114.5167
       6985.00        79.4000         1.7500         2.0800       0.400000       114.4833
       6985.50        75.8300         1.8400         2.0500       0.400000       113.2333
       6986.00        75.5500         1.6800         2.0400       0.400000       113.5500
       6986.50        75.6400         1.6800         2.0100       0.410000       113.5167
       6987.00        79.9800         1.8300         1.9600       0.410000       113.5667
       6987.50        82.4300         1.6900         1.9400       0.400000       112.7667
       6988.00        82.8700         1.5600         1.9300       0.390000       114.9667
       6988.50        79.6800         1.6900         1.9600       0.400000       114.9000
       6989.00        79.1800         1.8600         2.0000       0.460000       116.9667
       6989.50        74.6700         1.9100         2.0300       0.460000       115.1333
       6990.00        74.6400         1.8300         2.0100       0.450000       115.6667
       6990.50        72.1000         1.7300         1.9600       0.440000       116.1167
       6991.00        74.6800         1.7200         1.9200       0.430000       117.6000
       6991.50        72.1500         1.7100         1.8800       0.430000       115.7500
       6992.00        73.7700         1.7000         1.8800       0.440000       117.6000
       6992.50        70.4600         1.7200         1.9000       0.460000       113.8500
       6993.00        71.7200         1.9100         2.0100       0.490000       113.3000
       6993.50        71.4200         1.8200         2.1400       0.490000       112.0500
       6994.00        70.1300         1.6900         2.2800       0.480000       110.9833
