~Version Information Block
VERS .                  2.0:  CWLS LOG ASCII STANDARD - VERSION 2.0
WRAP .                   NO:  One line per depth step
~Well Information Block
#MNEM.UNIT        Data Type   Information
#---------- ----------------  -----------
STRT .FT            1860.00:  START DEPTH
STOP .FT           10042.00:  STOP DEPTH
STEP .FT               0.50:  STEP
NULL .              -999.25:  NULL VALUE
COMP .                     :  COMPANY
WELL .             SA-15RD3:  WELL
FLD  .                     :  FIELD
LOC  .                     :  LOCATION
CTRY .                     :  COUNTRY
STAT .                     :  STATE
CNTY .                     :  COUNTY
SRVC .                     :  SERVICE COMPANY
DATE .                     :  DATE
API  .                     :  API NUMBER
UWI  .                     :  UNIQUE WELL ID
~Curve Information Block
#MNEM.UNIT         API CODE   Curve Description
#---------- ----------------  -----------------
DEPTH.FT                   :  DEPTH
GR   .GAPI                 :  Gamma Ray
RT   .OHMM                 :  Deep resistivity
RHOB .G/C3                 :  IFC(DEPTH>8079&DEPTH<8084,DRHO,RHOB_EDT)
NPHI .V/V                  :  Neutron porosity
~Parameter Information Block
#MNEM.UNIT            Value   Description
#---------- ----------------  -----------
PROJECT.            SERANG_FE:  
~Other Information Block
# 
~A       DEPTH             GR             RT           RHOB           NPHI 
# ...
       6193.50       100.9370         1.0407         2.3503       0.458600
       6194.00       101.3930         0.9726         2.3585       0.448500
       6194.50       101.4067         0.9396         2.3860       0.449300
       6195.00       101.4565         0.9182         2.3944       0.472700
       6195.50       100.9313         0.8993         2.3693       0.501500
       6196.00        99.5451         0.8958         2.3502       0.438400
       6196.50        96.5391         0.9192         2.3417       0.410400
       6197.00        91.6056         1.0106         2.3492       0.367500
       6197.50        86.2085         1.2592         2.3635       0.354100
       6198.00        82.1396         1.5286         2.3661       0.352300
       6198.50        81.8304         1.5710         2.3536       0.358600
       6199.00        83.1389         1.3824         2.3327       0.390700
       6199.50        85.3337         1.2758         2.3225       0.394300
       6200.00        85.7274         1.2408         2.3289       0.356700
       6200.50        85.3821         1.2776         2.3233       0.324300
       6201.00        85.1468         1.3133         2.3374       0.321400
       6201.50        87.1694         1.2879         2.3171       0.360200
       6202.00        90.5848         1.2167         2.3233       0.395000
       6202.50        95.4807         1.0793         2.3142       0.409100
       6203.00        99.3463         0.9433         2.3096       0.435200
       6203.50       102.3280         0.8682         2.2919       0.455900
       6204.00       103.2835         0.8539         2.2891       0.467100
       6204.50       102.3806         0.8449         2.3061       0.449700
       6205.00        99.0908         0.8574         2.3275       0.448800
       6205.50        93.8469         0.9288         2.3466       0.465400
       6206.00        88.0131         1.0388         2.3803       0.470800
       6206.50        83.4169         1.2073         2.4467       0.457800
       6207.00        78.9047         1.6363         2.5344       0.382700
       6207.50        74.9747         2.4439         2.5921       0.348100
       6208.00        71.9503         3.0658         2.5275       0.339800
       6208.50        72.0194         2.7329         2.3932       0.397700
       6209.00        74.2903         1.8493         2.2921       0.433500
       6209.50        77.1397         1.3247         2.2588       0.429700
       6210.00        79.4934         1.1701         2.2544       0.402500
       6210.50        80.1800         1.1372         2.2323       0.391600
       6211.00        80.1934         1.1679         2.2148       0.397700
       6211.50        80.1125         1.2403         2.2048       0.402300
       6212.00        82.3325         1.3090         2.1966       0.395600
       6212.50        85.9887         1.2600         2.1866       0.386500
       6213.00        89.3303         1.1294         2.1712       0.401300
       6213.50        90.9294         1.0913         2.1659       0.417800
       6214.00        91.4997         0.9765         2.1828       0.426700
       6214.50        93.0259         0.9192         2.2196       0.450800
       6215.00        93.5518         0.9034         2.2633       0.406900
       6215.50        92.3985         0.9301         2.2557       0.365800
       6216.00        91.4168         1.0175         2.2251       0.303600
       6216.50        91.6583         1.0734         2.1974       0.316500
       6217.00        92.6440         0.9860         2.1752       0.359700
       6217.50        92.9826         0.9027         2.1635       0.368000
       6218.00        94.3176         0.8914         2.1767       0.354300
       6218.50        96.2880         0.8971         2.2194       0.377100
       6219.00        97.8914         0.9096         2.2541       0.397400
       6219.50        98.5889         0.9465         2.2571       0.412100
       6220.00        98.8275         0.9731         2.2433       0.431400
       6220.50        98.2986         1.0031         2.2197       0.475900
       6221.00        96.8439         1.0778         2.1851       0.435000
       6221.50        93.8279         1.2066         2.1449       0.393900
       6222.00        89.2437         1.3183         2.1009       0.352800
       6222.50        84.2343         1.3941         2.0612       0.333700
       6223.00        80.5927         1.5075         2.0292       0.302400
       6223.50        78.6610         1.6091         2.0089       0.283500
       6224.00        78.0764         1.6435         2.0105       0.280200
       6224.50        78.8888         1.6439         2.0618       0.287200
       6225.00        81.0393         1.5885         2.1423       0.311700
       6225.50        83.6281         1.4895         2.2005       0.333400
       6226.00        85.7553         1.3489         2.2152       0.357100
       6226.50        87.3615         1.2036         2.2103       0.371500
       6227.00        88.2098         1.1929         2.2148       0.390100
       6227.50        88.0829         1.1944         2.2267       0.376200
       6228.00        87.1141         1.1891         2.2405       0.354300
       6228.50        86.6042         1.1922         2.2542       0.363300
       6229.00        87.1049         1.1500         2.2684       0.390400
       6229.50        89.6159         1.1004         2.2840       0.414400
       6230.00        92.9278         1.0688         2.2964       0.441900
       6230.50        96.3955         1.0294         2.3024       0.483400
       6231.00        98.0226         0.9779         2.3041       0.514100
       6231.50        98.5368         0.9506         2.2983       0.474900
       6232.00        98.6498         0.9355         2.2853       0.405000
       6232.50        98.6011         0.9234         2.2801       0.392700
       6233.00        97.5242         0.9002         2.2913       0.436500
       6233.50        96.2895         0.8670         2.3084       0.470600
       6234.00        96.5013         0.8451         2.3175       0.464100
       6234.50        97.2788         0.8363         2.3230       0.435800
       6235.00        97.9792         0.8261         2.3211       0.438000
       6235.50        97.1297         0.8294         2.3192       0.451000
       6236.00        95.2841         0.8592         2.3247       0.441100
       6236.50        90.6753         0.9050         2.3363       0.404900
       6237.00        84.8259         0.9875         2.3614       0.376700
       6237.50        78.6703         1.2094         2.3778       0.351000
       6238.00        75.0780         1.5213         2.3723       0.333900
       6238.50        73.0158         1.7448         2.3292       0.336500
       6239.00        72.2987         1.7642         2.2738       0.381000
       6239.50        71.9885         1.5898         2.2293       0.409200
       6240.00        72.7150         1.4314         2.2039       0.397100
       6240.50        74.5292         1.2872         2.2009       0.378400
       6241.00        76.9576         1.2001         2.2152       0.399400
       6241.50        79.5904         1.1255         2.2344       0.447000
       6242.00        82.0572         1.0447         2.2437       0.470900
       6242.50        83.4981         0.9929         2.2403       0.486600
       6243.00        84.0539         1.0350         2.2412       0.491500
       6243.50        84.3119         1.0769         2.2464       0.496800
       6244.00        85.7482         0.9671         2.2527       0.493700
       6244.50        87.4519         0.9300         2.2558       0.480200
       6245.00        88.3700         0.9342         2.2599       0.482100
       6245.50        88.1179         0.9737         2.2675       0.446200
       6246.00        86.8948         1.0904         2.2761       0.399400
       6246.50        84.3532         1.2554         2.2837       0.379200
