~Version Information Block
VERS .                  2.0:  CWLS LOG ASCII STANDARD - VERSION 2.0
WRAP .                   NO:  One line per depth step
~Well Information Block
#MNEM.UNIT        Data Type   Information
#---------- ----------------  -----------
STRT .FT            3123.00:  START DEPTH
STOP .FT           14590.00:  STOP DEPTH
STEP .FT               0.50:  STEP
NULL .              -999.25:  NULL VALUE
COMP .                     :  COMPANY
WELL .                SA-10:  WELL
FLD  .                     :  FIELD
LOC  .                     :  LOCATION
CTRY .                     :  COUNTRY
STAT .                     :  STATE
CNTY .                     :  COUNTY
SRVC .                     :  SERVICE COMPANY
DATE .                     :  DATE
API  .                     :  API NUMBER
UWI  .                     :  UNIQUE WELL ID
~Curve Information Block
#MNEM.UNIT         API CODE   Curve Description
#---------- ----------------  -----------------
DEPTH.FT                   :  DEPTH
GR   .GAPI                 :  Gamma Ray
RT   .OHMM                 :  Deep resistivity
RHOB .G/C3                 :  Bulk density
NPHI .V/V                  :  Neutron porosity
DT   .US/F                 :  Sonic
~Parameter Information Block
#MNEM.UNIT            Value   Description
#---------- ----------------  -----------
PROJECT.            SERANG_FE:  
~Other Information Block
# 
~A       DEPTH             GR             RT           RHOB           NPHI             DT 
# ...
      10732.50        58.0400         1.7400         2.4900       0.200000        69.1000
      10733.00        57.5200         1.5900         2.4800       0.200000        69.1000
      10733.50        55.1600         1.4600         2.4900       0.200000        69.1000
      10734.00        54.8100         1.6100         2.4900       0.200000        69.1000
      10734.50        53.9600         1.5800         2.5000       0.200000        69.1000
      10735.00        53.8600         1.5600         2.4900       0.200000        69.1000
      10735.50        51.0000         1.4400         2.4800       0.200000        69.1000
      10736.00        49.3000         1.6800         2.4800       0.200000        69.1000
      10736.50        48.3000         1.7700         2.4800       0.200000        69.1000
      10737.00        46.2400         1.6500         2.4900       0.200000        69.1000
      10737.50        43.8200         1.9600         2.4800       0.200000        69.1000
      10738.00        41.3700         2.0300         2.4800       0.200000        69.1000
      10738.50        41.9900         1.9200         2.4800       0.200000        69.1000
      10739.00        41.3600         2.3900         2.4800       0.200000        69.1000
      10739.50        39.9900         2.2900         2.4800       0.200000        69.1000
      10740.00        35.3200         1.6900         2.4900       0.200000        69.1000
      10740.50        31.9500         1.8200         2.4900       0.200000        69.1000
      10741.00        29.0700         1.9500         2.4900       0.200000        69.1000
      10741.50        27.0300         3.1900         2.4900       0.200000        69.1000
      10742.00        27.4800         2.7500         2.4900       0.200000        69.1000
      10742.50        27.8700         3.2300         2.4800       0.200000        69.1000
      10743.00        32.3000         2.7800         2.4900       0.200000        69.1000
      10743.50        39.6600         2.4200         2.4900       0.200000        69.1000
      10744.00        45.0600         2.0200         2.5000       0.200000        69.1000
      10744.50        47.2900         2.1500         2.5000       0.200000        69.1000
      10745.00        44.4900         2.2300         2.5000       0.200000        69.1000
      10745.50        45.8600         2.1900         2.4900       0.200000        69.1000
      10746.00        45.7600         2.2600         2.5000       0.200000        69.1000
      10746.50        47.3400         1.4300         2.4900       0.200000        69.1000
      10747.00        46.9500         1.8200         2.4900       0.200000        69.1000
      10747.50        44.8800         2.4100         2.4800       0.200000        69.1000
      10748.00        37.9000         2.4900         2.4800       0.200000        69.1000
      10748.50        35.5100         1.8000         2.4900       0.200000        69.1000
      10749.00        36.7100         2.2500         2.4900       0.200000        69.1000
      10749.50        41.3300         2.5100         2.4900       0.200000        69.1000
      10750.00        40.7300       147.0500         2.4200       0.260000        67.3000
      10750.50        40.3200       355.5000         2.4500       0.260000        67.6000
      10751.00        38.1600       114.0000         2.4500       0.250000        68.2000
      10751.50        36.9900        15.1900         2.4400       0.250000        61.4167
      10752.00        34.0100         2.3900         2.4200       0.250000        61.9667
      10752.50        32.7100         0.6900         2.3900       0.260000        58.8667
      10753.00        31.9200         0.3400         2.3800       0.260000        72.0000
      10753.50        31.8200         0.7000         2.3900       0.260000        73.7833
      10754.00        32.7900         1.6500         2.3900       0.260000        68.4000
      10754.50        31.9300         2.7900         2.4100       0.260000        78.9500
      10755.00        30.7100         0.4800         2.4500       0.250000        92.5500
      10755.50        29.4300         2.1600         2.4100       0.250000       101.6667
      10756.00        27.9600         0.5700         2.3600       0.240000        93.1500
      10756.50        28.3600         0.1800         2.5000       0.240000        90.8833
      10757.00        30.4300         0.0200         2.5900       0.230000        73.5667
      10757.50        33.9000         0.0100         2.5800       0.210000        71.8667
      10758.00        35.3700         0.1300         2.5800       0.200000        73.6667
      10758.50        36.6600         0.1600         2.5700       0.210000        76.9333
      10759.00        40.0700         0.0400         2.5700       0.220000        82.1167
      10759.50        46.6700         0.0300         2.5700       0.230000        84.8500
      10760.00        51.3300         0.1100         2.5800       0.240000        85.2333
      10760.50        53.9700         0.3100         2.6000       0.240000        84.3000
      10761.00        54.2900         0.7100         2.6100       0.220000        84.6000
      10761.50        56.1300         1.8800         2.6100       0.220000        85.6833
      10762.00        58.7800         4.4500         2.5900       0.230000        87.4667
      10762.50        60.9000        22.2300         2.5700       0.240000        89.5833
      10763.00        62.9700        12.9000         2.5700       0.240000        89.7333
      10763.50        65.6100         4.5200         2.5600       0.250000        88.6000
      10764.00        66.4800         2.1600         2.5600       0.250000        86.8667
      10764.50        65.6900         1.3000         2.5600       0.260000        84.0000
      10765.00        64.4100         1.6600         2.5600       0.250000        81.6000
      10765.50        62.6900         2.0900         2.5600       0.250000        78.7833
      10766.00        61.5100         2.8200         2.5700       0.250000        77.1167
      10766.50        58.8200         3.7000         2.5900       0.240000        76.4833
      10767.00        54.3900         5.7400         2.6100       0.210000        76.0500
      10767.50        50.7200         4.2300         2.6100       0.180000        75.8500
      10768.00        48.4500         3.0100         2.6100       0.160000        73.3500
      10768.50        47.9800         2.7000         2.6100       0.160000        73.7667
      10769.00        47.4800         2.4600         2.6100       0.160000        73.6500
      10769.50        44.1000         2.6000         2.6100       0.150000        73.6333
      10770.00        42.6700         3.2700         2.6200       0.130000        73.5500
      10770.50        41.0900         3.2300         2.6300       0.130000        71.3500
      10771.00        40.0600         3.4800         2.6400       0.120000        72.6167
      10771.50        39.8400         3.6200         2.6400       0.130000        73.1167
      10772.00        41.1900         3.3500         2.6400       0.130000        74.7500
      10772.50        45.2200         3.1200         2.6300       0.150000        77.3500
      10773.00        47.5600         3.0000         2.6200       0.160000        77.7500
      10773.50        49.5000         3.0100         2.6100       0.150000        77.1000
      10774.00        51.3100         3.1700         2.6000       0.150000        76.7833
      10774.50        55.3600         3.3400         2.6100       0.140000        74.6333
      10775.00        55.6400         3.9700         2.6100       0.130000        73.5500
      10775.50        54.0200         3.8500         2.6000       0.130000        71.9500
      10776.00        51.7300         4.0900         2.6000       0.130000        70.4667
      10776.50        47.2500         3.7600         2.6100       0.120000        68.9000
