~Version Information Block
VERS .                  2.0:  CWLS LOG ASCII STANDARD - VERSION 2.0
WRAP .                   NO:  One line per depth step
~Well Information Block
#MNEM.UNIT        Data Type   Information
#---------- ----------------  -----------
STRT .FT        8000.328084:  START DEPTH
STOP .FT       11551.837384:  STOP DEPTH
STEP .FT           1.640420:  STEP
NULL .              -999.25:  NULL VALUE
COMP .                     :  COMPANY
WELL .           SA-15RD1ST:  WELL
FLD  .                     :  FIELD
LOC  .                     :  LOCATION
CTRY .                     :  COUNTRY
STAT .                     :  STATE
CNTY .                     :  COUNTY
SRVC .                     :  SERVICE COMPANY
DATE .                     :  DATE
API  .                     :  API NUMBER
UWI  .                     :  UNIQUE WELL ID
~Curve Information Block
#MNEM.UNIT         API CODE   Curve Description
#---------- ----------------  -----------------
DEPTH.FT                   :  
GR   .GAPI                 :  Merged WIRE with WIRE_ST at 9000.00 F
RT   .OHMM                 :  Merged WIRE with WIRE_ST at 9000.00 F
RHOB .G/C3                 :  Merged WIRE with WIRE_ST at 9000.00 F
NPHI .V/V                  :  Merged WIRE with WIRE_ST at 9000.00 F
~Parameter Information Block
#MNEM.UNIT            Value   Description
#---------- ----------------  -----------
PROJECT.            SERANG_FE:  
~Other Information Block
# 
~A       DEPTH             GR             RT           RHOB           NPHI 
# ...
   9404.527559       128.6218         2.4907         2.0489        0.57080
   9406.167979        93.9139         2.3520         2.2735        0.38095
   9407.808399        75.8824         2.0497         2.3693        0.30018
   9409.448819        76.8821         1.7707         2.3917        0.31321
   9411.089239        87.6315         1.4732         2.4150        0.33800
   9412.729659        91.5106         1.5419         2.4129        0.32046
   9414.370079        94.9220         1.5013         2.4004        0.30161
   9416.010499       112.3305         1.2794         2.3584        0.37054
   9417.650919       141.2767         1.4924         2.2038        0.44931
   9419.291339       159.7603         2.0944         2.0506        0.48488
   9420.931759       149.3344         2.2975         2.1846        0.48073
   9422.572178       138.9285         2.2757         2.2128        0.45453
   9424.212598       128.1497         2.0402         2.2144        0.45699
   9425.853018       108.8351         1.7058         2.2267        0.53986
   9427.493438        93.6639         1.5991         2.2320        0.49394
   9429.133858        77.5496         1.7151         2.3344        0.41353
   9430.774278        63.7285         1.8313         2.3355        0.35880
   9432.414698        59.0977         1.6530         2.3062        0.35477
   9434.055118        60.8464         1.6522         2.3389        0.36383
   9435.695538        62.9712         1.7619         2.3616        0.28733
   9437.335958        54.5136         2.3345         2.4395        0.25362
   9438.976378        53.4894         1.6446         2.3725        0.31031
   9440.616798        60.8142         1.8710         2.3844        0.35392
   9442.257218        63.2098         1.7890         2.4051        0.29613
   9443.897638        62.6818         1.8340         2.3704        0.23516
   9445.538058        65.9243         1.8385         2.3899        0.29912
   9447.178478        66.9760         1.8400         2.3869        0.32552
   9448.818898        69.5674         1.7940         2.3690        0.33790
   9450.459318        69.1596         1.8270         2.3687        0.34383
   9452.099738        70.2496         1.8152         2.4122        0.33628
   9453.740157        68.6964         1.8074         2.3856        0.33598
   9455.380577        73.9203         1.8073         2.3730        0.33084
   9457.020997        77.3651         1.7555         2.3651        0.33579
   9458.661417        78.0877         1.6930         2.3740        0.35664
   9460.301837        74.1435         1.6478         2.3842        0.36289
   9461.942257        75.2992         1.5883         2.3551        0.38603
   9463.582677        74.9923         1.5355         2.3557        0.39781
   9465.223097        79.2115         1.5454         2.3690        0.35539
   9466.863517        88.9120         1.5379         2.3677        0.34139
   9468.503937        93.0650         1.5220         2.3671        0.35157
   9470.144357        88.5145         1.5361         2.3863        0.36455
   9471.784777        88.1419         1.5069         2.3887        0.34884
   9473.425197        87.9666         1.4976         2.3753        0.37541
   9475.065617        85.8655         1.4708         2.3936        0.40404
   9476.706037        80.6505         1.4572         2.3945        0.40636
   9478.346457        81.3820         1.4579         2.4004        0.40141
   9479.986877        82.7616         1.4050         2.4118        0.37336
   9481.627297        86.5397         1.3440         2.3967        0.35620
   9483.267717        81.6098         1.3276         2.3985        0.37560
   9484.908136        75.8425         1.3979         2.4112        0.34379
   9486.548556        76.1508         1.4706         2.4050        0.29836
   9488.188976        75.3805         1.4995         2.3975        0.33379
   9489.829396        76.0188         1.4575         2.3890        0.39816
   9491.469816        81.7933         1.4503         2.3797        0.41072
   9493.110236        80.0206         1.4223         2.3748        0.43632
   9494.750656        84.7353         1.4510         2.3865        0.42003
   9496.391076        83.5402         1.4820         2.3780        0.43761
   9498.031496        84.0306         1.4380         2.3943        0.42590
   9499.671916        86.0834         1.4130         2.4008        0.44332
   9501.312336        87.6284         1.4340         2.3986        0.46768
   9502.952756        85.5426         1.4351         2.3920        0.46172
   9504.593176        84.2406         1.4090         2.3731        0.46747
   9506.233596        83.8992         1.4290         2.3742        0.44215
   9507.874016        84.4830         1.4150         2.3847        0.49453
   9509.514436        83.0698         1.3870         2.4088        0.47710
   9511.154856        83.2019         1.4000         2.3904        0.48849
   9512.795276        84.9975         1.3980         2.4070        0.49003
   9514.435696        85.2374         1.3370         2.3891        0.49920
   9516.076115        84.9824         1.3670         2.3760        0.46001
   9517.716535        85.1356         1.3190         2.3527        0.49264
   9519.356955        91.8813         1.3659         2.3660        0.46531
   9520.997375        97.6362         1.2350         2.3840        0.48866
   9522.637795        95.4590         1.3089         2.3830        0.52082
   9524.278215        92.2725         1.3794         2.3826        0.50798
   9525.918635        92.8052         1.4067         2.4067        0.49329
   9527.559055        90.7489         1.3153         2.4009        0.45766
   9529.199475        87.0775         1.2580         2.3674        0.47811
   9530.839895        86.1341         1.2149         2.3744        0.48320
   9532.480315        85.8455         1.2350         2.4066        0.48900
   9534.120735        85.7754         1.2907         2.3832        0.45136
   9535.761155        88.4297         1.3030         2.4037        0.30512
   9537.401575        89.0631         1.2770         2.4304        0.33346
   9539.041995        96.1444         1.2560         2.4340        0.44808
   9540.682415        99.8335         1.2390         2.4219        0.45418
   9542.322835        99.4384         1.2670         2.4259        0.42996
   9543.963255        94.1713         1.1935         2.4329        0.41854
   9545.603675        89.1442         1.2058         2.4198        0.41686
   9547.244094        93.8120         1.2312         2.4110        0.41253
   9548.884514       100.5242         1.1598         2.4269        0.42653
   9550.524934       102.7865         1.1450         2.4370        0.44729
   9552.165354       105.0809         1.1307         2.4340        0.46407
   9553.805774        99.8091         1.1202         2.4345        0.48829
   9555.446194        97.7265         1.0794         2.4108        0.44851
   9557.086614       105.2345         1.1134         2.4247        0.42769
   9558.727034       124.1171         1.4776         2.4524        0.40377
   9560.367454       160.0582         1.4039         2.4196        0.47143
   9562.007874       189.8658         2.3299         2.1642        0.63860
   9563.648294       215.0641         3.1160         1.8916        0.66345
   9565.288714       233.0106         3.0750         1.8745        0.72566
   9566.929134       277.2812         3.1261         1.8148        0.70461
   9568.569554       256.5644         2.7973         1.7436        0.72110
   9570.209974       185.7070         2.0930         1.9943        0.52984
   9571.850394       134.8370         1.5065         2.2179        0.43707
   9573.490814       108.1479         0.9737         2.3705        0.40302
   9575.131234       103.8197         0.9779         2.3783        0.45094
   9576.771654       124.2827         1.1637         2.3265        0.51904
   9578.412073       147.8415         1.2681         2.1751        0.53299
