~Version Information Block
VERS .                  2.0:  CWLS LOG ASCII STANDARD - VERSION 2.0
WRAP .                   NO:  One line per depth step
~Well Information Block
#MNEM.UNIT        Data Type   Information
#---------- ----------------  -----------
STRT .FT            1860.00:  START DEPTH
STOP .FT           10042.00:  STOP DEPTH
STEP .FT               0.50:  STEP
NULL .              -999.25:  NULL VALUE
COMP .                     :  COMPANY
WELL .             SA-15RD3:  WELL
FLD  .                     :  FIELD
LOC  .                     :  LOCATION
CTRY .                     :  COUNTRY
STAT .                     :  STATE
CNTY .                     :  COUNTY
SRVC .                     :  SERVICE COMPANY
DATE .                     :  DATE
API  .                     :  API NUMBER
UWI  .                     :  UNIQUE WELL ID
~Curve Information Block
#MNEM.UNIT         API CODE   Curve Description
#---------- ----------------  -----------------
DEPTH.FT                   :  DEPTH
GR   .GAPI                 :  Gamma Ray
RT   .OHMM                 :  Deep resistivity
RHOB .G/C3                 :  IFC(DEPTH>8079&DEPTH<8084,DRHO,RHOB_EDT)
NPHI .V/V                  :  Neutron porosity
~Parameter Information Block
#MNEM.UNIT            Value   Description
#---------- ----------------  -----------
PROJECT.            SERANG_FE:  
~Other Information Block
# 
~A       DEPTH             GR             RT           RHOB           NPHI 
# ...
       5658.50        53.5009      -999.2500      -999.2500    -999.250000
       5659.00        54.7192      -999.2500      -999.2500    -999.250000
       5659.50        54.2192      -999.2500      -999.2500    -999.250000
       5660.00        54.1084      -999.2500      -999.2500    -999.250000
       5660.50        54.7276      -999.2500      -999.2500    -999.250000
       5661.00        55.3041      -999.2500      -999.2500    -999.250000
       5661.50        55.5710      -999.2500      -999.2500    -999.250000
       5662.00        55.6018      -999.2500      -999.2500    -999.250000
       5662.50        56.7002      -999.2500      -999.2500    -999.250000
       5663.00        58.3321      -999.2500      -999.2500    -999.250000
       5663.50        59.2628      -999.2500      -999.2500    -999.250000
       5664.00        59.4144      -999.2500      -999.2500    -999.250000
       5664.50        58.2324      -999.2500      -999.2500    -999.250000
       5665.00        55.8154      -999.2500      -999.2500    -999.250000
       5665.50        54.0779      -999.2500      -999.2500    -999.250000
       5666.00        52.4382      -999.2500      -999.2500    -999.250000
       5666.50        51.5953      -999.2500      -999.2500    -999.250000
       5667.00        50.5430      -999.2500      -999.2500    -999.250000
       5667.50        49.9952      -999.2500      -999.2500    -999.250000
       5668.00        50.0714      -999.2500      -999.2500    -999.250000
       5668.50        50.1827      -999.2500      -999.2500    -999.250000
       5669.00        51.1694      -999.2500      -999.2500    -999.250000
       5669.50        52.5474      -999.2500      -999.2500    -999.250000
       5670.00        53.3968      -999.2500      -999.2500    -999.250000
       5670.50        52.4929      -999.2500      -999.2500    -999.250000
       5671.00        51.1489      -999.2500      -999.2500    -999.250000
       5671.50        51.4644      -999.2500      -999.2500    -999.250000
       5672.00        54.4095      -999.2500      -999.2500    -999.250000
       5672.50        58.2804      -999.2500      -999.2500    -999.250000
       5673.00        60.4808      -999.2500      -999.2500    -999.250000
       5673.50        59.8605      -999.2500      -999.2500    -999.250000
       5674.00        57.4337      -999.2500      -999.2500    -999.250000
       5674.50        54.5348      -999.2500      -999.2500    -999.250000
       5675.00        52.5836      -999.2500      -999.2500    -999.250000
       5675.50        52.3616      -999.2500      -999.2500    -999.250000
       5676.00        54.0652      -999.2500      -999.2500    -999.250000
       5676.50        56.2575      -999.2500      -999.2500    -999.250000
       5677.00        56.4186      -999.2500      -999.2500    -999.250000
       5677.50        52.8358      -999.2500      -999.2500    -999.250000
       5678.00        48.3371      -999.2500      -999.2500    -999.250000
       5678.50        46.0762      -999.2500      -999.2500    -999.250000
       5679.00        46.9228      -999.2500      -999.2500    -999.250000
       5679.50        48.7350      -999.2500      -999.2500    -999.250000
       5680.00        52.1668      -999.2500      -999.2500    -999.250000
       5680.50        59.4025      -999.2500      -999.2500    -999.250000
       5681.00        64.2945      -999.2500      -999.2500    -999.250000
       5681.50        70.2384      -999.2500      -999.2500    -999.250000
       5682.00        73.7281      -999.2500         2.0976       0.538900
       5682.50        75.2441      -999.2500         2.1163       0.566400
       5683.00        77.8290      -999.2500         2.1196       0.594800
       5683.50        80.1280         1.4461         2.1126       0.608500
       5684.00        81.4210         0.9056         2.0938       0.639800
       5684.50        80.7847         0.8949         2.0826       0.656300
       5685.00        79.5480         0.8760         2.0800       0.665500
       5685.50        77.6883         0.9348         2.0810       0.626800
       5686.00        75.0456         1.0556         2.0826       0.588200
       5686.50        71.8116         1.2158         2.0843       0.575300
       5687.00        69.4633         1.3434         2.0854       0.568500
       5687.50        68.9993         1.3082         2.0847       0.574200
       5688.00        70.5623         1.1589         2.0815       0.588100
       5688.50        72.6784         1.0240         2.0790       0.609300
       5689.00        74.0747         1.0051         2.0772       0.598200
       5689.50        74.6661         0.9980         2.0671       0.563900
       5690.00        74.7487         0.9509         2.0448       0.608600
       5690.50        76.4266         0.9118         2.0093       0.668600
       5691.00        80.0690         0.9175         1.9648       0.696400
       5691.50        83.1809         0.9488         1.9166       0.702500
       5692.00        85.6999         0.9573         1.8759       0.758100
       5692.50        87.3339         0.9576         1.8592       0.748200
       5693.00        90.3399         0.9645         1.8892       0.728900
       5693.50        91.5219         0.9738         1.9532       0.703300
       5694.00        90.9085         0.9767         1.9947       0.651600
       5694.50        90.6803         0.9871         2.0107       0.576600
       5695.00        90.1595         0.9789         2.0183       0.543000
       5695.50        89.1454         0.9538         2.0190       0.576700
       5696.00        83.5594         0.9530         2.0091       0.609400
       5696.50        77.9782         0.9407         1.9890       0.620600
       5697.00        72.8559         0.9078         1.9634       0.628400
       5697.50        70.5259         0.9270         1.9658       0.658200
       5698.00        67.4801         0.9723         2.0051       0.667500
       5698.50        64.7603         1.1891         2.0534       0.615600
       5699.00        63.6204         1.4574         1.9862       0.570100
       5699.50        66.2405         1.4051         1.9481       0.573600
       5700.00        70.2699         1.3640         2.0053       0.595200
       5700.50        79.3218         1.3981         2.1516       0.575700
       5701.00        87.7219         1.3734         2.2871       0.534300
       5701.50        93.3258         1.3029         2.3338       0.502500
       5702.00        92.7564         1.2620         2.3437       0.478000
       5702.50        93.8071         1.2313         2.3508       0.470200
       5703.00        96.4908         1.2016         2.3564       0.476700
       5703.50        99.9847         1.1766         2.3639       0.484800
       5704.00        99.4961         1.1524         2.3746       0.459100
       5704.50        97.8391         1.1217         2.3911       0.413400
       5705.00        94.4062         1.1047         2.3775       0.418500
       5705.50        94.1552         1.0979         2.3641       0.444900
       5706.00        97.3998         1.0652         2.3511       0.494100
       5706.50       102.2494         1.0303         2.3545       0.519700
       5707.00       102.3019         1.0386         2.3482       0.533300
       5707.50        97.8141         1.0549         2.3396       0.520900
       5708.00        92.7686         1.0608         2.3314       0.503700
       5708.50        91.0982         1.0725         2.3251       0.505500
       5709.00        92.6231         1.0666         2.3207       0.525100
       5709.50        95.7500         1.0495         2.3255       0.536300
       5710.00        98.6447         1.0499         2.3450       0.515100
       5710.50       100.0293         1.0692         2.3710       0.470300
       5711.00        99.0083         1.1306         2.3843       0.435600
       5711.50        96.9035         1.2041         2.3765       0.437600
