~Version Information Block
VERS .                  2.0:  CWLS LOG ASCII STANDARD - VERSION 2.0
WRAP .                   NO:  One line per depth step
~Well Information Block
#MNEM.UNIT        Data Type   Information
#---------- ----------------  -----------
STRT .FT            1860.00:  START DEPTH
STOP .FT           10042.00:  STOP DEPTH
STEP .FT               0.50:  STEP
NULL .              -999.25:  NULL VALUE
COMP .                     :  COMPANY
WELL .             SA-15RD3:  WELL
FLD  .                     :  FIELD
LOC  .                     :  LOCATION
CTRY .                     :  COUNTRY
STAT .                     :  STATE
CNTY .                     :  COUNTY
SRVC .                     :  SERVICE COMPANY
DATE .                     :  DATE
API  .                     :  API NUMBER
UWI  .                     :  UNIQUE WELL ID
~Curve Information Block
#MNEM.UNIT         API CODE   Curve Description
#---------- ----------------  -----------------
DEPTH.FT                   :  DEPTH
GR   .GAPI                 :  Gamma Ray
RT   .OHMM                 :  Deep resistivity
RHOB .G/C3                 :  IFC(DEPTH>8079&DEPTH<8084,DRHO,RHOB_EDT)
NPHI .V/V                  :  Neutron porosity
~Parameter Information Block
#MNEM.UNIT            Value   Description
#---------- ----------------  -----------
PROJECT.            SERANG_FE:  
~Other Information Block
# 
~A       DEPTH             GR             RT           RHOB           NPHI 
# ...
       2395.00        90.4000         1.1400      -999.2500    -999.250000
       2395.50        91.7100         1.1600      -999.2500    -999.250000
       2396.00        90.3600         1.1600      -999.2500    -999.250000
       2396.50        87.8400         1.1600      -999.2500    -999.250000
       2397.00        84.5100         1.1800      -999.2500    -999.250000
       2397.50        84.7900         1.1700      -999.2500    -999.250000
       2398.00        81.6100         1.1800      -999.2500    -999.250000
       2398.50        81.9300         1.1700      -999.2500    -999.250000
       2399.00        82.6900         1.1500      -999.2500    -999.250000
       2399.50        87.0500         1.1500      -999.2500    -999.250000
       2400.00        88.7700         1.1500      -999.2500    -999.250000
       2400.50        91.4800         1.1500      -999.2500    -999.250000
       2401.00        91.4900         1.1500      -999.2500    -999.250000
       2401.50        92.1300         1.1600      -999.2500    -999.250000
       2402.00        84.3000         1.1700      -999.2500    -999.250000
       2402.50        90.8800         1.1800      -999.2500    -999.250000
       2403.00        89.3300         1.1900      -999.2500    -999.250000
       2403.50        94.9000         1.1800      -999.2500    -999.250000
       2404.00        93.8700         1.1800      -999.2500    -999.250000
       2404.50        95.1300         1.1800      -999.2500    -999.250000
       2405.00        93.5400         1.1900      -999.2500    -999.250000
       2405.50        90.7600         1.2000      -999.2500    -999.250000
       2406.00        90.1100         1.1900      -999.2500    -999.250000
       2406.50        90.3600         1.1700      -999.2500    -999.250000
       2407.00        89.5700         1.1300      -999.2500    -999.250000
       2407.50        92.5000         1.1500      -999.2500    -999.250000
       2408.00        94.9900         1.1500      -999.2500    -999.250000
       2408.50        91.7100         1.1600      -999.2500    -999.250000
       2409.00        92.6100         1.1800      -999.2500    -999.250000
       2409.50        92.7500         1.1600      -999.2500    -999.250000
       2410.00        91.6800         1.1700      -999.2500    -999.250000
       2410.50        90.1000         1.1600      -999.2500    -999.250000
       2411.00        91.8100         1.1500      -999.2500    -999.250000
       2411.50        92.7500         1.1600      -999.2500    -999.250000
       2412.00        89.3300         1.1500      -999.2500    -999.250000
       2412.50        89.0100         1.1100      -999.2500    -999.250000
       2413.00        97.6200         1.1000      -999.2500    -999.250000
       2413.50        97.2800         1.1100      -999.2500    -999.250000
       2414.00        98.3200         1.0900      -999.2500    -999.250000
       2414.50        95.6900         1.0800      -999.2500    -999.250000
       2415.00        90.6700         1.0900      -999.2500    -999.250000
       2415.50        85.3500         1.0900      -999.2500    -999.250000
       2416.00        84.0000         1.1200      -999.2500    -999.250000
       2416.50        87.7100         1.1100      -999.2500    -999.250000
       2417.00        92.2000         1.1200      -999.2500    -999.250000
       2417.50        94.5800         1.1000      -999.2500    -999.250000
       2418.00        90.6500         1.1000      -999.2500    -999.250000
       2418.50        89.8800         1.1100      -999.2500    -999.250000
       2419.00        86.1500         1.1000      -999.2500    -999.250000
       2419.50        89.3900         1.0900      -999.2500    -999.250000
       2420.00        85.5900         1.1100      -999.2500    -999.250000
       2420.50        88.4100         1.1000      -999.2500    -999.250000
       2421.00        84.5600         1.1000      -999.2500    -999.250000
       2421.50        80.7600         1.1100      -999.2500    -999.250000
       2422.00        84.5600         1.1000      -999.2500    -999.250000
       2422.50        89.0100         1.0900      -999.2500    -999.250000
       2423.00        91.6200         1.0900      -999.2500    -999.250000
       2423.50        91.4800         1.0900      -999.2500    -999.250000
       2424.00        90.9500         1.1300      -999.2500    -999.250000
       2424.50        86.9600         1.1400      -999.2500    -999.250000
       2425.00        85.4500         1.1400      -999.2500    -999.250000
       2425.50        85.0300         1.1200      -999.2500    -999.250000
       2426.00        84.9100         1.1200      -999.2500    -999.250000
       2426.50        83.9200         1.1100      -999.2500    -999.250000
       2427.00        83.7600         1.1000      -999.2500    -999.250000
       2427.50        82.6500         1.1193      -999.2500    -999.250000
       2428.00        87.5300         1.1043      -999.2500    -999.250000
       2428.50        86.9400         1.0892      -999.2500    -999.250000
       2429.00        88.6500         1.0742      -999.2500    -999.250000
       2429.50        90.6200         1.0600      -999.2500    -999.250000
       2430.00        93.5400         1.0600      -999.2500    -999.250000
       2430.50        94.7200         1.0798      -999.2500    -999.250000
       2431.00        92.2700         1.1069      -999.2500    -999.250000
       2431.50        90.7600         1.1666      -999.2500    -999.250000
       2432.00        91.9500         1.1321      -999.2500    -999.250000
       2432.50        85.8900         0.9680      -999.2500    -999.250000
       2433.00        92.7500         0.8331      -999.2500    -999.250000
       2433.50        97.8400         0.7300      -999.2500    -999.250000
       2434.00        97.4100         0.7687      -999.2500    -999.250000
       2434.50        94.1000         0.8400      -999.2500    -999.250000
       2435.00        92.6700         0.8600      -999.2500    -999.250000
       2435.50        94.0500         0.9900      -999.2500    -999.250000
       2436.00        91.5900         1.0500      -999.2500    -999.250000
       2436.50        89.5700         1.0500      -999.2500    -999.250000
       2437.00        91.5000         0.9700      -999.2500    -999.250000
       2437.50        94.9000         1.0000      -999.2500    -999.250000
       2438.00        97.2800         1.0200      -999.2500    -999.250000
       2438.50        97.8400         1.0400      -999.2500    -999.250000
       2439.00        98.3300         1.0700      -999.2500    -999.250000
       2439.50        89.8800         1.0700      -999.2500    -999.250000
       2440.00        89.5700         1.0400      -999.2500    -999.250000
       2440.50        82.1900         1.0200      -999.2500    -999.250000
       2441.00        83.2800         1.0200      -999.2500    -999.250000
       2441.50        83.7600         1.0300      -999.2500    -999.250000
       2442.00        81.3700         1.0100      -999.2500    -999.250000
       2442.50        82.2300         1.0000      -999.2500    -999.250000
       2443.00        82.2300         1.0000      -999.2500    -999.250000
       2443.50        82.6300         1.0200      -999.2500    -999.250000
       2444.00        82.9600         1.0300      -999.2500    -999.250000
       2444.50        83.7600         1.0300      -999.2500    -999.250000
       2445.00        82.7900         1.0000      -999.2500    -999.250000
       2445.50        81.9300         1.0000      -999.2500    -999.250000
       2446.00        80.3100         1.0100      -999.2500    -999.250000
       2446.50        83.5200         1.0000      -999.2500    -999.250000
       2447.00        89.8800         1.0000      -999.2500    -999.250000
       2447.50        90.3600         0.9900      -999.2500    -999.250000
       2448.00        96.7300         1.0000      -999.2500    -999.250000
