~Version Information Block
VERS .                  2.0:  CWLS LOG ASCII STANDARD - VERSION 2.0
WRAP .                   NO:  One line per depth step
~Well Information Block
#MNEM.UNIT        Data Type   Information
#---------- ----------------  -----------
STRT .FT            1860.00:  START DEPTH
STOP .FT           10042.00:  STOP DEPTH
STEP .FT               0.50:  STEP
NULL .              -999.25:  NULL VALUE
COMP .                     :  COMPANY
WELL .             SA-15RD3:  WELL
FLD  .                     :  FIELD
LOC  .                     :  LOCATION
CTRY .                     :  COUNTRY
STAT .                     :  STATE
CNTY .                     :  COUNTY
SRVC .                     :  SERVICE COMPANY
DATE .                     :  DATE
API  .                     :  API NUMBER
UWI  .                     :  UNIQUE WELL ID
~Curve Information Block
#MNEM.UNIT         API CODE   Curve Description
#---------- ----------------  -----------------
DEPTH.FT                   :  DEPTH
GR   .GAPI                 :  Gamma Ray
RT   .OHMM                 :  Deep resistivity
RHOB .G/C3                 :  IFC(DEPTH>8079&DEPTH<8084,DRHO,RHOB_EDT)
NPHI .V/V                  :  Neutron porosity
~Parameter Information Block
#MNEM.UNIT            Value   Description
#---------- ----------------  -----------
PROJECT.            SERANG_FE:  
~Other Information Block
# 
~A       DEPTH             GR             RT           RHOB           NPHI 
# ...
       2983.50        90.3600         1.1600      -999.2500    -999.250000
       2984.00        96.6400         1.1300      -999.2500    -999.250000
       2984.50       101.5900         1.1200      -999.2500    -999.250000
       2985.00        95.6900         1.1100      -999.2500    -999.250000
       2985.50        93.9000         1.1300      -999.2500    -999.250000
       2986.00        94.9000         1.1600      -999.2500    -999.250000
       2986.50        87.2800         1.2200      -999.2500    -999.250000
       2987.00        81.5700         1.2600      -999.2500    -999.250000
       2987.50        81.1000         1.3400      -999.2500    -999.250000
       2988.00        82.7700         1.4100      -999.2500    -999.250000
       2988.50        84.3200         1.4400      -999.2500    -999.250000
       2989.00        84.3500         1.5500      -999.2500    -999.250000
       2989.50        80.8300         1.7100      -999.2500    -999.250000
       2990.00        77.6400         1.8300      -999.2500    -999.250000
       2990.50        71.2500         1.9200      -999.2500    -999.250000
       2991.00        59.2900         2.0800      -999.2500    -999.250000
       2991.50        57.1900         2.1900      -999.2500    -999.250000
       2992.00        52.0400         2.2300      -999.2500    -999.250000
       2992.50        50.9100         2.2600      -999.2500    -999.250000
       2993.00        55.5600         2.2700      -999.2500    -999.250000
       2993.50        56.7100         2.3000      -999.2500    -999.250000
       2994.00        58.4300         2.3100      -999.2500    -999.250000
       2994.50        63.8900         2.3000      -999.2500    -999.250000
       2995.00        65.4600         2.1500      -999.2500    -999.250000
       2995.50        65.4600         2.1100      -999.2500    -999.250000
       2996.00        68.3500         2.0200      -999.2500    -999.250000
       2996.50        64.9100         1.9900      -999.2500    -999.250000
       2997.00        64.9000         1.9300      -999.2500    -999.250000
       2997.50        60.8900         1.8900      -999.2500    -999.250000
       2998.00        62.0400         1.9100      -999.2500    -999.250000
       2998.50        61.8800         1.8900      -999.2500    -999.250000
       2999.00        58.3100         1.8300      -999.2500    -999.250000
       2999.50        57.1900         1.7700      -999.2500    -999.250000
       3000.00        56.7100         1.6700      -999.2500    -999.250000
       3000.50        62.0500         1.6400      -999.2500    -999.250000
       3001.00        64.3700         1.5700      -999.2500    -999.250000
       3001.50        65.4600         1.5000      -999.2500    -999.250000
       3002.00        72.6200         1.4500      -999.2500    -999.250000
       3002.50        82.7500         1.3400      -999.2500    -999.250000
       3003.00        84.7900         1.2600      -999.2500    -999.250000
       3003.50        84.3200         1.2900      -999.2500    -999.250000
       3004.00        77.1600         1.3400      -999.2500    -999.250000
       3004.50        71.0300         1.4600      -999.2500    -999.250000
       3005.00        75.0900         1.6000      -999.2500    -999.250000
       3005.50        74.2100         1.7000      -999.2500    -999.250000
       3006.00        69.6800         1.7000      -999.2500    -999.250000
       3006.50        77.6400         1.7000      -999.2500    -999.250000
       3007.00        86.0200         1.7600      -999.2500    -999.250000
       3007.50        75.8200         1.8500      -999.2500    -999.250000
       3008.00        68.8900         2.0100      -999.2500    -999.250000
       3008.50        68.4200         2.2000      -999.2500    -999.250000
       3009.00        74.2200         2.2500      -999.2500    -999.250000
       3009.50        68.6900         2.2700      -999.2500    -999.250000
       3010.00        64.1100         2.2700      -999.2500    -999.250000
       3010.50        60.1400         2.2900      -999.2500    -999.250000
       3011.00        62.8500         2.3200      -999.2500    -999.250000
       3011.50        61.7000         2.3100      -999.2500    -999.250000
       3012.00        67.0800         2.2200      -999.2500    -999.250000
       3012.50        75.2500         2.0900      -999.2500    -999.250000
       3013.00        70.8900         1.9500      -999.2500    -999.250000
       3013.50        66.0200         1.9800      -999.2500    -999.250000
       3014.00        64.8100         2.0400      -999.2500    -999.250000
       3014.50        59.8200         2.0600      -999.2500    -999.250000
       3015.00        59.9200         1.9800      -999.2500    -999.250000
       3015.50        63.3200         1.9400      -999.2500    -999.250000
       3016.00        66.0200         1.8300      -999.2500    -999.250000
       3016.50        70.3100         1.6800      -999.2500    -999.250000
       3017.00        71.4800         1.5700      -999.2500    -999.250000
       3017.50        72.9400         1.5000      -999.2500    -999.250000
       3018.00        78.7100         1.5800      -999.2500    -999.250000
       3018.50        81.9300         1.6500      -999.2500    -999.250000
       3019.00        83.5200         1.6800      -999.2500    -999.250000
       3019.50        66.0800         1.7000      -999.2500    -999.250000
       3020.00        63.7000         1.7100      -999.2500    -999.250000
       3020.50        63.0800         1.6500      -999.2500    -999.250000
       3021.00        55.3600         1.5900      -999.2500    -999.250000
       3021.50        59.7700         1.5600      -999.2500    -999.250000
       3022.00        58.8600         1.5500      -999.2500    -999.250000
       3022.50        69.4400         1.5300      -999.2500    -999.250000
       3023.00        72.6200         1.4600      -999.2500    -999.250000
       3023.50        81.6700         1.3700      -999.2500    -999.250000
       3024.00        83.5200         1.3000      -999.2500    -999.250000
       3024.50        89.0100         1.2200      -999.2500    -999.250000
       3025.00        87.9800         1.2100      -999.2500    -999.250000
       3025.50        83.1700         1.2800      -999.2500    -999.250000
       3026.00        79.7800         1.3400      -999.2500    -999.250000
       3026.50        73.7400         1.3500      -999.2500    -999.250000
       3027.00        75.2500         1.3300      -999.2500    -999.250000
       3027.50        74.6900         1.3000      -999.2500    -999.250000
       3028.00        75.1100         1.3300      -999.2500    -999.250000
       3028.50        76.3600         1.3600      -999.2500    -999.250000
       3029.00        76.8400         1.3800      -999.2500    -999.250000
       3029.50        73.6600         1.3800      -999.2500    -999.250000
       3030.00        75.7800         1.3600      -999.2500    -999.250000
       3030.50        72.8600         1.3400      -999.2500    -999.250000
       3031.00        66.5100         1.2800      -999.2500    -999.250000
       3031.50        81.9300         0.9500      -999.2500    -999.250000
       3032.00        83.7600         0.8700      -999.2500    -999.250000
       3032.50        81.8200         1.0600      -999.2500    -999.250000
       3033.00        65.0000         1.4100      -999.2500    -999.250000
       3033.50        42.4000         1.6400      -999.2500    -999.250000
       3034.00        50.9100         1.8100      -999.2500    -999.250000
       3034.50        38.0000         1.8100      -999.2500    -999.250000
       3035.00        34.5000         1.7600      -999.2500    -999.250000
       3035.50        33.8900         1.8700      -999.2500    -999.250000
       3036.00        29.6700         1.8900      -999.2500    -999.250000
       3036.50        38.6400         1.8800      -999.2500    -999.250000
