~Version Information Block
VERS .                  2.0:  CWLS LOG ASCII STANDARD - VERSION 2.0
WRAP .                   NO:  One line per depth step
~Well Information Block
#MNEM.UNIT        Data Type   Information
#---------- ----------------  -----------
STRT .FT            3123.00:  START DEPTH
STOP .FT           14590.00:  STOP DEPTH
STEP .FT               0.50:  STEP
NULL .              -999.25:  NULL VALUE
COMP .                     :  COMPANY
WELL .                SA-10:  WELL
FLD  .                     :  FIELD
LOC  .                     :  LOCATION
CTRY .                     :  COUNTRY
STAT .                     :  STATE
CNTY .                     :  COUNTY
SRVC .                     :  SERVICE COMPANY
DATE .                     :  DATE
API  .                     :  API NUMBER
UWI  .                     :  UNIQUE WELL ID
~Curve Information Block
#MNEM.UNIT         API CODE   Curve Description
#---------- ----------------  -----------------
DEPTH.FT                   :  DEPTH
GR   .GAPI                 :  Gamma Ray
RT   .OHMM                 :  Deep resistivity
RHOB .G/C3                 :  Bulk density
NPHI .V/V                  :  Neutron porosity
DT   .US/F                 :  Sonic
~Parameter Information Block
#MNEM.UNIT            Value   Description
#---------- ----------------  -----------
PROJECT.            SERANG_FE:  
~Other Information Block
# 
~A       DEPTH             GR             RT           RHOB           NPHI             DT 
# ...
      14559.50        70.5200         2.5500         2.4900       0.310000        85.5000
      14560.00        70.5200         2.5500         2.4900       0.310000        85.5000
      14560.50        70.5200         2.5500         2.4900       0.310000        85.5000
      14561.00        70.5200         2.5500         2.4900       0.310000        85.5000
      14561.50        70.5200         2.5500         2.4900       0.310000        85.5000
      14562.00        70.5200         2.5500         2.4900       0.310000        85.5000
      14562.50        70.5200         2.5500         2.4900       0.310000        85.5000
      14563.00        70.5200         2.5500         2.4900       0.310000        85.5000
      14563.50        70.5200         2.5500         2.4900       0.310000        85.5000
      14564.00        70.5200         2.5500         2.4900       0.310000        85.5000
      14564.50        70.5200         2.5500         2.4900       0.310000        85.5000
      14565.00        70.5200         2.5500         2.4900       0.310000        85.5000
      14565.50        70.5200         2.5500         2.4900       0.310000        85.5000
      14566.00        70.5200         2.5500         2.4900       0.310000        85.5000
      14566.50        70.5200         2.5500         2.4900       0.310000        85.5000
      14567.00        70.5200         2.5500         2.4900       0.310000        85.5000
      14567.50        70.5200         2.5500         2.4900       0.310000        85.5000
      14568.00        70.5200         2.5500         2.4900       0.310000        85.5000
      14568.50        70.5200         2.5500         2.4900       0.310000        85.5000
      14569.00        70.5200         2.5500         2.4900       0.310000        85.5000
      14569.50        70.5200         2.5500         2.4900       0.310000        85.5000
      14570.00        70.5200         2.5500         2.4900       0.310000        85.5000
      14570.50        70.5200         2.5500         2.4900       0.310000        85.5000
      14571.00        70.5200         2.5500         2.4900       0.310000        85.5000
      14571.50        70.5200         2.5500         2.4900       0.310000        85.5000
      14572.00        70.5200         2.5500         2.4900       0.310000        85.5000
      14572.50        70.5200         2.5500         2.4900       0.310000        85.5000
      14573.00        70.5200         2.5500         2.4900       0.310000        85.5000
      14573.50        70.5200         2.5500         2.4900       0.310000        85.5000
      14574.00        70.5200         2.5500         2.4900       0.310000        85.5000
      14574.50        70.5200         2.5500         2.4900       0.310000        85.5000
      14575.00        70.5200         2.5500         2.4900       0.310000        85.5000
      14575.50        70.5200         2.5500         2.4900       0.310000        85.5000
      14576.00        70.5200         2.5500         2.4900       0.310000        85.5000
      14576.50        70.5200         2.5500         2.4900       0.310000        85.5000
      14577.00        70.5200         2.5500         2.4900       0.310000        85.5000
      14577.50        70.5200         2.5500         2.4900       0.310000        85.5000
      14578.00        70.5200         2.5500         2.4900       0.310000        85.5000
      14578.50        70.5200         2.5500         2.4900       0.310000        85.5000
      14579.00        70.5200         2.5500         2.4900       0.310000        85.5000
      14579.50        70.5200         2.5500         2.4900       0.310000        85.5000
      14580.00        70.5200         2.5500         2.4900       0.310000        85.5000
      14580.50        70.5200         2.5500         2.4900       0.310000        85.5000
      14581.00        70.5200         2.5500         2.4900       0.310000        85.5000
      14581.50        70.5200         2.5500         2.4900       0.310000        85.5000
      14582.00        70.5200         2.5500         2.4900       0.310000        85.5000
      14582.50        70.5200         2.5500         2.4900       0.310000        85.5000
      14583.00        70.5200         2.5500         2.4900       0.310000        85.5000
      14583.50        70.5200         2.5500         2.4900       0.310000        85.5000
      14584.00        70.5200         2.5500         2.4900       0.310000        85.5000
      14584.50        70.5200         2.5500         2.4900       0.310000        85.5000
      14585.00        70.5200         2.5500         2.4900       0.310000        85.5000
      14585.50        70.5200         2.5500         2.4900       0.310000        85.5000
      14586.00        70.5200         2.5500         2.4900       0.310000        85.5000
      14586.50        70.5200         2.5500         2.4900       0.310000        85.5000
      14587.00        70.5200      -999.2500         2.4900       0.310000        85.5000
      14587.50        70.5200      -999.2500         2.4900       0.310000        85.5000
      14588.00        70.5200      -999.2500         2.4900       0.310000        85.5000
      14588.50        70.5200      -999.2500         2.4900       0.310000        85.5000
      14589.00        70.5200      -999.2500         2.4900       0.310000        85.5000
      14589.50        70.5200      -999.2500         2.4900       0.310000        85.5000
      14590.00        70.5200      -999.2500         2.4900       0.310000        85.5000
