~Version Information Block
VERS .                  2.0:  CWLS LOG ASCII STANDARD - VERSION 2.0
WRAP .                   NO:  One line per depth step
~Well Information Block
#MNEM.UNIT        Data Type   Information
#---------- ----------------  -----------
STRT .FT            1860.00:  START DEPTH
STOP .FT           10042.00:  STOP DEPTH
STEP .FT               0.50:  STEP
NULL .              -999.25:  NULL VALUE
COMP .                     :  COMPANY
WELL .             SA-15RD3:  WELL
FLD  .                     :  FIELD
LOC  .                     :  LOCATION
CTRY .                     :  COUNTRY
STAT .                     :  STATE
CNTY .                     :  COUNTY
SRVC .                     :  SERVICE COMPANY
DATE .                     :  DATE
API  .                     :  API NUMBER
UWI  .                     :  UNIQUE WELL ID
~Curve Information Block
#MNEM.UNIT         API CODE   Curve Description
#---------- ----------------  -----------------
DEPTH.FT                   :  DEPTH
GR   .GAPI                 :  Gamma Ray
RT   .OHMM                 :  Deep resistivity
RHOB .G/C3                 :  IFC(DEPTH>8079&DEPTH<8084,DRHO,RHOB_EDT)
NPHI .V/V                  :  Neutron porosity
~Parameter Information Block
#MNEM.UNIT            Value   Description
#---------- ----------------  -----------
PROJECT.            SERANG_FE:  
~Other Information Block
# 
~A       DEPTH             GR             RT           RHOB           NPHI 
# ...
       7263.50        97.8583         5.6917         2.0031       0.516600
       7264.00       109.9067         4.7819         2.2907       0.429900
       7264.50       121.8100         3.2796         2.3968       0.400600
       7265.00       124.1067         2.5153         2.4464       0.385400
       7265.50       118.7233         2.2590         2.4590       0.396800
       7266.00       110.9277         2.0387         2.4667       0.410100
       7266.50       106.0239         1.9367         2.4753       0.408100
       7267.00       105.8003         1.8378         2.4894       0.407000
       7267.50       107.2144         1.6337         2.5017       0.414700
       7268.00       108.6588         1.4751         2.5027       0.436700
       7268.50       106.8208         1.5334         2.4966       0.426700
       7269.00       105.8341         1.7593         2.5063       0.395600
       7269.50       103.8817         2.1076         2.5108       0.359300
       7270.00       103.8748         2.3225         2.5151       0.331800
       7270.50       103.9440         2.4437         2.5189       0.327200
       7271.00       103.4829         2.5444         2.5162       0.342300
       7271.50       103.3730         2.6441         2.5032       0.359600
       7272.00       100.5443         2.7146         2.4990       0.357800
       7272.50        98.1449         2.7605         2.4935       0.347400
       7273.00        97.1035         2.7617         2.4833       0.328800
       7273.50        98.5950         2.7461         2.4728       0.315700
       7274.00        99.9515         2.7043         2.4801       0.313700
       7274.50        99.9441         2.6667         2.4893       0.322900
       7275.00        99.8701         2.6030         2.4997       0.337000
       7275.50       102.9281         2.5085         2.5066       0.346100
       7276.00       105.3472         2.4133         2.5038       0.347900
       7276.50       105.0658         2.3282         2.5099       0.340400
       7277.00       104.7301         2.2538         2.5147       0.316800
       7277.50       105.2198         2.1943         2.5111       0.326600
       7278.00       108.7747         2.1518         2.4917       0.343800
       7278.50       113.4038         2.1108         2.4743       0.364500
       7279.00       116.8202         2.0800         2.4857       0.390000
       7279.50       120.8919         2.0813         2.4741       0.391800
       7280.00       117.8368         2.0907         2.3739       0.390900
       7280.50       116.1340         2.1104         2.2700       0.368200
       7281.00       114.4658         2.1601         2.2971       0.374200
       7281.50       112.2786         2.2760         2.3274       0.412200
       7282.00        99.3211         2.4516         2.2959       0.411100
       7282.50        77.9073         2.6403         2.2439       0.386600
       7283.00        57.6137         2.7270         2.2029       0.362800
       7283.50        46.3734         2.6437         2.1836       0.337000
       7284.00        40.8290         2.5231         2.1750       0.300600
       7284.50        39.7734         2.5179         2.1705       0.273400
       7285.00        39.2165         2.5101         2.1688       0.273200
       7285.50        39.4374         2.3936         2.1647       0.278900
       7286.00        36.4623         2.2625         2.1583       0.273200
       7286.50        32.5928         2.1936         2.1475       0.265400
       7287.00        26.8536         2.1293         2.1342       0.251000
       7287.50        23.7110         1.9608         2.1390       0.234200
       7288.00        21.4721         1.8239         2.1437       0.230700
       7288.50        20.1574         1.7857         2.1312       0.231600
       7289.00        18.7981         1.7640         2.1177       0.241600
       7289.50        21.3954         1.8020         2.1055       0.256700
       7290.00        32.3619         1.9470         2.1042       0.266700
       7290.50        48.6432         2.3126         2.1707       0.272400
       7291.00        65.6669         2.7378         2.3192       0.283800
       7291.50        76.0132         3.0175         2.4565       0.299600
       7292.00        80.9045         3.2111         2.4999       0.296400
       7292.50        77.2579         3.3250         2.4780       0.284100
       7293.00        70.2257         3.3321         2.4036       0.281400
       7293.50        62.7204         3.2919         2.3151       0.289800
       7294.00        58.8278         3.2553         2.2444       0.283600
       7294.50        55.2201         3.2436         2.2160       0.271700
       7295.00        54.4849         3.2587         2.2434       0.269800
       7295.50        56.4101         3.2385         2.3108       0.264700
       7296.00        63.6795         3.2355         2.3298       0.260000
       7296.50        69.2533         3.2848         2.3669       0.260000
       7297.00        73.8750         3.3091         2.4220       0.260700
       7297.50        77.1939         3.3026         2.4246       0.270100
       7298.00        78.8997         3.2897         2.4032       0.290000
       7298.50        79.2121         3.2561         2.4007       0.290000
       7299.00        77.1003         3.1788         2.4225       0.290000
       7299.50        76.7542         3.0417         2.4334       0.288100
       7300.00        74.5605         2.9627         2.3902       0.275100
       7300.50        69.6166         2.9231         2.2927       0.279500
       7301.00        60.5339         2.8342         2.2131       0.282200
       7301.50        52.6799         2.6951         2.1772       0.281000
       7302.00        49.2605         2.6435         2.1811       0.260600
       7302.50        51.3775         2.7620         2.1844       0.262800
       7303.00        57.2049         2.9650         2.2381       0.264300
       7303.50        65.2852         3.0880         2.2778       0.278000
       7304.00        72.9664         3.1230         2.3054       0.278600
       7304.50        76.0014         3.1198         2.2991       0.299600
       7305.00        71.2739         3.0891         2.2622       0.296400
       7305.50        59.7056         3.0148         2.2256       0.287700
       7306.00        47.5964         2.9247         2.2002       0.277700
       7306.50        40.8363         2.9064         2.2122       0.265000
       7307.00        40.7553         3.0731         2.2221       0.265900
       7307.50        43.1087         3.2622         2.2303       0.264200
       7308.00        44.5146         3.4223         2.2495       0.259400
       7308.50        45.2553         3.7152         2.3052       0.256200
       7309.00        46.2280         4.2716         2.3637       0.247600
       7309.50        47.2760         4.9993         2.3889       0.239000
       7310.00        46.5203         5.4296         2.3815       0.230400
       7310.50        44.4031         5.4025         2.3589       0.219600
       7311.00        41.4197         5.0213         2.3237       0.202000
       7311.50        37.7624         4.4355         2.2744       0.190000
       7312.00        35.0346         3.7956         2.2266       0.190800
       7312.50        33.8941         3.2670         2.1951       0.195300
       7313.00        33.1560         2.9727         2.1824       0.212500
       7313.50        32.5555         2.8212         2.1796       0.228400
       7314.00        31.7000         2.6803         2.1773       0.239600
       7314.50        31.6824         2.5747         2.1719       0.253300
       7315.00        31.6702         2.5424         2.1700       0.265700
       7315.50        32.1830         2.5181         2.1732       0.274300
       7316.00        32.8433         2.5592         2.1886       0.282300
       7316.50        33.7805         2.5963         2.1950       0.286700
