~Version Information Block
VERS .                  2.0:  CWLS LOG ASCII STANDARD - VERSION 2.0
WRAP .                   NO:  One line per depth step
~Well Information Block
#MNEM.UNIT        Data Type   Information
#---------- ----------------  -----------
STRT .FT        8000.328084:  START DEPTH
STOP .FT       11551.837384:  STOP DEPTH
STEP .FT           1.640420:  STEP
NULL .              -999.25:  NULL VALUE
COMP .                     :  COMPANY
WELL .           SA-15RD1ST:  WELL
FLD  .                     :  FIELD
LOC  .                     :  LOCATION
CTRY .                     :  COUNTRY
STAT .                     :  STATE
CNTY .                     :  COUNTY
SRVC .                     :  SERVICE COMPANY
DATE .                     :  DATE
API  .                     :  API NUMBER
UWI  .                     :  UNIQUE WELL ID
~Curve Information Block
#MNEM.UNIT         API CODE   Curve Description
#---------- ----------------  -----------------
DEPTH.FT                   :  
GR   .GAPI                 :  Merged WIRE with WIRE_ST at 9000.00 F
RT   .OHMM                 :  Merged WIRE with WIRE_ST at 9000.00 F
RHOB .G/C3                 :  Merged WIRE with WIRE_ST at 9000.00 F
NPHI .V/V                  :  Merged WIRE with WIRE_ST at 9000.00 F
~Parameter Information Block
#MNEM.UNIT            Value   Description
#---------- ----------------  -----------
PROJECT.            SERANG_FE:  
~Other Information Block
# 
~A       DEPTH             GR             RT           RHOB           NPHI 
# ...
   9053.477690       130.1854         2.5744         1.9982        0.78448
   9055.118110       117.2028         2.1398         2.0384        0.70245
   9056.758530       101.5551         2.0790         2.0762        0.67086
   9058.398950        92.2797         1.4067         2.1687        0.54406
   9060.039370        93.0597         1.3299         2.3028        0.47540
   9061.679790        93.3351         1.2927         2.3600        0.48025
   9063.320210        90.7757         1.3930         2.3660        0.47820
   9064.960630        91.4960         1.5774         2.3202        0.48218
   9066.601050        93.0712         1.8048         2.2860        0.49095
   9068.241470        90.1771         1.9900         2.2571        0.50192
   9069.881890        88.3108         1.6372         2.2511        0.49056
   9071.522310        91.0847         1.4843         2.3554        0.42533
   9073.162730        93.0923         1.4856         2.3710        0.41837
   9074.803150        90.9434         1.6050         2.3379        0.43060
   9076.443570        83.0766         1.6954         2.2948        0.44560
   9078.083990        80.8168         1.8758         2.2630        0.44772
   9079.724409        85.3203         2.1080         2.1967        0.44550
   9081.364829        99.6772         2.1391         2.1472        0.44043
   9083.005249       127.9169         2.1810         2.1229        0.47571
   9084.645669       145.7960         2.4927         2.1008        0.66058
   9086.286089       141.1759         2.2204         2.1330        0.72304
   9087.926509       118.7051         1.6960         2.2130        0.64886
   9089.566929       105.9436         1.5990         2.2981        0.56150
   9091.207349        98.8529         1.5328         2.3649        0.52470
   9092.847769        90.7070         1.6739         2.3838        0.44911
   9094.488189        85.5465         1.7309         2.3910        0.40521
   9096.128609        78.4394         1.8240         2.3995        0.40640
   9097.769029        75.5802         1.7809         2.4152        0.45004
   9099.409449        78.6339         1.8371         2.4244        0.44118
   9101.049869        75.2621         2.1490         2.4148        0.40970
   9102.690289        57.3987         6.2099         2.4264        0.28614
   9104.330709        44.4563         8.9720         2.4603        0.21311
   9105.971129        38.9909        17.1259         2.4905        0.19812
   9107.611549        39.9421        14.9766         2.5163        0.16177
   9109.251969        42.8742        11.5152         2.5260        0.16045
   9110.892388        46.5009         9.8096         2.4695        0.20028
   9112.532808        51.7946         7.8887         2.4101        0.29747
   9114.173228        58.1375         3.6245         2.3715        0.36695
   9115.813648        66.0259         2.6812         2.3469        0.37914
   9117.454068        73.8661         2.2743         2.3305        0.39093
   9119.094488        85.8738         1.8869         2.2919        0.42370
   9120.734908       110.0168         1.8180         2.2683        0.46736
   9122.375328       151.2527         2.0910         2.1977        0.46963
   9124.015748       201.3527         2.0338         2.1552        0.45120
   9125.656168       207.3841         2.3773         2.1616        0.55029
   9127.296588       203.2154         1.8984         2.1752        0.52078
   9128.937008       206.8119         2.3762         2.0543        0.51390
   9130.577428       170.7682         2.6676         2.1995        0.46275
   9132.217848       121.3474         2.2425         2.3993        0.39108
   9133.858268        82.3737         2.0115         2.3814        0.34879
   9135.498688        61.0230         1.9360         2.2970        0.32975
   9137.139108        51.6405         1.7704         2.2784        0.31990
   9138.779528        48.0294         1.7492         2.2689        0.33559
   9140.419948        55.1365         1.7231         2.2995        0.36480
   9142.060367        66.2979         1.6474         2.3211        0.38424
   9143.700787        75.5420         1.5055         2.3440        0.42232
   9145.341207        81.5131         1.3104         2.3738        0.45144
   9146.981627        83.3944         1.4357         2.3496        0.44256
   9148.622047        81.3661         1.7286         2.3385        0.43287
   9150.262467        84.0148         1.7164         2.3514        0.43554
   9151.902887        94.5874         1.5826         2.3453        0.45073
   9153.543307       110.1581         1.7349         2.2024        0.54582
   9155.183727       119.0166         2.6487         1.8423        0.66908
   9156.824147       115.2205         4.3265         1.8745        0.66967
   9158.464567       107.8646         2.7030         2.0116        0.60782
   9160.104987        95.1851         3.6698         2.0507        0.57445
   9161.745407        84.4563         2.5178         2.2469        0.49123
   9163.385827        78.9395         1.8162         2.3493        0.41858
   9165.026247        73.8591         1.6551         2.3471        0.38493
   9166.666667        68.2640         1.8707         2.3213        0.31873
   9168.307087        64.8856         1.9368         2.3263        0.31500
   9169.947507        63.8142         1.9815         2.3170        0.31791
   9171.587927        62.1154         1.9939         2.3021        0.33784
   9173.228346        52.5797         1.9194         2.2550        0.33194
   9174.868766        42.4593         1.8501         2.2176        0.32104
   9176.509186        38.0131         1.6180         2.1531        0.32417
   9178.149606        36.9424         1.6441         2.1893        0.30865
   9179.790026        40.9135         1.6273         2.2298        0.33067
   9181.430446        51.7872         1.7211         2.2988        0.36297
   9183.070866        61.7178         1.8592         2.3432        0.40566
   9184.711286        58.9239         1.9223         2.3036        0.39816
   9186.351706        52.3231         1.8708         2.2548        0.35138
   9187.992126        51.1875         1.8111         2.2809        0.34614
   9189.632546        55.3234         1.8102         2.2862        0.37444
   9191.272966        62.4144         1.8246         2.3606        0.37826
   9192.913386        66.8343         1.8749         2.3629        0.37145
   9194.553806        67.7225         1.7918         2.2993        0.37873
   9196.194226        67.8266         1.8126         2.3152        0.38069
   9197.834646        65.0743         1.8954         2.2956        0.39008
   9199.475066        64.6519         1.8587         2.2422        0.36489
   9201.115486        66.3386         1.9094         2.2712        0.38410
   9202.755906        67.0896         1.9456         2.2127        0.36935
   9204.396325        63.9235         1.9970         2.1167        0.37059
   9206.036745        60.7808         2.0050         2.2508        0.35951
   9207.677165        61.8764         1.9670         2.2949        0.34587
   9209.317585        63.7996         1.9380         1.9859        0.34929
   9210.958005        63.3251         1.9523         1.8334        0.34623
   9212.598425        64.0693         1.9900         1.8682        0.34452
   9214.238845        66.9755         2.0122         1.9493        0.38302
   9215.879265        69.1060         2.0411         1.9826        0.42933
   9217.519685        70.5554         1.9970         2.0363        0.41834
   9219.160105        68.9520         1.9214         2.1330        0.41600
   9220.800525        66.7737         1.8678         2.2414        0.39390
   9222.440945        72.2578         1.9450         2.3131        0.40117
   9224.081365        76.8627         1.9193         2.3463        0.43213
   9225.721785        77.3208         1.9244         2.3374        0.41242
   9227.362205        77.6482         1.9530         2.3400        0.41891
