~Version Information Block
VERS .                  2.0:  CWLS LOG ASCII STANDARD - VERSION 2.0
WRAP .                   NO:  One line per depth step
~Well Information Block
#MNEM.UNIT        Data Type   Information
#---------- ----------------  -----------
STRT .FT        8000.328084:  START DEPTH
STOP .FT       11551.837384:  STOP DEPTH
STEP .FT           1.640420:  STEP
NULL .              -999.25:  NULL VALUE
COMP .                     :  COMPANY
WELL .           SA-15RD1ST:  WELL
FLD  .                     :  FIELD
LOC  .                     :  LOCATION
CTRY .                     :  COUNTRY
STAT .                     :  STATE
CNTY .                     :  COUNTY
SRVC .                     :  SERVICE COMPANY
DATE .                     :  DATE
API  .                     :  API NUMBER
UWI  .                     :  UNIQUE WELL ID
~Curve Information Block
#MNEM.UNIT         API CODE   Curve Description
#---------- ----------------  -----------------
DEPTH.FT                   :  
GR   .GAPI                 :  Merged WIRE with WIRE_ST at 9000.00 F
RT   .OHMM                 :  Merged WIRE with WIRE_ST at 9000.00 F
RHOB .G/C3                 :  Merged WIRE with WIRE_ST at 9000.00 F
NPHI .V/V                  :  Merged WIRE with WIRE_ST at 9000.00 F
~Parameter Information Block
#MNEM.UNIT            Value   Description
#---------- ----------------  -----------
PROJECT.            SERANG_FE:  
~Other Information Block
# 
~A       DEPTH             GR             RT           RHOB           NPHI 
# ...
   8526.902887        48.8502         2.0858         2.3519        0.32013
   8528.543307        52.5348         1.8857         2.3109        0.32281
   8530.183727        56.5942         1.6669         2.3373        0.32945
   8531.824147        67.5280         1.5319         2.3735        0.33673
   8533.464567        67.9308         1.6707         2.3793        0.34673
   8535.104987        69.3111         1.7679         2.3721        0.34885
   8536.745407        73.9321         1.7351         2.3700        0.34876
   8538.385827        66.8976         1.5528         2.2814        0.34010
   8540.026247        55.4569         1.1963         2.1595        0.32728
   8541.666667        45.8633         0.9100         2.1300        0.31180
   8543.307087        43.6849         0.7870         2.1139        0.30305
   8544.947507        53.0942         1.0443         2.0990        0.32393
   8546.587927        72.1199         1.6246         2.1406        0.33971
   8548.228346        82.8905         2.1202         2.3391        0.36584
   8549.868766        87.9973         2.3864         2.3379        0.40681
   8551.509186        96.3025         2.8496         2.3287        0.47101
   8553.149606        99.5944         1.8402         2.1720        0.48090
   8554.790026        95.5426         1.5840         2.2932        0.42786
   8556.430446        85.7057         1.6761         2.3886        0.35419
   8558.070866        70.8518         1.6687         2.3800        0.31621
   8559.711286        55.9874         1.3566         2.3131        0.32369
   8561.351706        43.7601         1.1515         2.1959        0.32702
   8562.992126        34.7274         0.9098         2.1203        0.33397
   8564.632546        30.2534         0.7767         2.0747        0.32414
   8566.272966        35.2951         0.8073         2.0809        0.33857
   8567.913386        38.6195         0.8335         2.1369        0.35111
   8569.553806        36.8941         0.8100         2.1168        0.36781
   8571.194226        35.7145         0.7961         2.1122        0.35529
   8572.834646        34.9185         0.7567         2.0900        0.35168
   8574.475066        34.6061         0.7995         2.0800        0.34587
   8576.115486        34.3662         0.7477         2.1200        0.34756
   8577.755906        28.7184         0.7300         2.1049        0.34478
   8579.396325        27.0322         0.7483         2.0921        0.34461
   8581.036745        32.4035         0.7615         2.0593        0.32939
   8582.677165        32.8980         0.7629         2.0865        0.32659
   8584.317585        29.3058         0.7436         2.0900        0.32577
   8585.958005        30.6422         0.7208         2.0908        0.33211
   8587.598425        29.2599         0.6820         2.0639        0.33668
   8589.238845        28.9772         0.7252         2.0800        0.33756
   8590.879265        31.5662         0.7528         2.0876        0.35041
   8592.519685        45.3552         0.9971         2.1512        0.36698
   8594.160105        66.9474         1.5856         2.2892        0.40421
   8595.800525        73.9874         1.7740         2.3860        0.42108
   8597.440945        77.5283         1.8412         2.3900        0.46791
   8599.081365        83.5855         1.7600         2.3933        0.47760
   8600.721785        81.8288         1.6811         2.3744        0.43991
   8602.362205        82.4164         1.6945         2.3800        0.39186
   8604.002625        83.3420         1.6102         2.3800        0.35356
   8605.643045        84.6620         1.5857         2.3800        0.39025
   8607.283465        94.4741         1.4843         2.3643        0.42382
   8608.923885        96.2990         1.5539         2.2383        0.45281
   8610.564304        87.9403         2.7746         2.0787        0.43995
   8612.204724        72.7509         2.8298         2.1459        0.36252
   8613.845144        60.2198         2.3600         2.3269        0.29396
   8615.485564        50.3462         2.1455         2.2909        0.26316
   8617.125984        35.8411         1.5697         2.1624        0.27179
   8618.766404        23.6240         1.0414         2.1000        0.26911
   8620.406824        20.6954         0.8656         2.0900        0.27637
   8622.047244        18.4634         0.6972         2.0700        0.27518
   8623.687664        19.7554         0.6325         2.0662        0.30092
   8625.328084        31.6872         0.6728         2.0600        0.30204
   8626.968504        65.3743         1.0469         2.0887        0.33307
   8628.608924        85.4731         1.4945         2.2140        0.37803
   8630.249344        89.4535         1.8052         2.3900        0.41210
   8631.889764        86.6753         1.7180         2.4200        0.43989
   8633.530184        82.1345         1.7022         2.4106        0.42322
   8635.170604        71.2657         1.5207         2.4471        0.37013
   8636.811024        48.4692         2.3061         2.5624        0.31338
   8638.451444        39.1294         2.9100         2.6190        0.24191
   8640.091864        41.1759         3.3847         2.5798        0.26171
   8641.732283        46.0342         4.5572         2.4554        0.23498
   8643.372703        45.2057         4.5849         2.4400        0.20334
   8645.013123        48.1750         6.0815         2.5105        0.15003
   8646.653543        45.1785         6.9207         2.5761        0.14237
   8648.293963        40.2950         8.5176         2.5841        0.14742
   8649.934383        44.8049        10.4803         2.5800        0.14028
   8651.574803        44.8403        10.5219         2.5685        0.12313
   8653.215223        38.3843        15.1756         2.5843        0.09898
   8654.855643        34.7851        15.0233         2.6371        0.08586
   8656.496063        38.2259        12.8046         2.6200        0.09515
   8658.136483        49.8533        11.2062         2.5891        0.12253
   8659.776903        52.7281        10.4001         2.5755        0.20308
   8661.417323        60.9920         9.3935         2.5900        0.35284
   8663.057743        75.0538         3.2399         2.4408        0.43852
   8664.698163        87.9979         2.1541         2.2402        0.52094
   8666.338583        87.4139         1.8577         2.2000        0.48444
   8667.979003        74.3132         1.9204         2.2800        0.52318
   8669.619423        72.8604         1.7819         2.2928        0.47924
   8671.259843        67.2983         2.0596         2.2700        0.44530
   8672.900262        69.3743         1.9820         2.3140        0.38647
   8674.540682        73.4370         1.7184         2.3592        0.43809
   8676.181102        77.3396         1.6764         2.3800        0.44908
   8677.821522        72.5395         1.7464         2.3664        0.43406
   8679.461942        73.4705         1.7877         2.3508        0.41396
   8681.102362        73.9692         1.7539         2.3659        0.39955
   8682.742782        68.8087         1.6600         2.3451        0.40216
   8684.383202        65.9445         1.5664         2.3200        0.36401
   8686.023622        62.5537         1.2900         2.2976        0.36626
   8687.664042        54.4879         1.3200         2.1902        0.35303
   8689.304462        39.3819         0.8000         2.1100        0.33509
   8690.944882        28.8445         0.7344         2.0900        0.30188
   8692.585302        26.7410         0.6400         2.0900        0.30470
   8694.225722        25.7446         0.6400         2.0855        0.28260
   8695.866142        26.1905         0.6200         2.0800        0.28278
   8697.506562        23.7891         0.6099         2.0700        0.28557
   8699.146982        20.1386         0.5800         2.0700        0.28765
   8700.787402        19.2770         0.5800         2.0700        0.28535
