~Version Information Block
VERS .                  2.0:  CWLS LOG ASCII STANDARD - VERSION 2.0
WRAP .                   NO:  One line per depth step
~Well Information Block
#MNEM.UNIT        Data Type   Information
#---------- ----------------  -----------
STRT .FT            3123.00:  START DEPTH
STOP .FT           14590.00:  STOP DEPTH
STEP .FT               0.50:  STEP
NULL .              -999.25:  NULL VALUE
COMP .                     :  COMPANY
WELL .                SA-10:  WELL
FLD  .                     :  FIELD
LOC  .                     :  LOCATION
CTRY .                     :  COUNTRY
STAT .                     :  STATE
CNTY .                     :  COUNTY
SRVC .                     :  SERVICE COMPANY
DATE .                     :  DATE
API  .                     :  API NUMBER
UWI  .                     :  UNIQUE WELL ID
~Curve Information Block
#MNEM.UNIT         API CODE   Curve Description
#---------- ----------------  -----------------
DEPTH.FT                   :  DEPTH
GR   .GAPI                 :  Gamma Ray
RT   .OHMM                 :  Deep resistivity
RHOB .G/C3                 :  Bulk density
NPHI .V/V                  :  Neutron porosity
DT   .US/F                 :  Sonic
~Parameter Information Block
#MNEM.UNIT            Value   Description
#---------- ----------------  -----------
PROJECT.            SERANG_FE:  
~Other Information Block
# 
~A       DEPTH             GR             RT           RHOB           NPHI             DT 
# ...
       8463.00        81.3000         1.6400         2.4400       0.340000       106.8167
       8463.50        84.4600         1.6500         2.4500       0.350000       106.8333
       8464.00        80.0400         1.6800         2.4400       0.360000       107.0167
       8464.50        80.9800         1.6800         2.4400       0.370000       106.4500
       8465.00        80.3300         1.7100         2.4400       0.360000       106.1833
       8465.50        82.2400         1.7200         2.4400       0.360000       105.7000
       8466.00        85.2900         1.7200         2.4500       0.370000       105.5500
       8466.50        83.7900         1.6600         2.4400       0.360000       105.3500
       8467.00        83.5300         1.6500         2.4400       0.350000       105.2500
       8467.50        82.9800         1.6800         2.4400       0.330000       105.4000
       8468.00        83.6200         1.7200         2.4500       0.340000       105.3500
       8468.50        82.4300         1.7700         2.4500       0.350000       105.5000
       8469.00        81.1100         1.6800         2.4600       0.360000       105.4667
       8469.50        83.8700         1.7200         2.4600       0.360000       105.2666
       8470.00        84.9700         1.7200         2.4500       0.370000       105.3167
       8470.50        83.2800         1.7200         2.4400       0.360000       105.5833
       8471.00        79.2900         1.7000         2.4400       0.350000       105.6000
       8471.50        80.3500         1.7100         2.4500       0.340000       105.7500
       8472.00        82.0400         1.7100         2.4500       0.350000       105.7167
       8472.50        83.8500         1.7300         2.4600       0.360000       105.9667
       8473.00        82.7500         1.8300         2.4600       0.370000       106.0000
       8473.50        82.1600         1.5800         2.4600       0.380000       106.6000
       8474.00        84.6200         1.6600         2.4600       0.370000       106.9500
       8474.50        86.3000         1.7100         2.4500       0.370000       107.5500
       8475.00        86.6800         1.5900         2.4400       0.370000       107.7333
       8475.50        84.8700         1.5900         2.4400       0.380000       107.8833
       8476.00        86.5600         1.6600         2.4400       0.390000       108.0667
       8476.50        90.3200         1.7700         2.4500       0.380000       108.3500
       8477.00        90.9700         1.7700         2.4500       0.390000       108.3667
       8477.50        91.2600         1.7200         2.4500       0.370000       108.6833
       8478.00        93.2800         1.6600         2.4500       0.380000       108.5833
       8478.50        95.3700         1.6100         2.4600       0.370000       108.0333
       8479.00        93.2400         1.6400         2.4600       0.380000       106.3833
       8479.50        82.0600         1.3100         2.4100       0.360000       103.5667
       8480.00        74.2700         1.3100         2.3400       0.340000       101.0167
       8480.50        67.7700         1.8300         2.2900       0.310000        99.5500
       8481.00        69.9900         4.1600         2.2800       0.290000       101.1667
       8481.50        77.2600         6.5000         2.3000       0.290000       104.8167
       8482.00        85.8400         4.2500         2.3300       0.320000       108.2333
       8482.50        97.5700         2.1400         2.3400       0.370000       110.8833
       8483.00       102.8300         1.7900         2.3400       0.400000       114.8667
       8483.50       108.8800         1.9100         2.3100       0.420000       117.4167
       8484.00       112.3000         2.1400         2.3000       0.430000       117.8667
       8484.50       113.7600         2.3800         2.3000       0.420000       117.6333
       8485.00       110.7400         2.0400         2.3300       0.400000       114.4000
       8485.50       108.3500         1.8600         2.3600       0.380000       111.8000
       8486.00       110.4600         2.0100         2.3700       0.390000       112.1167
       8486.50       115.1200         1.9400         2.3700       0.390000       112.9333
       8487.00       118.6300         1.9000         2.3500       0.410000       114.1333
       8487.50       119.2200         1.8900         2.3400       0.400000       114.2166
       8488.00       123.2600         1.7500         2.3500       0.400000       114.0667
       8488.50       122.1200         1.9400         2.3500       0.410000       114.8167
       8489.00       124.1500         2.1900         2.3400       0.420000       115.8500
       8489.50       125.4000         1.7300         2.3200       0.440000       118.3333
       8490.00       128.3800         1.9000         2.2900       0.430000       117.8667
       8490.50       129.8300         1.8200         2.2800       0.410000       117.9667
       8491.00       126.8100         2.2500         2.2700       0.400000       117.7000
       8491.50       127.6400         1.8800         2.2700       0.410000       114.6500
       8492.00       126.0400         1.6500         2.2900       0.430000       113.8500
       8492.50       127.3100         3.0800         2.3200       0.430000       113.8167
       8493.00       128.8900         2.4600         2.3500       0.430000       111.9833
       8493.50       127.6700         2.1200         2.3600       0.400000       109.3667
       8494.00       128.2800         1.9900         2.3700       0.360000       109.2833
       8494.50       125.9400         2.2100         2.3900       0.340000       109.1833
       8495.00       124.9000         2.0400         2.4100       0.340000       107.2167
       8495.50       115.7300         1.8100         2.4300       0.340000       105.8167
       8496.00       109.7800         2.2800         2.4400       0.330000       103.9833
       8496.50       102.0000         2.2200         2.4600       0.310000       101.5167
       8497.00        99.8900         2.0800         2.4600       0.300000        99.8000
       8497.50        92.5800         1.9800         2.4700       0.290000        98.9667
       8498.00        91.6300         1.8700         2.4800       0.280000        98.9333
       8498.50        91.2400         1.6200         2.4800       0.270000        98.9000
       8499.00        89.8000         1.7300         2.4800       0.280000        98.5500
       8499.50        86.5500         1.8600         2.4800       0.270000        98.5167
       8500.00        80.4800         1.8500         2.4900       0.280000        98.9000
       8500.50        76.8700         1.8800         2.4800       0.270000        99.8167
       8501.00        75.4900         1.8000         2.4900       0.290000       101.9500
       8501.50        79.6600         1.9100         2.4900       0.310000       105.4500
       8502.00        85.7500         1.6400         2.4900       0.340000       106.8167
       8502.50        91.6700         1.4200         2.4900       0.370000       107.7167
       8503.00        92.8300         1.3900         2.4800       0.380000       108.6000
       8503.50        94.8200         1.5200         2.4700       0.380000       109.0667
       8504.00        93.1800         1.5400         2.4700       0.360000       109.2167
       8504.50        96.2700         1.5100         2.4700       0.370000       109.3333
       8505.00        91.6800         1.5600         2.4700       0.360000       110.2000
       8505.50        89.4600         1.5300         2.4700       0.390000       110.2000
       8506.00        87.1300         1.3100         2.4700       0.390000       109.9333
       8506.50        88.2700         1.4100         2.4600       0.390000       108.9500
       8507.00        86.9800         1.6800         2.4600       0.370000       108.0000
