~Version Information Block
VERS .                  2.0:  CWLS LOG ASCII STANDARD - VERSION 2.0
WRAP .                   NO:  One line per depth step
~Well Information Block
#MNEM.UNIT        Data Type   Information
#---------- ----------------  -----------
STRT .FT            1860.00:  START DEPTH
STOP .FT           10042.00:  STOP DEPTH
STEP .FT               0.50:  STEP
NULL .              -999.25:  NULL VALUE
COMP .                     :  COMPANY
WELL .             SA-15RD3:  WELL
FLD  .                     :  FIELD
LOC  .                     :  LOCATION
CTRY .                     :  COUNTRY
STAT .                     :  STATE
CNTY .                     :  COUNTY
SRVC .                     :  SERVICE COMPANY
DATE .                     :  DATE
API  .                     :  API NUMBER
UWI  .                     :  UNIQUE WELL ID
~Curve Information Block
#MNEM.UNIT         API CODE   Curve Description
#---------- ----------------  -----------------
DEPTH.FT                   :  DEPTH
GR   .GAPI                 :  Gamma Ray
RT   .OHMM                 :  Deep resistivity
RHOB .G/C3                 :  IFC(DEPTH>8079&DEPTH<8084,DRHO,RHOB_EDT)
NPHI .V/V                  :  Neutron porosity
~Parameter Information Block
#MNEM.UNIT            Value   Description
#---------- ----------------  -----------
PROJECT.            SERANG_FE:  
~Other Information Block
# 
~A       DEPTH             GR             RT           RHOB           NPHI 
# ...
       9403.50        66.9336         3.4731         2.5244       0.199600
       9404.00        66.1086         3.6206         2.5157       0.200000
       9404.50        63.2233         3.9891         2.5162       0.194500
       9405.00        59.6429         5.3833         2.5194       0.184600
       9405.50        53.3362         6.5781         2.5330       0.167500
       9406.00        46.4762         8.0106         2.5323       0.146800
       9406.50        39.6162         9.6430         2.5078       0.133000
       9407.00        35.7751        10.5503         2.4686       0.130200
       9407.50        33.7064        10.7296         2.4676       0.138500
       9408.00        32.2569        10.4588         2.4367       0.149700
       9408.50        29.7538        10.0526         2.4214       0.171700
       9409.00        27.0055         9.2852         2.3703       0.207500
       9409.50        23.8778         8.4189         2.3644       0.231700
       9410.00        22.5755         7.9798         2.4020       0.239300
       9410.50        23.5560         7.1655         2.4661       0.223400
       9411.00        26.8248         6.2140         2.4991       0.216300
       9411.50        31.2393         5.4779         2.4918       0.206700
       9412.00        33.5374         5.1942         2.4556       0.196100
       9412.50        33.4686         5.3258         2.4205       0.196000
       9413.00        31.4995         5.2854         2.3911       0.199400
       9413.50        28.8298         5.1042         2.3623       0.200000
       9414.00        26.4612         5.1363         2.3445       0.200000
       9414.50        23.4167         5.6060         2.3548       0.200000
       9415.00        20.9795         6.0731         2.3905       0.184500
       9415.50        19.4457         6.4983         2.4407       0.180200
       9416.00        20.3542         7.2002         2.4546       0.172200
       9416.50        22.4805         9.4278         2.3853       0.177400
       9417.00        26.2862         9.8103         2.3048       0.175900
       9417.50        29.6489         7.7892         2.2530       0.195800
       9418.00        31.7112         6.6568         2.2252       0.217300
       9418.50        32.0200         6.4352         2.2502       0.255500
       9419.00        31.2636         6.9852         2.3420       0.232600
       9419.50        29.9629         9.3610         2.3682       0.180900
       9420.00        28.2088        12.8457         2.3370       0.142700
       9420.50        27.5259        17.6329         2.3260       0.131200
       9421.00        28.9712        17.9480         2.3292       0.144200
       9421.50        32.6964        12.9606         2.3142       0.157400
       9422.00        37.1971         9.6425         2.3438       0.193500
       9422.50        40.6300         8.3969         2.3607       0.208400
       9423.00        41.5524         8.7055         2.3740       0.210000
       9423.50        40.8652         9.4068         2.3619       0.209200
       9424.00        39.1888        10.9514         2.3447       0.194700
       9424.50        36.2200        12.5534         2.3020       0.177500
       9425.00        31.8812        14.3162         2.2980       0.170800
       9425.50        27.6852        15.4928         2.2919       0.161900
       9426.00        25.4656        16.3114         2.2997       0.154600
       9426.50        25.5433        15.2483         2.3503       0.157200
       9427.00        28.2867        14.1933         2.3600       0.151900
       9427.50        32.6283        13.3217         2.3600       0.157900
       9428.00        36.8233        11.5550         2.3270       0.159900
       9428.50        38.2767         8.7383         2.3335       0.170900
       9429.00        38.0467         6.5900         2.3605       0.187400
       9429.50        39.1117         5.6517         2.3932       0.198400
       9430.00        42.3900         5.2633         2.4209       0.202000
       9430.50        48.7167         5.2350         2.4165       0.208700
       9431.00        54.8183         4.8233         2.4506       0.210000
       9431.50        61.1433         4.0733         2.4392       0.230400
       9432.00        64.8850         3.3817         2.4422       0.244700
       9432.50        66.1783         3.0450         2.4444       0.258600
       9433.00        64.4217         2.9583         2.4408       0.254300
       9433.50        61.7567         3.0667         2.4374       0.228600
       9434.00        60.1559         3.1318         2.4361       0.210600
       9434.50        61.8348         3.1484         2.4590       0.202800
       9435.00        64.8917         3.0163         2.4931       0.216500
       9435.50        67.7091         2.9065         2.5142       0.212700
       9436.00        68.9286         2.8816         2.5071       0.210200
       9436.50        69.8402         2.7547         2.5008       0.215300
       9437.00        71.9031         2.6799         2.4870       0.223700
       9437.50        74.9533         2.5447         2.4825       0.232600
       9438.00        79.2979         2.4615         2.4898       0.241500
       9438.50        82.7317         2.3581         2.4824       0.250300
       9439.00        84.7888         2.1896         2.5219       0.258700
       9439.50        84.3214         2.1266         2.5300       0.260000
       9440.00        81.8810         2.2202         2.5440       0.267000
       9440.50        78.7483         2.3904         2.5313       0.263700
       9441.00        76.3152         2.4367         2.5214       0.275700
       9441.50        75.9400         2.4233         2.5117       0.288100
       9442.00        76.7002         2.4785         2.5053       0.293600
       9442.50        76.8500         2.5905         2.4986       0.283300
       9443.00        74.1700         2.6184         2.5168       0.255100
       9443.50        66.7574         2.9969         2.5244       0.250000
       9444.00        55.4538         4.2006         2.4979       0.257600
       9444.50        42.7916         4.4200         2.4371       0.245800
       9445.00        33.8174         5.1403         2.3786       0.219300
       9445.50        28.2674         5.3637         2.3448       0.204000
       9446.00        26.6795         5.5894         2.3557       0.203500
       9446.50        26.1531         6.1409         2.3691       0.183400
       9447.00        28.7600         6.1898         2.3796       0.171500
       9447.50        33.8779         6.0711         2.3715       0.173200
       9448.00        41.6626         5.8825         2.4073       0.188900
       9448.50        51.0484         5.8500         2.4522       0.206900
       9449.00        59.1174         4.9623         2.4972       0.217400
       9449.50        66.1336         3.9944         2.5290       0.213200
       9450.00        69.1595         3.3626         2.5390       0.216100
       9450.50        71.0658         3.0770         2.5499       0.224500
       9451.00        71.7462         2.8973         2.5546       0.229400
       9451.50        72.9702         2.8448         2.5377       0.226700
       9452.00        73.9624         2.7896         2.5090       0.216100
       9452.50        76.4105         2.6709         2.4923       0.205500
       9453.00        79.9229         2.5577         2.4916       0.219000
       9453.50        82.4326         2.4812         2.5070       0.237000
       9454.00        81.6498         2.3860         2.5325       0.247500
       9454.50        82.1940         2.3364         2.5461       0.256500
       9455.00        84.6488         2.2964         2.5438       0.271300
       9455.50        88.5407         2.2816         2.5355       0.294100
       9456.00        88.8222         2.1960         2.5306       0.308100
       9456.50        86.8273         2.1632         2.5261       0.298200
