~Version Information Block
VERS .                  2.0:  CWLS LOG ASCII STANDARD - VERSION 2.0
WRAP .                   NO:  One line per depth step
~Well Information Block
#MNEM.UNIT        Data Type   Information
#---------- ----------------  -----------
STRT .FT        8000.328084:  START DEPTH
STOP .FT       11551.837384:  STOP DEPTH
STEP .FT           1.640420:  STEP
NULL .              -999.25:  NULL VALUE
COMP .                     :  COMPANY
WELL .           SA-15RD1ST:  WELL
FLD  .                     :  FIELD
LOC  .                     :  LOCATION
CTRY .                     :  COUNTRY
STAT .                     :  STATE
CNTY .                     :  COUNTY
SRVC .                     :  SERVICE COMPANY
DATE .                     :  DATE
API  .                     :  API NUMBER
UWI  .                     :  UNIQUE WELL ID
~Curve Information Block
#MNEM.UNIT         API CODE   Curve Description
#---------- ----------------  -----------------
DEPTH.FT                   :  
GR   .GAPI                 :  Merged WIRE with WIRE_ST at 9000.00 F
RT   .OHMM                 :  Merged WIRE with WIRE_ST at 9000.00 F
RHOB .G/C3                 :  Merged WIRE with WIRE_ST at 9000.00 F
NPHI .V/V                  :  Merged WIRE with WIRE_ST at 9000.00 F
~Parameter Information Block
#MNEM.UNIT            Value   Description
#---------- ----------------  -----------
PROJECT.            SERANG_FE:  
~Other Information Block
# 
~A       DEPTH             GR             RT           RHOB           NPHI 
# ...
  10633.202100       102.8955         1.7175         2.3689        0.35007
  10634.842520        90.7375         1.8154         2.4213        0.27367
  10636.482940        87.4489         1.7264         2.4128        0.30636
  10638.123360        83.2335         1.6715         2.4115        0.33748
  10639.763780        84.9074         1.5819         2.4297        0.36700
  10641.404199        90.5034         1.5505         2.4457        0.34948
  10643.044619        89.8794         1.3984         2.4514        0.38771
  10644.685039        86.1374         1.2924         2.4528        0.41301
  10646.325459        83.0751         1.2256         2.4577        0.40776
  10647.965879        85.6321         1.1981         2.4623        0.40502
  10649.606299        88.3564         1.1077         2.4644        0.41188
  10651.246719        84.3508         1.0926         2.4664        0.41665
  10652.887139        83.2434         1.2254         2.4888        0.37583
  10654.527559        78.6407         1.7388         2.4936        0.33327
  10656.167979        82.6163         1.3632         2.4920        0.35198
  10657.808399        93.5262         1.2810         2.4740        0.39538
  10659.448819        87.3918         1.0918         2.4829        0.40894
  10661.089239        80.9567         1.3300         2.5324        0.35237
  10662.729659        87.1735         1.3226         2.5010        0.37628
  10664.370079       102.1498         1.2306         2.4427        0.44060
  10666.010499       107.4540         1.2062         2.3840        0.49342
  10667.650919        95.3027         1.2204         2.3790        0.47671
  10669.291339        95.0230         1.0682         2.4124        0.40774
  10670.931759        92.6586         1.2368         2.3904        0.44471
  10672.572178        78.5575         1.3388         2.4126        0.38466
  10674.212598        66.2290         1.7410         2.4623        0.29488
  10675.853018        56.6038         1.8841         2.3748        0.25996
  10677.493438        39.8308         1.0066         2.2404        0.25816
  10679.133858        21.7588         0.9215         2.1881        0.25376
  10680.774278        15.9789         0.8074         2.1345        0.26291
  10682.414698        16.4787         0.8167         2.1195        0.25902
  10684.055118        16.9578         0.7684         2.1144        0.25474
  10685.695538        17.6333         0.7479         2.1213        0.27319
  10687.335958        17.9357         0.7123         2.0840        0.27026
  10688.976378        29.7540         0.6290         2.1304        0.26571
  10690.616798        53.9919         1.3110         2.3669        0.30939
  10692.257218        60.3016         1.7723         2.4645        0.28166
  10693.897638        51.9816         1.7174         2.4243        0.26571
  10695.538058        48.7981         1.3509         2.3625        0.25913
  10697.178478        57.2698         1.6585         2.3307        0.29540
  10698.818898        65.9015         1.8250         2.3932        0.32119
  10700.459318        69.6563         1.5460         2.4527        0.30958
  10702.099738        57.2873         1.2788         2.4908        0.26533
  10703.740157        45.5528         1.1327         2.3478        0.26164
  10705.380577        35.0899         0.9536         2.2229        0.27433
  10707.020997        23.8496         0.6412         2.1212        0.28730
  10708.661417        20.5516         0.5981         2.0924        0.28155
  10710.301837        20.9202         0.5696         2.1044        0.28771
  10711.942257        29.0662         0.6607         2.1504        0.27930
  10713.582677        47.0218         1.4204         2.3386        0.27394
  10715.223097        64.3019         1.8149         2.4318        0.29643
  10716.863517        67.2021         1.9726         2.4395        0.29957
  10718.503937        68.0816         1.7921         2.4499        0.30282
  10720.144357        73.4848         1.5713         2.4674        0.33773
  10721.784777        76.3259         1.6326         2.4729        0.32847
  10723.425197        69.9879         1.7133         2.4450        0.33792
  10725.065617        63.6059         2.0760         2.3724        0.39144
  10726.706037        50.2880         1.3432         2.2907        0.36350
  10728.346457        41.2751         0.8990         2.1932        0.30613
  10729.986877        43.0268         1.3674         2.2076        0.28938
  10731.627297        47.6493         1.6989         2.3086        0.29116
  10733.267717        49.8511         1.7691         2.3568        0.29287
  10734.908136        43.5225         1.2733         2.2938        0.28090
  10736.548556        42.9611         0.9534         2.1937        0.28820
  10738.188976        54.7701         1.6559         2.2798        0.30081
  10739.829396        56.0429         1.6334         2.3427        0.30641
  10741.469816        47.3943         0.9853         2.2539        0.26057
  10743.110236        53.5309         1.3583         2.2302        0.30769
  10744.750656        61.3208         1.7191         2.3885        0.30534
  10746.391076        55.7983         2.1450         2.3785        0.29524
  10748.031496        51.2505         2.5956         2.3149        0.28712
  10749.671916        55.1167         2.1726         2.3378        0.27626
  10751.312336        61.3015         1.8707         2.4142        0.29694
  10752.952756        72.0116         1.7064         2.4442        0.32369
  10754.593176        71.3580         1.6913         2.4690        0.34975
  10756.233596        72.6313         1.4588         2.4653        0.37556
  10757.874016        75.9588         1.4116         2.4633        0.38603
  10759.514436        83.5319         1.2381         2.4550        0.45394
  10761.154856        86.1738         1.1605         2.4516        0.41750
  10762.795276        88.1458         1.0310         2.4794        0.42466
  10764.435696        88.0450         1.0299         2.4780        0.42848
  10766.076115        81.2240         1.1431         2.5020        0.39858
  10767.716535        62.9979         3.3294         2.5499        0.24445
  10769.356955        50.0532         3.0255         2.5090        0.20066
  10770.997375        59.9962         1.9060         2.4560        0.27913
  10772.637795        76.6841         1.6378         2.4737        0.30697
  10774.278215        75.0035         1.7081         2.4779        0.34297
  10775.918635        78.8591         1.4203         2.4833        0.34641
  10777.559055        80.5557         1.7236         2.4678        0.33911
  10779.199475        79.8758         1.6506         2.4554        0.35139
  10780.839895        78.9101         1.9091         2.4184        0.33493
  10782.480315        78.0949         1.9115         2.4365        0.29443
  10784.120735        71.6568         1.8240         2.4106        0.28058
  10785.761155        67.6170         2.0640         2.3445        0.25851
  10787.401575        63.1881         1.8472         2.3073        0.26479
  10789.041995        56.9228         1.2385         2.2536        0.28223
  10790.682415        44.9456         1.2051         2.2172        0.29450
  10792.322835        33.0399         0.9121         2.1587        0.28880
  10793.963255        24.8442         0.7926         2.1168        0.27421
  10795.603675        22.5402         0.7114         2.1154        0.27619
  10797.244094        26.6951         0.7306         2.1207        0.29315
  10798.884514        44.0977         0.9660         2.1984        0.31322
  10800.524934        62.7690         1.1266         2.4144        0.34895
  10802.165354        67.8620         1.6590         2.4550        0.29412
  10803.805774        65.8085         1.8240         2.3680        0.29714
  10805.446194        65.0844         2.0844         2.3522        0.28724
  10807.086614        68.2638         2.1733         2.3705        0.29449
