~Version Information Block
VERS .                  2.0:  CWLS LOG ASCII STANDARD - VERSION 2.0
WRAP .                   NO:  One line per depth step
~Well Information Block
#MNEM.UNIT        Data Type   Information
#---------- ----------------  -----------
STRT .FT        8000.328084:  START DEPTH
STOP .FT       11551.837384:  STOP DEPTH
STEP .FT           1.640420:  STEP
NULL .              -999.25:  NULL VALUE
COMP .                     :  COMPANY
WELL .           SA-15RD1ST:  WELL
FLD  .                     :  FIELD
LOC  .                     :  LOCATION
CTRY .                     :  COUNTRY
STAT .                     :  STATE
CNTY .                     :  COUNTY
SRVC .                     :  SERVICE COMPANY
DATE .                     :  DATE
API  .                     :  API NUMBER
UWI  .                     :  UNIQUE WELL ID
~Curve Information Block
#MNEM.UNIT         API CODE   Curve Description
#---------- ----------------  -----------------
DEPTH.FT                   :  
GR   .GAPI                 :  Merged WIRE with WIRE_ST at 9000.00 F
RT   .OHMM                 :  Merged WIRE with WIRE_ST at 9000.00 F
RHOB .G/C3                 :  Merged WIRE with WIRE_ST at 9000.00 F
NPHI .V/V                  :  Merged WIRE with WIRE_ST at 9000.00 F
~Parameter Information Block
#MNEM.UNIT            Value   Description
#---------- ----------------  -----------
PROJECT.            SERANG_FE:  
~Other Information Block
# 
~A       DEPTH             GR             RT           RHOB           NPHI 
# ...
   8877.952756        59.3772         1.5162         2.2709        0.35875
   8879.593176        55.9739         1.4500         2.2663        0.37788
   8881.233596        41.8425         1.3632         2.1760        0.35513
   8882.874016        28.8630         0.8127         2.0925        0.32607
   8884.514436        27.2416         0.6891         2.0503        0.30222
   8886.154856        34.1691         0.8603         2.0955        0.31974
   8887.795276        45.0878         1.1341         2.2136        0.33086
   8889.435696        57.2044         1.5040         2.2713        0.33698
   8891.076115        60.1807         1.6293         2.3115        0.33427
   8892.716535        65.1227         1.4983         2.3200        0.31574
   8894.356955        51.5161         1.4043         2.3171        0.29475
   8895.997375        52.7827         1.3802         2.2900        0.29393
   8897.637795        60.1294         1.4528         2.3028        0.30035
   8899.278215        61.2125         1.4377         2.3156        0.31272
   8900.918635        65.7713         1.5621         2.3500        0.31210
   8902.559055        65.8465         1.6747         2.3900        0.31946
   8904.199475        68.7898         1.7640         2.3900        0.31770
   8905.839895        70.7849         1.7632         2.3732        0.30608
   8907.480315        72.7010         1.7608         2.3800        0.31347
   8909.120735        75.2853         1.7203         2.3976        0.32843
   8910.761155        74.1261         1.6848         2.4348        0.34568
   8912.401575        74.8179         1.7541         2.4120        0.37882
   8914.041995        76.8577         1.6666         2.3992        0.40752
   8915.682415        74.8222         1.5927         2.3936        0.44355
   8917.322835        76.3669         1.4835         2.3935        0.44293
   8918.963255        79.8117         1.5207         2.3915        0.44852
   8920.603675        79.0590         1.5741         2.3979        0.43657
   8922.244094        70.5864         1.6100         2.3900        0.41391
   8923.884514        72.9601         1.7008         2.4000        0.40024
   8925.524934        78.9443         1.7280         2.4200        0.36122
   8927.165354        83.0981         1.6000         2.3900        0.35377
   8928.805774        84.1060         1.5922         2.3939        0.34794
   8930.446194        81.4875         1.6600         2.3989        0.38238
   8932.086614        79.1875         1.5248         2.4100        0.40294
   8933.727034        76.6109         1.4818         2.4045        0.40047
   8935.367454        76.3340         1.6600         2.4247        0.39521
   8937.007874        75.7283         1.7100         2.4202        0.40235
   8938.648294        70.6396         1.7170         2.3941        0.35756
   8940.288714        55.7650         2.8462         2.3815        0.25373
   8941.929134        40.6640         7.5025         2.5729        0.14009
   8943.569554        38.3421         9.0576         2.6258        0.11182
   8945.209974        46.2482         9.7169         2.4890        0.18273
   8946.850394        47.6683         1.8817         2.2620        0.26935
   8948.490814        49.7419         1.7907         2.2300        0.30027
   8950.131234        46.7510         1.3123         2.2100        0.32513
   8951.771654        50.2197         1.0026         2.1691        0.33645
   8953.412073        71.4097         1.3942         2.2447        0.36802
   8955.052493        80.8575         1.6621         2.3069        0.36367
   8956.692913        83.4513         1.6777         2.3277        0.34957
   8958.333333        79.5433         1.6300         2.3700        0.33183
   8959.973753        68.4345         1.4363         2.3800        0.31578
   8961.614173        49.7643         1.0154         2.3454        0.30400
   8963.254593        34.1399         0.9247         2.2045        0.27784
   8964.895013        29.4635         0.9437         2.1442        0.27254
   8966.535433        36.5924         1.0172         2.1607        0.29630
   8968.175853        45.0735         0.8924         2.2435        0.31108
   8969.816273        38.0084         0.8343         2.1500        0.33737
   8971.456693        44.2644         1.4192         2.2648        0.32824
   8973.097113        65.3102         1.6839         2.3839        0.35369
   8974.737533        72.5880         1.7990         2.4148        0.30162
   8976.377953        69.7926         2.7385         2.4300        0.28384
   8978.018373        65.3905         2.1537         2.4296        0.29008
   8979.658793        70.0509         1.8278         2.4168        0.33773
   8981.299213        73.0848         1.7460         2.4040        0.36240
   8982.939633        74.3031         1.6936         2.3900        0.36173
   8984.580052        77.9787         1.6432         2.3900        0.36453
   8986.220472        80.7250         1.6688         2.3900        0.37314
   8987.860892        82.0161         1.6700         2.4072        0.39069
   8989.501312        79.4700         1.7300         2.3900        0.39640
   8991.141732        74.4360         1.7600         2.4000        0.39371
   8992.782152        75.1546         1.8069         2.4000        0.38308
   8994.422572        79.2512         1.8146         2.4015        0.39119
   8996.062992        73.5239         1.7550         2.3900        0.40799
   8997.703412        77.9080         1.7181         2.4041        0.41183
   8999.343832        84.8306         1.7431         2.4062        0.41534
   9000.984252        79.1659         1.7720       -29.1547        0.47672
   9002.624672        79.6010         1.7720         2.3895        0.43201
   9004.265092        75.2780         1.7837         2.3945        0.42676
   9005.905512        68.5517         1.8558         2.3968        0.42200
   9007.545932        67.9178         1.8813         2.3970        0.41286
   9009.186352        70.9219         1.8911         2.3933        0.37939
   9010.826772        74.8016         1.8950         2.3857        0.38995
   9012.467192        80.1967         1.8931         2.3859        0.39916
   9014.107612        83.0393         1.8920         2.3944        0.37824
   9015.748031        83.1412         1.8481         2.3985        0.37979
   9017.388451        82.2944         1.8040         2.3952        0.41868
   9019.028871        80.4666         1.7989         2.3857        0.43503
   9020.669291        77.5055         1.7940         2.3683        0.46405
   9022.309711        72.4333         1.8097         2.3582        0.45427
   9023.950131        69.0819         1.8206         2.3686        0.40355
   9025.590551        75.0777         1.8337         2.3802        0.42212
   9027.230971        83.1433         1.8765         2.3830        0.43976
   9028.871391        83.3185         1.9450         2.3813        0.49428
   9030.511811        78.8316         1.9602         2.3678        0.50050
   9032.152231        72.2661         1.9750         2.3155        0.46235
   9033.792651        64.5745         1.9491         2.2274        0.42602
   9035.433071        62.5532         1.9080         2.1999        0.40065
   9037.073491        67.2478         1.8140         2.2452        0.40850
   9038.713911        73.0850         1.7640         2.2807        0.40242
   9040.354331        79.8591         1.6750         2.3074        0.36303
   9041.994751        81.2784         1.6989         2.3080        0.37060
   9043.635171        81.0076         1.7471         2.2925        0.41971
   9045.275591        88.5833         2.0503         2.2473        0.46756
   9046.916010       106.7000         2.0745         2.2222        0.50264
   9048.556430       138.7624         2.0090         2.1873        0.55135
   9050.196850       151.1150         2.6083         2.0715        0.70796
   9051.837270       141.0351         3.7300         1.9623        0.79026
