~Version Information Block
VERS .                  2.0:  CWLS LOG ASCII STANDARD - VERSION 2.0
WRAP .                   NO:  One line per depth step
~Well Information Block
#MNEM.UNIT        Data Type   Information
#---------- ----------------  -----------
STRT .FT        8000.328084:  START DEPTH
STOP .FT       11551.837384:  STOP DEPTH
STEP .FT           1.640420:  STEP
NULL .              -999.25:  NULL VALUE
COMP .                     :  COMPANY
WELL .           SA-15RD1ST:  WELL
FLD  .                     :  FIELD
LOC  .                     :  LOCATION
CTRY .                     :  COUNTRY
STAT .                     :  STATE
CNTY .                     :  COUNTY
SRVC .                     :  SERVICE COMPANY
DATE .                     :  DATE
API  .                     :  API NUMBER
UWI  .                     :  UNIQUE WELL ID
~Curve Information Block
#MNEM.UNIT         API CODE   Curve Description
#---------- ----------------  -----------------
DEPTH.FT                   :  
GR   .GAPI                 :  Merged WIRE with WIRE_ST at 9000.00 F
RT   .OHMM                 :  Merged WIRE with WIRE_ST at 9000.00 F
RHOB .G/C3                 :  Merged WIRE with WIRE_ST at 9000.00 F
NPHI .V/V                  :  Merged WIRE with WIRE_ST at 9000.00 F
~Parameter Information Block
#MNEM.UNIT            Value   Description
#---------- ----------------  -----------
PROJECT.            SERANG_FE:  
~Other Information Block
# 
~A       DEPTH             GR             RT           RHOB           NPHI 
# ...
   8702.427822        18.1411         0.6100         2.0786        0.27709
   8704.068241        20.4195         0.6341         2.1027        0.27270
   8705.708661        17.6383         0.6900         2.1542        0.25738
   8707.349081        13.9968         0.6830         2.1530        0.26957
   8708.989501        14.3924         0.6504         2.1302        0.27445
   8710.629921        15.8554         0.6174         2.1074        0.29273
   8712.270341        17.5090         0.6300         2.0892        0.29972
   8713.910761        20.3137         0.6100         2.1082        0.29595
   8715.551181        17.4365         0.6110         2.0931        0.29355
   8717.191601        18.5450         0.6700         2.1315        0.28471
   8718.832021        20.1555         0.6734         2.1667        0.30617
   8720.472441        19.5320         0.7178         2.1483        0.32589
   8722.112861        18.5574         0.6900         2.0535        0.32677
   8723.753281        21.6046         0.6247         2.0900        0.31405
   8725.393701        19.8392         0.5821         2.0564        0.30297
   8727.034121        20.8298         0.5980         2.0586        0.29231
   8728.674541        21.9047         0.5400         2.0435        0.29943
   8730.314961        22.0206         0.5463         2.0563        0.29443
   8731.955381        22.5786         0.5609         2.0600        0.29173
   8733.595801        20.9525         0.5619         2.0762        0.28619
   8735.236220        19.7677         0.5653         2.0647        0.28323
   8736.876640        20.6973         0.5600         2.0525        0.30305
   8738.517060        22.0766         0.5700         2.0503        0.30692
   8740.157480        17.9661         0.5700         2.0431        0.32697
   8741.797900        17.4581         0.5600         2.0619        0.32662
   8743.438320        16.7449         0.5688         2.0588        0.32320
   8745.078740        18.6219         0.5500         2.0684        0.33584
   8746.719160        22.6124         0.5831         2.0488        0.30763
   8748.359580        23.1273         0.6128         2.0428        0.32868
   8750.000000        21.9200         0.5800         2.0600        0.31170
   8751.640420        22.9688         0.5828         2.0400        0.33847
   8753.280840        21.2273         0.5888         2.0525        0.32176
   8754.921260        20.0644         0.5516         2.0400        0.31450
   8756.561680        19.1307         0.5475         2.0412        0.31103
   8758.202100        18.5608         0.5260         2.0500        0.31158
   8759.842520        20.5125         0.5200         2.0431        0.31402
   8761.482940        21.2577         0.6376         2.0693        0.31326
   8763.123360        23.9310         0.6177         2.1523        0.31202
   8764.763780        28.6535         0.6269         2.0900        0.31962
   8766.404199        48.4236         1.0355         2.1547        0.36502
   8768.044619        70.0571         1.6198         2.3618        0.40039
   8769.685039        80.4322         1.8874         2.3900        0.44767
   8771.325459        84.6936         1.8244         2.4295        0.45193
   8772.965879        81.0668         1.7980         2.3527        0.47230
   8774.606299        81.3457         1.7536         2.2994        0.47397
   8776.246719        83.9888         1.8401         2.3899        0.45102
   8777.887139        89.3071         1.7923         2.3623        0.48138
   8779.527559        85.3404         1.7917         2.3994        0.48199
   8781.167979        79.9402         1.8300         2.3833        0.48905
   8782.808399        74.2729         1.7800         2.3738        0.43463
   8784.448819        75.5913         1.8100         2.3731        0.41045
   8786.089239        80.3845         1.7964         2.4082        0.41091
   8787.729659        78.1562         1.7776         2.4008        0.39562
   8789.370079        81.9498         1.6656         2.3974        0.37441
   8791.010499        85.3598         1.7304         2.3900        0.39023
   8792.650919        80.7386         1.7740         2.4100        0.42240
   8794.291339        90.7603         1.7817         2.4000        0.45962
   8795.931759        97.9367         1.7527         2.3986        0.46220
   8797.572178        90.7809         1.7428         2.4000        0.47697
   8799.212598       100.4224         1.6285         2.4000        0.48666
   8800.853018        97.3223         1.7071         2.4029        0.47624
   8802.493438        80.4242         1.7399         2.3900        0.46168
   8804.133858        82.8552         1.7066         2.3773        0.44093
   8805.774278        89.6946         1.5061         2.3855        0.42665
   8807.414698        83.9499         1.4781         2.3966        0.40042
   8809.055118        75.8665         1.5099         2.3900        0.39031
   8810.695538        69.9009         1.8213         2.4100        0.37770
   8812.335958        71.0433         1.8966         2.4200        0.38272
   8813.976378        76.6948         1.8600         2.4100        0.39627
   8815.616798        78.6576         1.7723         2.4123        0.40935
   8817.257218        81.1725         1.7343         2.4100        0.42467
   8818.897638        83.1276         1.6341         2.3841        0.43098
   8820.538058        82.0408         1.5808         2.3792        0.44042
   8822.178478        82.0450         1.7571         2.3636        0.43734
   8823.818898        80.1109         1.6772         2.3900        0.43780
   8825.459318        86.3433         1.6592         2.3908        0.41226
   8827.099738        88.4712         1.7380         2.3800        0.41511
   8828.740157        85.1239         1.9680         2.3604        0.41361
   8830.380577        90.2591         2.1072         2.3400        0.43623
   8832.020997        99.1451         2.0929         2.3008        0.43409
   8833.661417        95.9210         1.5748         2.3632        0.44793
   8835.301837        90.7056         1.4121         2.3800        0.42160
   8836.942257        81.8928         1.4354         2.3812        0.37387
   8838.582677        66.8819         1.5467         2.3600        0.32421
   8840.223097        56.2291         1.4511         2.3555        0.29045
   8841.863517        56.1730         1.3136         2.3927        0.29750
   8843.503937        65.0381         1.2302         2.3500        0.31591
   8845.144357        76.3074         1.2227         2.3458        0.34176
   8846.784777        80.7321         1.0900         2.3757        0.35022
   8848.425197        77.0846         1.1895         2.3730        0.36464
   8850.065617        74.9569         1.6305         2.3461        0.37228
   8851.706037        74.3870         1.5953         2.3424        0.39829
   8853.346457        84.1791         1.5161         2.3769        0.40436
   8854.986877        89.7609         1.3908         2.3803        0.44026
   8856.627297        91.6371         1.4051         2.3900        0.45659
   8858.267717        79.3309         1.5268         2.3900        0.43460
   8859.908136        70.4395         1.5263         2.4445        0.40140
   8861.548556        73.8247         1.6561         2.4600        0.32945
   8863.188976        71.5581         1.5800         2.4362        0.34108
   8864.829396        66.4159         1.5800         2.3668        0.31493
   8866.469816        65.9859         1.5324         2.3594        0.35699
   8868.110236        64.9489         1.4990         2.3722        0.33681
   8869.750656        66.2199         1.4250         2.3299        0.33999
   8871.391076        58.0434         1.1478         2.2444        0.32048
   8873.031496        57.1613         1.1931         2.2706        0.32282
   8874.671916        56.7503         1.2600         2.2831        0.32872
   8876.312336        57.4108         1.4512         2.2800        0.34612
