~Version Information Block
VERS .                  2.0:  CWLS LOG ASCII STANDARD - VERSION 2.0
WRAP .                   NO:  One line per depth step
~Well Information Block
#MNEM.UNIT        Data Type   Information
#---------- ----------------  -----------
STRT .FT            1860.00:  START DEPTH
STOP .FT           10042.00:  STOP DEPTH
STEP .FT               0.50:  STEP
NULL .              -999.25:  NULL VALUE
COMP .                     :  COMPANY
WELL .             SA-15RD3:  WELL
FLD  .                     :  FIELD
LOC  .                     :  LOCATION
CTRY .                     :  COUNTRY
STAT .                     :  STATE
CNTY .                     :  COUNTY
SRVC .                     :  SERVICE COMPANY
DATE .                     :  DATE
API  .                     :  API NUMBER
UWI  .                     :  UNIQUE WELL ID
~Curve Information Block
#MNEM.UNIT         API CODE   Curve Description
#---------- ----------------  -----------------
DEPTH.FT                   :  DEPTH
GR   .GAPI                 :  Gamma Ray
RT   .OHMM                 :  Deep resistivity
RHOB .G/C3                 :  IFC(DEPTH>8079&DEPTH<8084,DRHO,RHOB_EDT)
NPHI .V/V                  :  Neutron porosity
~Parameter Information Block
#MNEM.UNIT            Value   Description
#---------- ----------------  -----------
PROJECT.            SERANG_FE:  
~Other Information Block
# 
~A       DEPTH             GR             RT           RHOB           NPHI 
# ...
       4000.00        41.7000         1.6800      -999.2500    -999.250000
       4000.50        51.0900         1.7000      -999.2500    -999.250000
       4001.00        51.1500         1.7300      -999.2500    -999.250000
       4001.50        51.1500         1.7500      -999.2500    -999.250000
       4002.00        52.1800         1.7000      -999.2500    -999.250000
       4002.50        58.5400         1.6100      -999.2500    -999.250000
       4003.00        56.1500         1.6300      -999.2500    -999.250000
       4003.50        48.4400         1.6600      -999.2500    -999.250000
       4004.00        46.6100         1.6100      -999.2500    -999.250000
       4004.50        39.7800         1.5200      -999.2500    -999.250000
       4005.00        40.9100         1.5800      -999.2500    -999.250000
       4005.50        38.4200         1.6200      -999.2500    -999.250000
       4006.00        38.1800         1.7600      -999.2500    -999.250000
       4006.50        35.0400         1.8400      -999.2500    -999.250000
       4007.00        36.5100         2.2300      -999.2500    -999.250000
       4007.50        36.8300         3.1500      -999.2500    -999.250000
       4008.00        38.7400         3.9600      -999.2500    -999.250000
       4008.50        37.8600         5.9100      -999.2500    -999.250000
       4009.00        31.9100         6.2500      -999.2500    -999.250000
       4009.50        26.7300         5.4600      -999.2500    -999.250000
       4010.00        35.8300         4.8900      -999.2500    -999.250000
       4010.50        39.7700         4.2400      -999.2500    -999.250000
       4011.00        29.6900         4.2300      -999.2500    -999.250000
       4011.50        35.4500         3.8100      -999.2500    -999.250000
       4012.00        35.7900         3.6200      -999.2500    -999.250000
       4012.50        37.0700         3.7000      -999.2500    -999.250000
       4013.00        35.0000         3.9400      -999.2500    -999.250000
       4013.50        36.2700         3.4100      -999.2500    -999.250000
       4014.00        31.0200         2.3300      -999.2500    -999.250000
       4014.50        31.8200         1.8900      -999.2500    -999.250000
       4015.00        39.6000         1.5500      -999.2500    -999.250000
       4015.50        34.3000         1.3700      -999.2500    -999.250000
       4016.00        40.0100         1.2900      -999.2500    -999.250000
       4016.50        36.7500         1.3000      -999.2500    -999.250000
       4017.00        43.9900         1.3700      -999.2500    -999.250000
       4017.50        57.5100         1.4000      -999.2500    -999.250000
       4018.00        54.8900         1.4100      -999.2500    -999.250000
       4018.50        63.7000         1.4900      -999.2500    -999.250000
       4019.00        61.4900         1.6000      -999.2500    -999.250000
       4019.50        51.0700         1.6700      -999.2500    -999.250000
       4020.00        41.9500         1.7300      -999.2500    -999.250000
       4020.50        37.3100         1.7100      -999.2500    -999.250000
       4021.00        30.8000         1.6500      -999.2500    -999.250000
       4021.50        34.2000         1.5500      -999.2500    -999.250000
       4022.00        35.8500         1.4700      -999.2500    -999.250000
       4022.50        33.8000         1.4200      -999.2500    -999.250000
       4023.00        29.9100         1.5100      -999.2500    -999.250000
       4023.50        34.6800         1.7100      -999.2500    -999.250000
       4024.00        37.9400         2.2200      -999.2500    -999.250000
       4024.50        36.0300         2.5400      -999.2500    -999.250000
       4025.00        39.4900         2.9400      -999.2500    -999.250000
       4025.50        35.4200         3.4200      -999.2500    -999.250000
       4026.00        32.0800         3.8200      -999.2500    -999.250000
       4026.50        33.0500         3.8600      -999.2500    -999.250000
       4027.00        32.2900         3.6100      -999.2500    -999.250000
       4027.50        39.7700         3.2700      -999.2500    -999.250000
       4028.00        48.4400         2.7200      -999.2500    -999.250000
       4028.50        45.5800         2.2000      -999.2500    -999.250000
       4029.00        50.1100         1.9300      -999.2500    -999.250000
       4029.50        54.3300         1.8300      -999.2500    -999.250000
       4030.00        54.3300         1.8100      -999.2500    -999.250000
       4030.50        51.3900         1.7700      -999.2500    -999.250000
       4031.00        45.0200         1.8000      -999.2500    -999.250000
       4031.50        46.8900         1.7700      -999.2500    -999.250000
       4032.00        54.2900         1.7400      -999.2500    -999.250000
       4032.50        54.0900         1.7300      -999.2500    -999.250000
       4033.00        58.8600         1.7500      -999.2500    -999.250000
       4033.50        58.4400         1.7900      -999.2500    -999.250000
       4034.00        54.5000         1.8700      -999.2500    -999.250000
       4034.50        48.8600         1.8300      -999.2500    -999.250000
       4035.00        49.7900         1.7000      -999.2500    -999.250000
       4035.50        47.1700         1.6000      -999.2500    -999.250000
       4036.00        45.0200         1.6200      -999.2500    -999.250000
       4036.50        45.0200         1.6300      -999.2500    -999.250000
       4037.00        47.7300         1.6300      -999.2500    -999.250000
       4037.50        52.1800         1.6200      -999.2500    -999.250000
       4038.00        53.0400         1.5800      -999.2500    -999.250000
       4038.50        45.2600         1.5500      -999.2500    -999.250000
       4039.00        40.4900         1.5800      -999.2500    -999.250000
       4039.50        38.7300         1.6700      -999.2500    -999.250000
       4040.00        38.2000         1.7800      -999.2500    -999.250000
       4040.50        36.8300         1.7800      -999.2500    -999.250000
       4041.00        37.6200         1.6400      -999.2500    -999.250000
       4041.50        33.3400         1.5900      -999.2500    -999.250000
       4042.00        32.4500         1.5800      -999.2500    -999.250000
       4042.50        38.4200         1.5800      -999.2500    -999.250000
       4043.00        33.3300         1.5700      -999.2500    -999.250000
       4043.50        35.1400         1.6100      -999.2500    -999.250000
       4044.00        41.1500         1.6100      -999.2500    -999.250000
       4044.50        42.4000         1.5500      -999.2500    -999.250000
       4045.00        45.6800         1.4400      -999.2500    -999.250000
       4045.50        40.2500         1.3700      -999.2500    -999.250000
       4046.00        39.4700         1.3500      -999.2500    -999.250000
       4046.50        33.5700         1.3700      -999.2500    -999.250000
       4047.00        39.7700         1.4200      -999.2500    -999.250000
       4047.50        36.2700         1.4400      -999.2500    -999.250000
       4048.00        30.0300         1.4600      -999.2500    -999.250000
       4048.50        26.1700         1.4200      -999.2500    -999.250000
       4049.00        28.3200         1.4200      -999.2500    -999.250000
       4049.50        31.8200         1.4800      -999.2500    -999.250000
       4050.00        41.8400         1.4300      -999.2500    -999.250000
       4050.50        37.8600         1.3900      -999.2500    -999.250000
       4051.00        39.7700         1.4600      -999.2500    -999.250000
       4051.50        40.8800         1.5000      -999.2500    -999.250000
       4052.00        33.3300         1.4900      -999.2500    -999.250000
       4052.50        33.8700         1.4400      -999.2500    -999.250000
       4053.00        38.1800         1.4000      -999.2500    -999.250000
