~Version Information Block
VERS .                  2.0:  CWLS LOG ASCII STANDARD - VERSION 2.0
WRAP .                   NO:  One line per depth step
~Well Information Block
#MNEM.UNIT        Data Type   Information
#---------- ----------------  -----------
STRT .FT        8000.328084:  START DEPTH
STOP .FT       11551.837384:  STOP DEPTH
STEP .FT           1.640420:  STEP
NULL .              -999.25:  NULL VALUE
COMP .                     :  COMPANY
WELL .           SA-15RD1ST:  WELL
FLD  .                     :  FIELD
LOC  .                     :  LOCATION
CTRY .                     :  COUNTRY
STAT .                     :  STATE
CNTY .                     :  COUNTY
SRVC .                     :  SERVICE COMPANY
DATE .                     :  DATE
API  .                     :  API NUMBER
UWI  .                     :  UNIQUE WELL ID
~Curve Information Block
#MNEM.UNIT         API CODE   Curve Description
#---------- ----------------  -----------------
DEPTH.FT                   :  
GR   .GAPI                 :  Merged WIRE with WIRE_ST at 9000.00 F
RT   .OHMM                 :  Merged WIRE with WIRE_ST at 9000.00 F
RHOB .G/C3                 :  Merged WIRE with WIRE_ST at 9000.00 F
NPHI .V/V                  :  Merged WIRE with WIRE_ST at 9000.00 F
~Parameter Information Block
#MNEM.UNIT            Value   Description
#---------- ----------------  -----------
PROJECT.            SERANG_FE:  
~Other Information Block
# 
~A       DEPTH             GR             RT           RHOB           NPHI 
# ...
  11159.776903        62.7851         2.5123         2.5304        0.27512
  11161.417323        62.2374         2.5375         2.5240        0.25498
  11163.057743        65.7856         2.4886         2.4694        0.25774
  11164.698163        75.5888         2.4495         2.4868        0.27643
  11166.338583        82.7023         2.3567         2.4965        0.30566
  11167.979003        81.9275         2.4337         2.4923        0.32369
  11169.619423        77.1459         2.2819         2.4727        0.33799
  11171.259843        79.3582         2.0987         2.4574        0.35402
  11172.900262        82.1923         1.8713         2.4380        0.35967
  11174.540682        77.6229         1.6948         2.4185        0.39127
  11176.181102        78.4365         1.5842         2.4288        0.38604
  11177.821522        78.2284         1.6201         2.4403        0.37406
  11179.461942        82.3529         1.7139         2.4334        0.37518
  11181.102362        85.3654         1.6347         2.4146        0.40062
  11182.742782        83.3683         1.5731         2.4255        0.40890
  11184.383202        82.4689         1.5639         2.4145        0.41955
  11186.023622        88.6786         1.5137         2.4346        0.41037
  11187.664042        88.6265         1.5377         2.4457        0.40510
  11189.304462        80.4375         1.4654         2.4316        0.41135
  11190.944882        76.8989         1.3901         2.4361        0.40118
  11192.585302        81.0668         1.4075         2.4710        0.40828
  11194.225722        83.8651         1.3519         2.4747        0.41659
  11195.866142        88.3967         1.2383         2.4815        0.41269
  11197.506562        87.1096         1.2570         2.4841        0.39489
  11199.146982        83.1341         1.3370         2.4875        0.38212
  11200.787402        86.6132         1.1949         2.5023        0.41205
  11202.427822        89.1601         1.1443         2.4977        0.42088
  11204.068241        87.5187         1.0922         2.4913        0.41703
  11205.708661        88.3427         1.1369         2.5088        0.40789
  11207.349081        83.9607         1.1203         2.5241        0.40900
  11208.989501        74.6428         1.2450         2.5031        0.35217
  11210.629921        60.3390         2.3542         2.4616        0.25274
  11212.270341        50.5578         3.2641         2.3932        0.19073
  11213.910761        49.8636         3.6120         2.3089        0.19148
  11215.551181        54.7610         3.3134         2.3080        0.21205
  11217.191601        66.2092         2.1623         2.3979        0.26031
  11218.832021        65.4445         1.7551         2.4517        0.30229
  11220.472441        54.9117         2.5834         2.4016        0.22534
  11222.112861        57.6828         2.3625         2.3777        0.22741
  11223.753281        67.8812         2.1075         2.4401        0.27235
  11225.393701        72.9478         1.8183         2.4594        0.29108
  11227.034121        73.6889         1.7873         2.4694        0.30690
  11228.674541        74.3053         1.9260         2.4727        0.30450
  11230.314961        79.8560         1.4720         2.4735        0.35407
  11231.955381        84.8486         1.2495         2.4774        0.38391
  11233.595801        87.9786         1.1332         2.4777        0.39716
  11235.236220        86.1713         1.0468         2.4690        0.42236
  11236.876640        87.3570         1.1252         2.4881        0.40417
  11238.517060        85.5941         1.1126         2.4851        0.40479
  11240.157480        80.9292         1.1228         2.4721        0.40762
  11241.797900        74.8130         1.4459         2.4774        0.35832
  11243.438320        63.8311         1.7470         2.4582        0.32226
  11245.078740        57.3248         2.6686         2.3942        0.26089
  11246.719160        59.3607         3.0347         2.3289        0.24342
  11248.359580        61.5947         3.0847         2.3424        0.25062
  11250.000000        60.9170         3.0610         2.3280        0.27352
  11251.640420        62.7143         2.8548         2.3478        0.28226
  11253.280840        62.3637         2.6647         2.3842        0.30082
  11254.921260        63.7294         2.4681         2.4033        0.30330
  11256.561680        64.6937         2.3332         2.4030        0.30511
  11258.202100        64.8982         2.2863         2.4172        0.32209
  11259.842520        67.4075         2.1991         2.4199        0.31919
  11261.482940        70.8979         2.0782         2.4319        0.35756
  11263.123360        75.4694         1.9778         2.4470        0.37633
  11264.763780        76.9239         1.8912         2.4492        0.38834
  11266.404199        82.0603         1.7592         2.4257        0.37968
  11268.044619        84.3795         1.6574         2.4358        0.41476
  11269.685039        82.4389         1.5223         2.4760        0.43443
  11271.325459        83.3483         1.4672         2.4806        0.41942
  11272.965879        84.8560         1.4315         2.4757        0.43215
  11274.606299        89.1565         1.4017         2.4683        0.44925
  11276.246719        84.3284         1.3220         2.4730        0.44950
  11277.887139        83.5649         1.4730         2.4629        0.39034
  11279.527559        76.5776         1.5838         2.4642        0.36292
  11281.167979        72.8858         1.8502         2.4620        0.35250
  11282.808399        75.5164         1.8205         2.4600        0.33318
  11284.448819        78.9066         2.3742         2.4098        0.30325
  11286.089239        74.8763         2.8184         2.3767        0.30781
  11287.729659        61.8258         3.1050         2.3643        0.28282
  11289.370079        56.1950         5.2402         2.2533        0.21738
  11291.010499        79.2129         3.5407         2.2360        0.30675
  11292.650919        84.7808         4.1033         2.2079        0.39482
  11294.291339        66.2179         3.6438         2.2869        0.27949
  11295.931759        55.6241         4.7143         2.4117        0.19011
  11297.572178        46.7207         6.0296         2.3569        0.16323
  11299.212598        38.5777         8.1878         2.1298        0.12667
  11300.853018        38.4228        10.6494         2.1036        0.12029
  11302.493438        38.3199        10.9328         2.0858        0.11595
  11304.133858        33.8835        17.0826         2.0431        0.09906
  11305.774278        38.2718        14.3694         2.0277        0.10524
  11307.414698        40.4109        14.3787         2.0715        0.11358
  11309.055118        40.3444        11.5523         2.0598        0.11423
  11310.695538        46.5052         6.7996         2.1233        0.14044
  11312.335958        52.2447         5.5332         2.2190        0.17331
  11313.976378        54.1823         3.7839         2.2625        0.21122
  11315.616798        58.0587         2.9569         2.3491        0.24162
  11317.257218        62.9634         2.3978         2.4173        0.25802
  11318.897638        67.0690         2.2571         2.4451        0.26161
  11320.538058        70.1356         2.1330         2.4528        0.29347
  11322.178478        75.3611         1.9157         2.4462        0.33049
  11323.818898        78.5063         1.6354         2.4470        0.36670
  11325.459318        77.3544         1.5566         2.4529        0.37133
  11327.099738        78.1690         1.4840         2.4884        0.36182
  11328.740157        70.1774         1.4667         2.4720        0.36418
  11330.380577        64.2838         2.2218         2.4493        0.30535
  11332.020997        70.8282         1.9053         2.4302        0.30057
  11333.661417        75.1639         1.7094         2.4619        0.34480
