~Version Information Block
VERS .                  2.0:  CWLS LOG ASCII STANDARD - VERSION 2.0
WRAP .                   NO:  One line per depth step
~Well Information Block
#MNEM.UNIT        Data Type   Information
#---------- ----------------  -----------
STRT .FT            1860.00:  START DEPTH
STOP .FT           10042.00:  STOP DEPTH
STEP .FT               0.50:  STEP
NULL .              -999.25:  NULL VALUE
COMP .                     :  COMPANY
WELL .             SA-15RD3:  WELL
FLD  .                     :  FIELD
LOC  .                     :  LOCATION
CTRY .                     :  COUNTRY
STAT .                     :  STATE
CNTY .                     :  COUNTY
SRVC .                     :  SERVICE COMPANY
DATE .                     :  DATE
API  .                     :  API NUMBER
UWI  .                     :  UNIQUE WELL ID
~Curve Information Block
#MNEM.UNIT         API CODE   Curve Description
#---------- ----------------  -----------------
DEPTH.FT                   :  DEPTH
GR   .GAPI                 :  Gamma Ray
RT   .OHMM                 :  Deep resistivity
RHOB .G/C3                 :  IFC(DEPTH>8079&DEPTH<8084,DRHO,RHOB_EDT)
NPHI .V/V                  :  Neutron porosity
~Parameter Information Block
#MNEM.UNIT            Value   Description
#---------- ----------------  -----------
PROJECT.            SERANG_FE:  
~Other Information Block
# 
~A       DEPTH             GR             RT           RHOB           NPHI 
       1860.00        40.4900         0.3200      -999.2500    -999.250000
       1860.50        40.4900         0.3200      -999.2500    -999.250000
       1861.00        40.4900         0.3200      -999.2500    -999.250000
       1861.50        38.4200         0.3200      -999.2500    -999.250000
       1862.00        38.4200         0.3300      -999.2500    -999.250000
       1862.50        38.4200         0.3300      -999.2500    -999.250000
       1863.00        38.4200         0.3300      -999.2500    -999.250000
       1863.50        41.2200         0.3000      -999.2500    -999.250000
       1864.00        41.2200         0.3000      -999.2500    -999.250000
       1864.50        41.2200         0.3000      -999.2500    -999.250000
       1865.00        39.9900         0.3000      -999.2500    -999.250000
       1865.50        39.9900         0.3400      -999.2500    -999.250000
       1866.00        39.9900         0.3400      -999.2500    -999.250000
       1866.50        39.9900         0.3400      -999.2500    -999.250000
       1867.00        38.4200         0.3300      -999.2500    -999.250000
       1867.50        38.4200         0.3300      -999.2500    -999.250000
       1868.00        38.4200         0.3300      -999.2500    -999.250000
       1868.50        36.5100         0.3300      -999.2500    -999.250000
       1869.00        36.5100         0.3900      -999.2500    -999.250000
       1869.50        36.5100         0.3900      -999.2500    -999.250000
       1870.00        36.5100         0.4317      -999.2500    -999.250000
       1870.50        36.2700         0.5371      -999.2500    -999.250000
       1871.00        36.2700         0.5902      -999.2500    -999.250000
       1871.50        35.8700         0.6418      -999.2500    -999.250000
       1872.00        35.8700         0.6934      -999.2500    -999.250000
       1872.50        38.6600         0.7000      -999.2500    -999.250000
       1873.00        37.0100         0.7100      -999.2500    -999.250000
       1873.50        37.0100         0.7100      -999.2500    -999.250000
       1874.00        38.0100         0.7100      -999.2500    -999.250000
       1874.50        38.0100         1.1200      -999.2500    -999.250000
       1875.00        38.0100         1.1200      -999.2500    -999.250000
       1875.50        39.7700         1.3200      -999.2500    -999.250000
       1876.00        39.7700         1.3200      -999.2500    -999.250000
       1876.50        37.3100         1.3200      -999.2500    -999.250000
       1877.00        37.3100         1.4300      -999.2500    -999.250000
       1877.50        37.3100         1.4300      -999.2500    -999.250000
       1878.00        33.3300         1.4300      -999.2500    -999.250000
       1878.50        33.3300         1.1800      -999.2500    -999.250000
       1879.00        33.3300         1.1800      -999.2500    -999.250000
       1879.50        33.3300         1.1800      -999.2500    -999.250000
       1880.00        33.6900         1.2400      -999.2500    -999.250000
       1880.50        33.6900         1.2400      -999.2500    -999.250000
       1881.00        33.6900         1.2400      -999.2500    -999.250000
       1881.50        32.8700         1.2400      -999.2500    -999.250000
       1882.00        32.8700         1.2000      -999.2500    -999.250000
       1882.50        32.8700         1.2000      -999.2500    -999.250000
       1883.00        32.8700         1.2000      -999.2500    -999.250000
       1883.50        32.5300         1.2000      -999.2500    -999.250000
       1884.00        32.5300         1.1200      -999.2500    -999.250000
       1884.50        32.5300         1.1200      -999.2500    -999.250000
       1885.00        32.5300         1.1200      -999.2500    -999.250000
       1885.50        31.8200         1.1800      -999.2500    -999.250000
       1886.00        31.8200         1.1800      -999.2500    -999.250000
       1886.50        31.8200         1.1800      -999.2500    -999.250000
       1887.00        31.5000         1.1800      -999.2500    -999.250000
       1887.50        31.5000         1.0600      -999.2500    -999.250000
       1888.00        48.4400         1.0700      -999.2500    -999.250000
       1888.50        48.4400         1.0800      -999.2500    -999.250000
       1889.00        46.3100         1.1000      -999.2500    -999.250000
       1889.50        46.5500         1.0700      -999.2500    -999.250000
       1890.00        49.2400         0.9500      -999.2500    -999.250000
       1890.50        51.7000         1.1600      -999.2500    -999.250000
       1891.00        52.6200         1.0900      -999.2500    -999.250000
       1891.50        56.4000         1.0800      -999.2500    -999.250000
       1892.00        58.2900         1.0500      -999.2500    -999.250000
       1892.50        57.7500         1.0700      -999.2500    -999.250000
       1893.00        64.6700         1.0200      -999.2500    -999.250000
       1893.50        57.1900         1.0100      -999.2500    -999.250000
       1894.00        48.2000         1.0900      -999.2500    -999.250000
       1894.50        51.4700         1.1400      -999.2500    -999.250000
       1895.00        52.4200         1.1000      -999.2500    -999.250000
       1895.50        48.1700         1.1000      -999.2500    -999.250000
       1896.00        46.3700         1.0400      -999.2500    -999.250000
       1896.50        53.2000         1.0100      -999.2500    -999.250000
       1897.00        58.8600         1.0000      -999.2500    -999.250000
       1897.50        52.6200         1.0200      -999.2500    -999.250000
       1898.00        54.3300         1.0100      -999.2500    -999.250000
       1898.50        63.7100         1.0200      -999.2500    -999.250000
       1899.00        64.1100         1.0300      -999.2500    -999.250000
       1899.50        57.1900         1.0600      -999.2500    -999.250000
       1900.00        55.1100         1.0300      -999.2500    -999.250000
       1900.50        52.4200         1.0100      -999.2500    -999.250000
       1901.00        55.4800         1.0400      -999.2500    -999.250000
       1901.50        51.7000         1.0100      -999.2500    -999.250000
       1902.00        52.1800         1.0300      -999.2500    -999.250000
       1902.50        51.7800         0.9600      -999.2500    -999.250000
       1903.00        52.4200         0.9500      -999.2500    -999.250000
       1903.50        51.7000         0.9600      -999.2500    -999.250000
       1904.00        52.8700         0.9700      -999.2500    -999.250000
       1904.50        54.8900         0.9600      -999.2500    -999.250000
       1905.00        51.5100         0.9700      -999.2500    -999.250000
       1905.50        52.1800         0.9400      -999.2500    -999.250000
       1906.00        54.8100         0.9300      -999.2500    -999.250000
       1906.50        58.3100         0.9100      -999.2500    -999.250000
       1907.00        55.9200         0.9000      -999.2500    -999.250000
       1907.50        55.8900         0.9000      -999.2500    -999.250000
       1908.00        57.7500         0.9000      -999.2500    -999.250000
       1908.50        62.5900         0.8900      -999.2500    -999.250000
       1909.00        67.2900         0.8700      -999.2500    -999.250000
       1909.50        75.7500         0.8500      -999.2500    -999.250000
       1910.00        78.9900         0.8400      -999.2500    -999.250000
       1910.50        71.7700         0.8300      -999.2500    -999.250000
       1911.00        66.2600         0.8000      -999.2500    -999.250000
       1911.50        64.9100         0.8000      -999.2500    -999.250000
       1912.00        66.2600         0.8200      -999.2500    -999.250000
       1912.50        64.9100         0.8300      -999.2500    -999.250000
       1913.00        67.3100         0.8300      -999.2500    -999.250000
