~Version Information Block
VERS .                  2.0:  CWLS LOG ASCII STANDARD - VERSION 2.0
WRAP .                   NO:  One line per depth step
~Well Information Block
#MNEM.UNIT        Data Type   Information
#---------- ----------------  -----------
STRT .FT            3123.00:  START DEPTH
STOP .FT           14590.00:  STOP DEPTH
STEP .FT               0.50:  STEP
NULL .              -999.25:  NULL VALUE
COMP .                     :  COMPANY
WELL .                SA-10:  WELL
FLD  .                     :  FIELD
LOC  .                     :  LOCATION
CTRY .                     :  COUNTRY
STAT .                     :  STATE
CNTY .                     :  COUNTY
SRVC .                     :  SERVICE COMPANY
DATE .                     :  DATE
API  .                     :  API NUMBER
UWI  .                     :  UNIQUE WELL ID
~Curve Information Block
#MNEM.UNIT         API CODE   Curve Description
#---------- ----------------  -----------------
DEPTH.FT                   :  DEPTH
GR   .GAPI                 :  Gamma Ray
RT   .OHMM                 :  Deep resistivity
RHOB .G/C3                 :  Bulk density
NPHI .V/V                  :  Neutron porosity
DT   .US/F                 :  Sonic
~Parameter Information Block
#MNEM.UNIT            Value   Description
#---------- ----------------  -----------
PROJECT.            SERANG_FE:  
~Other Information Block
# 
~A       DEPTH             GR             RT           RHOB           NPHI             DT 
# ...
       4636.00        76.1900         1.7300         2.2700       0.390000       129.5500
       4636.50        76.1700         1.7100         2.2700       0.370000       130.0333
       4637.00        77.2300         1.7000         2.2700       0.390000       129.9167
       4637.50        74.9100         1.6700         2.2700       0.390000       129.6167
       4638.00        71.3900         1.7100         2.2700       0.410000       129.4500
       4638.50        71.1200         1.7300         2.2600       0.410000       129.5000
       4639.00        71.4200         1.6900         2.2600       0.400000       129.7000
       4639.50        75.0900         1.7000         2.2600       0.390000       129.5500
       4640.00        75.9800         1.7000         2.2600       0.370000       129.0000
       4640.50        75.7600         1.7000         2.2700       0.360000       129.5500
       4641.00        75.5300         1.7200         2.2700       0.370000       129.0000
       4641.50        74.4800         1.7200         2.2700       0.370000       129.3500
       4642.00        74.5500         1.6900         2.2600       0.390000       129.5667
       4642.50        72.9500         1.7200         2.2600       0.390000       129.5167
       4643.00        73.4300         1.7100         2.2700       0.400000       129.6500
       4643.50        76.3100         1.7300         2.2700       0.390000       129.4500
       4644.00        78.5800         1.6800         2.2700       0.380000       129.7000
       4644.50        78.3200         1.7000         2.2700       0.360000       129.8500
       4645.00        77.1900         1.6900         2.2700       0.380000       129.9500
       4645.50        73.7200         1.7000         2.2700       0.400000       130.0667
       4646.00        74.5700         1.6800         2.2700       0.410000       130.0334
       4646.50        75.2200         1.7200         2.2700       0.400000       129.9667
       4647.00        76.1400         1.6700         2.2700       0.390000       129.4500
       4647.50        76.7700         1.7100         2.2700       0.380000       129.6000
       4648.00        73.6500         1.7100         2.2700       0.380000       129.6333
       4648.50        74.2500         1.6800         2.2700       0.390000       129.5000
       4649.00        73.3000         1.6700         2.2700       0.410000       129.3000
       4649.50        75.1800         1.7000         2.2700       0.400000       129.3167
       4650.00        76.4800         1.6900         2.2700       0.410000       128.6667
       4650.50        77.7200         1.7200         2.2800       0.410000       128.7500
       4651.00        75.7600         1.7000         2.2800       0.400000       128.7000
       4651.50        74.1400         1.7600         2.2800       0.380000       128.5667
       4652.00        69.8000         1.6700         2.2800       0.380000       128.5833
       4652.50        69.4100         1.6800         2.2700       0.380000       128.7833
       4653.00        67.7100         1.7200         2.2700       0.400000       129.1333
       4653.50        71.3000         1.5900         2.2600       0.400000       129.2500
       4654.00        68.5900         1.8300         2.2600       0.420000       129.4833
       4654.50        71.0500         1.6400         2.2600       0.410000       129.8000
       4655.00        67.7600         1.6400         2.2700       0.420000       129.6333
       4655.50        73.5800         1.6800         2.2700       0.430000       129.5500
       4656.00        71.1100         1.6800         2.2700       0.420000       129.5000
       4656.50        73.4200         1.6700         2.2700       0.400000       129.1500
       4657.00        70.8400         1.7100         2.2600       0.400000       128.7500
       4657.50        68.4000         1.7000         2.2600       0.420000       128.3500
       4658.00        66.9800         1.6900         2.2700       0.410000       128.1833
       4658.50        67.1200         1.6500         2.2800       0.380000       128.1000
       4659.00        73.7500         1.7000         2.2800       0.370000       128.2167
       4659.50        73.7600         1.6800         2.2700       0.390000       128.7000
       4660.00        71.7200         1.6200         2.2700       0.400000       128.9667
       4660.50        69.6500         1.7100         2.2600       0.400000       129.1500
       4661.00        70.8300         1.6700         2.2500       0.390000       129.4500
       4661.50        73.3600         1.6200         2.2500       0.390000       129.7500
       4662.00        74.1300         1.6400         2.2500       0.380000       129.7000
       4662.50        74.3200         1.6300         2.2500       0.380000       129.9500
       4663.00        74.9600         1.7200         2.2600       0.380000       129.3833
       4663.50        71.6800         1.6500         2.2600       0.390000       129.1000
       4664.00        71.2000         1.6400         2.2600       0.400000       128.8333
       4664.50        72.0600         1.5900         2.2500       0.410000       129.5167
       4665.00        74.9200         1.6800         2.2500       0.400000       130.3000
       4665.50        75.7100         1.6800         2.2500       0.390000       129.8500
       4666.00        74.4300         1.6900         2.2500       0.400000       129.6500
       4666.50        73.0100         1.6600         2.2600       0.380000       128.5000
       4667.00        76.3800         1.6600         2.2700       0.390000       128.9500
       4667.50        75.2500         1.6100         2.2700       0.360000       128.9833
       4668.00        76.4700         1.6500         2.2600       0.370000       129.9000
       4668.50        74.6400         1.6500         2.2500       0.370000       130.1000
       4669.00        75.5500         1.6500         2.2500       0.390000       130.6500
       4669.50        73.6000         1.6500         2.2500       0.390000       130.2833
       4670.00        73.0300         1.6700         2.2500       0.400000       130.3667
       4670.50        72.8800         1.6500         2.2500       0.410000       130.0000
       4671.00        74.1700         1.6300         2.2500       0.420000       130.4333
       4671.50        70.8000         1.6200         2.2600       0.430000       130.5000
       4672.00        72.5700         1.6700         2.2700       0.440000       131.0000
       4672.50        70.8400         1.6200         2.2700       0.430000       131.1000
       4673.00        74.3600         1.7100         2.2700       0.400000       130.9833
       4673.50        73.3700         1.6500         2.2600       0.380000       131.3000
       4674.00        72.3900         1.6200         2.2700       0.380000       131.4500
       4674.50        71.4600         1.6000         2.2600       0.410000       131.9000
       4675.00        70.7700         1.6500         2.2500       0.430000       131.7166
       4675.50        72.5300         1.6500         2.2500       0.420000       131.8000
       4676.00        72.5300         1.6900         2.2600       0.420000       131.8000
       4676.50        73.5300         1.6500         2.2600       0.400000       131.4500
       4677.00        75.7100         1.6600         2.2500       0.410000       131.7000
       4677.50        75.7200         1.6100         2.2600       0.410000       131.7000
       4678.00        73.8100         1.6000         2.2600       0.430000       132.1167
       4678.50        73.6000         1.5700         2.2600       0.420000       132.2167
       4679.00        75.5800         1.4300         2.2600       0.420000       132.8333
       4679.50        77.7600         1.5800         2.2500       0.390000       132.3000
       4680.00        77.9000         1.6600         2.2500       0.380000       132.1166
