~Version Information Block
VERS .                  2.0:  CWLS LOG ASCII STANDARD - VERSION 2.0
WRAP .                   NO:  One line per depth step
~Well Information Block
#MNEM.UNIT        Data Type   Information
#---------- ----------------  -----------
STRT .FT        8000.328084:  START DEPTH
STOP .FT       11551.837384:  STOP DEPTH
STEP .FT           1.640420:  STEP
NULL .              -999.25:  NULL VALUE
COMP .                     :  COMPANY
WELL .           SA-15RD1ST:  WELL
FLD  .                     :  FIELD
LOC  .                     :  LOCATION
CTRY .                     :  COUNTRY
STAT .                     :  STATE
CNTY .                     :  COUNTY
SRVC .                     :  SERVICE COMPANY
DATE .                     :  DATE
API  .                     :  API NUMBER
UWI  .                     :  UNIQUE WELL ID
~Curve Information Block
#MNEM.UNIT         API CODE   Curve Description
#---------- ----------------  -----------------
DEPTH.FT                   :  
GR   .GAPI                 :  Merged WIRE with WIRE_ST at 9000.00 F
RT   .OHMM                 :  Merged WIRE with WIRE_ST at 9000.00 F
RHOB .G/C3                 :  Merged WIRE with WIRE_ST at 9000.00 F
NPHI .V/V                  :  Merged WIRE with WIRE_ST at 9000.00 F
~Parameter Information Block
#MNEM.UNIT            Value   Description
#---------- ----------------  -----------
PROJECT.            SERANG_FE:  
~Other Information Block
# 
~A       DEPTH             GR             RT           RHOB           NPHI 
# ...
   9755.577428        77.9925         1.5618         2.4057        0.45263
   9757.217848        78.7450         1.5540         2.3898        0.45422
   9758.858268        80.1697         1.5360         2.3980        0.42392
   9760.498688        82.3860         1.5490         2.4190        0.39291
   9762.139108        85.6152         1.5510         2.3939        0.42614
   9763.779528        79.1074         1.5430         2.3977        0.43508
   9765.419948        72.5568         1.5640         2.4161        0.41915
   9767.060367        76.6113         1.5132         2.4038        0.40844
   9768.700787        82.5928         1.5590         2.3964        0.41842
   9770.341207        85.4736         1.5230         2.4139        0.43299
   9771.981627        82.2927         1.4773         2.4092        0.46638
   9773.622047        82.8739         1.4590         2.3945        0.45321
   9775.262467        79.8361         1.4399         2.4042        0.46669
   9776.902887        78.9643         1.3525         2.4173        0.46965
   9778.543307        84.3720         1.2690         2.4392        0.44791
   9780.183727        93.0353         1.1900         2.4402        0.47587
   9781.824147        86.1340         1.2030         2.4280        0.51113
   9783.464567        77.3478         1.3716         2.4262        0.45702
   9785.104987        68.2159         2.1490         2.3916        0.38976
   9786.745407        56.2764         2.2802         2.3301        0.28924
   9788.385827        53.8612         2.1580         2.2628        0.25971
   9790.026247        58.0255         2.0089         2.2985        0.28658
   9791.666667        62.8940         1.8397         2.3240        0.31712
   9793.307087        62.2443         1.7677         2.3232        0.33382
   9794.947507        57.5502         1.7912         2.3111        0.30244
   9796.587927        56.7372         1.7880         2.3066        0.27476
   9798.228346        63.9427         1.8370         2.3237        0.27350
   9799.868766        71.8470         1.6494         2.3786        0.29992
   9801.509186        89.7515         1.2520         2.4157        0.37652
   9803.149606       107.9264         1.1190         2.3639        0.46217
   9804.790026       110.6049         1.0125         2.3428        0.50946
   9806.430446        99.6416         1.0139         2.3750        0.47013
   9808.070866        92.1869         1.1000         2.4384        0.46833
   9809.711286        95.2789         1.2830         2.3677        0.46603
   9811.351706        99.9947         1.1061         2.3648        0.43389
   9812.992126       100.1634         1.1074         2.3720        0.49106
   9814.632546        90.1964         1.4670         2.2524        0.53628
   9816.272966        64.7235         1.7600         2.1862        0.42315
   9817.913386        32.8996         1.2790         2.0875        0.29367
   9819.553806        28.4611         1.2058         2.1051        0.27857
   9821.194226        37.2074         1.3930         2.1874        0.29359
   9822.834646        27.1920         1.0660         2.1564        0.29413
   9824.475066        19.6839         1.0576         2.0792        0.26962
   9826.115486        17.6306         0.9830         2.0742        0.26688
   9827.755906        17.6172         0.9705         2.0810        0.26542
   9829.396325        18.0784         0.9491         2.0578        0.25974
   9831.036745        21.0321         0.9480         2.0516        0.26151
   9832.677165        22.3313         0.9530         2.0697        0.27499
   9834.317585        22.2475         0.9686         2.0760        0.26934
   9835.958005        25.1190         0.9664         2.0752        0.26853
   9837.598425        43.4177         1.3121         2.1742        0.29557
   9839.238845        61.2974         1.6380         2.3436        0.37374
   9840.879265        70.6530         1.7940         2.3866        0.34690
   9842.519685        75.7728         1.7350         2.3914        0.45507
   9844.160105        73.0436         1.6887         2.4123        0.40713
   9845.800525        64.6089         1.7972         2.4076        0.36942
   9847.440945        69.3746         1.7560         2.4030        0.38781
   9849.081365        77.5727         1.6255         2.4118        0.41036
   9850.721785        81.5319         1.5869         2.3996        0.41670
   9852.362205        78.4305         1.5060         2.3967        0.41549
   9854.002625        82.2063         1.4948         2.4100        0.42605
   9855.643045        83.5512         1.4649         2.4109        0.43403
   9857.283465        81.8036         1.4545         2.4010        0.43356
   9858.923885        77.2472         1.5349         2.4047        0.41605
   9860.564304        75.5760         1.5590         2.4011        0.38267
   9862.204724        79.2040         1.5975         2.3945        0.42631
   9863.845144        79.2419         1.6350         2.3730        0.40891
   9865.485564        77.8383         1.5540         2.3867        0.40688
   9867.125984        74.6915         1.4875         2.4038        0.41307
   9868.766404        72.1025         1.4791         2.4048        0.40065
   9870.406824        74.4807         1.4826         2.4054        0.42157
   9872.047244        76.1526         1.4805         2.3838        0.50334
   9873.687664        77.3451         1.4700         2.4188        0.43999
   9875.328084        76.1952         1.4132         2.4361        0.43606
   9876.968504        78.0730         1.3499         2.3950        0.43228
   9878.608924        82.2955         1.2652         2.3860        0.46770
   9880.249344        84.8464         1.2905         2.3865        0.46642
   9881.889764        87.9366         1.2280         2.3821        0.46843
   9883.530184        85.6502         1.1920         2.3927        0.49127
   9885.170604        87.1520         1.2620         2.3990        0.41026
   9886.811024        83.5429         1.1580         2.3902        0.42448
   9888.451444        81.8612         1.0780         2.3789        0.38560
   9890.091864        68.4980         2.9530         2.3626        0.29162
   9891.732283        50.6544         5.4750         2.4243        0.18272
   9893.372703        46.0232         4.5870         2.4533        0.18885
   9895.013123        59.6068         4.3961         2.4544        0.26508
   9896.653543        82.2180         2.0520         2.4246        0.33856
   9898.293963        97.4216         1.0867         2.3758        0.48277
   9899.934383        95.1884         1.0830         2.3838        0.46414
   9901.574803        84.8168         0.7840         2.4013        0.42484
   9903.215223        82.4073         1.0278         2.3943        0.40657
   9904.855643        78.0174         1.1940         2.3848        0.40378
   9906.496063        75.6729         1.2950         2.3491        0.33755
   9908.136483        64.9172         2.1374         2.2249        0.23075
   9909.776903        60.4658         2.0844         2.2848        0.21649
   9911.417323        66.4017         1.7442         2.3218        0.27867
   9913.057743        73.4780         1.3510         2.3878        0.32247
   9914.698163        79.8342         1.1962         2.3834        0.35143
   9916.338583        80.1120         1.1989         2.3643        0.36410
   9917.979003        77.1770         1.2037         2.3745        0.37639
   9919.619423        77.1833         1.1577         2.3917        0.37202
   9921.259843        76.2063         1.0911         2.4099        0.37247
   9922.900262        73.9419         1.4810         2.3966        0.36978
   9924.540682        62.5023         2.3895         2.4115        0.35556
   9926.181102        53.6926         2.4851         2.4802        0.30853
   9927.821522        49.1068         3.8041         2.4079        0.29468
   9929.461942        47.0762         4.7787         2.3495        0.28592
