~Version Information Block
VERS .                  2.0:  CWLS LOG ASCII STANDARD - VERSION 2.0
WRAP .                   NO:  One line per depth step
~Well Information Block
#MNEM.UNIT        Data Type   Information
#---------- ----------------  -----------
STRT .FT            3123.00:  START DEPTH
STOP .FT           14590.00:  STOP DEPTH
STEP .FT               0.50:  STEP
NULL .              -999.25:  NULL VALUE
COMP .                     :  COMPANY
WELL .                SA-10:  WELL
FLD  .                     :  FIELD
LOC  .                     :  LOCATION
CTRY .                     :  COUNTRY
STAT .                     :  STATE
CNTY .                     :  COUNTY
SRVC .                     :  SERVICE COMPANY
DATE .                     :  DATE
API  .                     :  API NUMBER
UWI  .                     :  UNIQUE WELL ID
~Curve Information Block
#MNEM.UNIT         API CODE   Curve Description
#---------- ----------------  -----------------
DEPTH.FT                   :  DEPTH
GR   .GAPI                 :  Gamma Ray
RT   .OHMM                 :  Deep resistivity
RHOB .G/C3                 :  Bulk density
NPHI .V/V                  :  Neutron porosity
DT   .US/F                 :  Sonic
~Parameter Information Block
#MNEM.UNIT            Value   Description
#---------- ----------------  -----------
PROJECT.            SERANG_FE:  
~Other Information Block
# 
~A       DEPTH             GR             RT           RHOB           NPHI             DT 
# ...
      11489.00        91.6600         1.5600         2.4900       0.320000        97.6833
      11489.50        93.4600         1.3200         2.4900       0.330000        98.3833
      11490.00        90.8200         1.3000         2.4800       0.340000       100.3333
      11490.50        90.1500         1.3500         2.4700       0.360000       101.8000
      11491.00        85.7700         1.2900         2.4700       0.360000       102.7000
      11491.50        89.7100         1.3300         2.4700       0.360000       103.0000
      11492.00        91.7800         1.2700         2.4800       0.360000       103.0167
      11492.50        95.8700         1.2200         2.4800       0.360000       103.0333
      11493.00        97.8400         1.2900         2.4800       0.370000       103.5333
      11493.50        98.9300         1.3100         2.4800       0.380000       104.2500
      11494.00       100.4400         1.2100         2.4800       0.370000       105.0167
      11494.50        98.2300         1.2700         2.4800       0.380000       104.8000
      11495.00        98.2500         1.2700         2.4800       0.370000       104.2167
      11495.50        98.1600         1.3100         2.4800       0.370000       102.5833
      11496.00        94.9100         1.3700         2.4700       0.340000        95.2833
      11496.50        88.4900         1.5700         2.4700       0.310000        90.6833
      11497.00        79.0300         1.9300         2.4800       0.270000        89.6500
      11497.50        71.0100         2.2300         2.4900       0.250000        87.7333
      11498.00        67.6900         2.0200         2.4800       0.250000        88.6667
      11498.50        68.0000         1.8600         2.4600       0.260000        90.3167
      11499.00        72.2700         1.8100         2.4600       0.270000        91.4667
      11499.50        72.7700         1.8500         2.4600       0.270000        91.6000
      11500.00        77.9200         1.8800         2.4700       0.270000        91.9333
      11500.50        81.6200         1.8800         2.4700       0.280000        92.4833
      11501.00        86.8900         1.8600         2.4800       0.300000        94.4333
      11501.50        88.1300         1.7600         2.4800       0.310000        95.6833
      11502.00        89.4300         1.6800         2.4800       0.330000        96.7667
      11502.50        89.4900         1.7300         2.4800       0.330000        96.3000
      11503.00        85.5700         1.8400         2.4800       0.320000        95.0500
      11503.50        81.0500         2.0300         2.4900       0.290000        92.7500
      11504.00        79.2400         2.1400         2.4800       0.270000        91.1500
      11504.50        81.0300         2.0300         2.4900       0.270000        90.8333
      11505.00        83.2800         1.9700         2.4800       0.270000        91.2167
      11505.50        82.9500         1.9700         2.4800       0.270000        92.2167
      11506.00        82.7600         2.0200         2.4800       0.280000        92.8500
      11506.50        84.9800         1.9300         2.4900       0.280000        93.2667
      11507.00        87.4900         1.9600         2.4900       0.290000        93.1500
      11507.50        88.4000         2.0300         2.4900       0.280000        92.5000
      11508.00        88.5900         2.1200         2.4900       0.280000        91.8167
      11508.50        88.2800         2.0400         2.4900       0.270000        91.0500
      11509.00        87.3100         2.0500         2.5000       0.270000        90.7833
      11509.50        88.0400         2.0900         2.5000       0.260000        90.5667
      11510.00        86.2800         2.0500         2.5000       0.260000        90.5667
      11510.50        86.5200         2.1100         2.5000       0.250000        90.1167
      11511.00        82.0700         2.0900         2.5000       0.250000        90.1000
      11511.50        77.6400         2.0800         2.5000       0.250000        90.1500
      11512.00        76.6700         2.1000         2.5000       0.250000        89.6167
      11512.50        78.1200         2.1000         2.5000       0.240000        89.6167
      11513.00        84.6700         2.1500         2.5100       0.250000        89.7667
      11513.50        85.9200         2.1200         2.5100       0.260000        90.1667
      11514.00        87.6800         2.0400         2.5000       0.280000        90.9167
      11514.50        86.1600         2.0300         2.5000       0.280000        91.3333
      11515.00        84.3700         2.0500         2.4900       0.280000        91.3833
      11515.50        83.2800         2.1400         2.5000       0.270000        91.1000
      11516.00        83.8200         2.0800         2.5000       0.290000        91.6333
      11516.50        87.5800         2.0700         2.5100       0.310000        91.9667
      11517.00        88.1600         2.0100         2.5000       0.310000        92.3333
      11517.50        84.3600         2.0100         2.5000       0.300000        92.4500
      11518.00        81.7200         2.0200         2.4900       0.290000        92.5167
      11518.50        79.4700         1.9700         2.5000       0.280000        92.4833
      11519.00        82.7300         2.0400         2.4900       0.280000        93.1167
      11519.50        79.1900         2.0000         2.4900       0.290000        93.2333
      11520.00        76.8500         1.9500         2.4800       0.290000        93.3000
      11520.50        76.0900         2.0000         2.4900       0.300000        93.5500
      11521.00        79.6600         2.0100         2.4800       0.300000        94.0500
      11521.50        82.6600         1.9800         2.4800       0.310000        94.2000
      11522.00        83.6000         1.9400         2.4900       0.310000        94.6833
      11522.50        82.3600         1.9100         2.4900       0.310000        94.7833
      11523.00        83.8200         1.9200         2.4900       0.310000        94.8833
      11523.50        82.7600         1.9600         2.4900       0.310000        95.0500
      11524.00        87.4200         1.8800         2.5000       0.310000        95.0833
      11524.50        87.6700         1.8900         2.5000       0.300000        94.8667
      11525.00        88.0600         1.8400         2.4900       0.290000        94.4500
      11525.50        84.2500         1.8500         2.4900       0.290000        94.3167
      11526.00        82.6700         1.8400         2.4800       0.290000        94.0500
      11526.50        84.0300         1.8500         2.4800       0.290000        94.0167
      11527.00        81.4600         1.8900         2.4800       0.300000        93.7833
      11527.50        81.9400         1.9000         2.4800       0.310000        94.2667
      11528.00        79.6100         1.8900         2.4900       0.320000        94.8333
      11528.50        84.8200         1.9800         2.4900       0.310000        94.4333
      11529.00        85.5200         1.8600         2.4800       0.300000        94.1333
      11529.50        84.3100         1.8800         2.4800       0.290000        94.1333
      11530.00        82.8500         1.9300         2.4900       0.290000        94.2333
      11530.50        84.3700         1.8500         2.4900       0.300000        94.9333
      11531.00        89.4900         1.9400         2.4900       0.300000        95.4833
      11531.50        89.4200         1.9300         2.4800       0.300000        95.5166
      11532.00        86.6900         1.9100         2.4800       0.320000        95.4000
      11532.50        83.7800         1.7700         2.4900       0.310000        95.5000
      11533.00        84.8900         1.8300         2.4900       0.310000        95.6500
