~Version Information Block
VERS .                  2.0:  CWLS LOG ASCII STANDARD - VERSION 2.0
WRAP .                   NO:  One line per depth step
~Well Information Block
#MNEM.UNIT        Data Type   Information
#---------- ----------------  -----------
STRT .FT            3123.00:  START DEPTH
STOP .FT           14590.00:  STOP DEPTH
STEP .FT               0.50:  STEP
NULL .              -999.25:  NULL VALUE
COMP .                     :  COMPANY
WELL .                SA-10:  WELL
FLD  .                     :  FIELD
LOC  .                     :  LOCATION
CTRY .                     :  COUNTRY
STAT .                     :  STATE
CNTY .                     :  COUNTY
SRVC .                     :  SERVICE COMPANY
DATE .                     :  DATE
API  .                     :  API NUMBER
UWI  .                     :  UNIQUE WELL ID
~Curve Information Block
#MNEM.UNIT         API CODE   Curve Description
#---------- ----------------  -----------------
DEPTH.FT                   :  DEPTH
GR   .GAPI                 :  Gamma Ray
RT   .OHMM                 :  Deep resistivity
RHOB .G/C3                 :  Bulk density
NPHI .V/V                  :  Neutron porosity
DT   .US/F                 :  Sonic
~Parameter Information Block
#MNEM.UNIT            Value   Description
#---------- ----------------  -----------
PROJECT.            SERANG_FE:  
~Other Information Block
# 
~A       DEPTH             GR             RT           RHOB           NPHI             DT 
# ...
       9219.50        73.6100         2.4000         2.4100       0.280000       101.0500
       9220.00        66.9500         2.3800         2.4100       0.270000       101.6333
       9220.50        64.6600         2.2000         2.4100       0.270000       100.7667
       9221.00        66.1600         2.2400         2.4100       0.260000       100.4000
       9221.50        67.3000         2.1700         2.4200       0.260000       100.7500
       9222.00        67.2800         2.1300         2.4300       0.260000       101.3167
       9222.50        65.6900         2.2000         2.4300       0.260000       101.3833
       9223.00        67.9000         2.1800         2.4300       0.260000       100.5167
       9223.50        72.2300         2.1000         2.4400       0.260000        99.4167
       9224.00        78.1200         2.1700         2.4500       0.270000        98.8167
       9224.50        80.8800         2.1600         2.4500       0.270000        98.7333
       9225.00        82.2400         2.0800         2.4500       0.300000        99.8333
       9225.50        84.3300         1.8900         2.4500       0.320000       100.6500
       9226.00        85.6700         2.0200         2.4400       0.330000       101.1000
       9226.50        88.0300         2.0900         2.4400       0.320000       100.8000
       9227.00        83.9100         2.0700         2.4500       0.310000        99.8500
       9227.50        80.8900         2.1400         2.4400       0.290000        99.6333
       9228.00        74.2600         2.2500         2.4200       0.270000        99.2500
       9228.50        71.6800         2.2700         2.4100       0.250000        98.5833
       9229.00        70.6900         2.2500         2.4200       0.240000        97.4500
       9229.50        70.0300         2.2600         2.4300       0.240000        96.7500
       9230.00        70.0900         2.1600         2.4300       0.240000        97.0000
       9230.50        69.0400         2.2600         2.4300       0.240000        96.6667
       9231.00        70.9100         2.2100         2.4300       0.240000        96.5333
       9231.50        72.8200         2.1700         2.4400       0.240000        96.2333
       9232.00        76.4000         2.0700         2.4500       0.250000        95.2500
       9232.50        76.2700         2.1200         2.4600       0.240000        95.2167
       9233.00        80.3600         2.1200         2.4700       0.260000        95.1833
       9233.50        83.6400         2.2200         2.4700       0.250000        95.3000
       9234.00        87.3800         2.2500         2.4700       0.260000        95.6000
       9234.50        85.4000         2.1500         2.4500       0.270000        96.6500
       9235.00        87.4500         2.1600         2.4600       0.290000        97.8167
       9235.50        85.5500         2.0000         2.4600       0.300000        98.5833
       9236.00        87.6100         1.8400         2.4700       0.290000        98.9667
       9236.50        87.3300         1.7900         2.4700       0.280000        99.0500
       9237.00        94.9000         1.9000         2.4700       0.290000       100.9500
       9237.50       103.9000         2.3800         2.4500       0.340000       102.8333
       9238.00       113.0000         2.9800         2.4200       0.390000       104.4000
       9238.50       119.1000         2.2700         2.3900       0.420000       107.9500
       9239.00       126.0500         1.6600         2.3700       0.400000       111.9500
       9239.50       135.7200         1.9200         2.3600       0.390000       114.0333
       9240.00       151.8000         1.9100         2.3700       0.400000       114.5500
       9240.50       166.8600         1.4000         2.3500       0.450000       116.8167
       9241.00       177.6700         1.3100         2.2600       0.480000       120.3000
       9241.50       180.3300         1.8800         2.1500       0.470000       122.5333
       9242.00       171.3200         3.9300         2.1300       0.420000       121.0500
       9242.50       157.2300         5.5900         2.2100       0.380000       115.1000
       9243.00       139.7000         2.9500         2.3400       0.360000       110.4500
       9243.50       127.1500         1.8400         2.4100       0.360000       108.0333
       9244.00       118.6800         1.5600         2.4200       0.360000       105.5500
       9244.50       113.0700         1.9900         2.4100       0.370000       107.0000
       9245.00       109.5700         2.1600         2.3900       0.370000       107.6000
       9245.50       106.0800         2.0300         2.3800       0.380000       108.4333
       9246.00       102.8300         1.7700         2.3800       0.360000       109.6000
       9246.50       101.1700         1.6600         2.4100       0.350000       107.8333
       9247.00        95.0900         1.7700         2.4200       0.330000       105.3667
       9247.50        91.4700         2.1900         2.4500       0.310000       103.8000
       9248.00        84.3500         2.1400         2.4700       0.290000       101.8333
       9248.50        81.3800         1.6500         2.5000       0.270000        99.4000
       9249.00        78.0200         1.5800         2.5000       0.270000        96.9500
       9249.50        74.5300         1.5300         2.4900       0.270000        96.7000
       9250.00        73.8900         1.4900         2.4800       0.280000        96.6500
       9250.50        72.1100         1.5700         2.4700       0.280000        96.7667
       9251.00        73.0600         1.6400         2.4600       0.290000        96.6667
       9251.50        70.9000         1.5900         2.4500       0.270000        97.0000
       9252.00        72.4400         1.4800         2.4400       0.270000        96.7000
       9252.50        72.2500         1.4700         2.4300       0.260000        97.0667
       9253.00        73.0500         1.5200         2.4100       0.280000        97.0333
       9253.50        71.5900         1.4100         2.3500       0.280000        96.8667
       9254.00        65.1800         1.3300         2.3000       0.280000       101.1167
       9254.50        58.0400         1.3200         2.2400       0.280000       104.1167
       9255.00        47.7900         1.4000         2.2100       0.310000       107.3500
       9255.50        39.9100         1.2600         2.1700       0.310000       110.2833
       9256.00        30.3800         1.2200         2.1400       0.310000       110.5667
       9256.50        23.4700         1.0900         2.1200       0.290000       111.8000
       9257.00        19.9800         1.0200         2.1300       0.280000       112.2000
       9257.50        18.3300         1.0500         2.1400       0.280000       111.6667
       9258.00        16.9700         1.1600         2.1500       0.270000       110.6333
       9258.50        15.8400         1.0600         2.1600       0.270000       109.2333
       9259.00        15.9000         0.8100         2.1500       0.270000       109.4500
       9259.50        16.0800         0.9300         2.1300       0.280000       110.2167
       9260.00        16.6500         1.0000         2.1300       0.280000       110.0500
       9260.50        16.5000         1.0300         2.1300       0.290000       111.0167
       9261.00        16.5700         0.8200         2.1200       0.290000       112.0000
       9261.50        15.7500         0.8000         2.1000       0.290000       111.8000
       9262.00        15.0700         0.7300         2.0900       0.300000       112.5166
       9262.50        15.3200         0.8700         2.0900       0.290000       111.3333
       9263.00        16.4700         0.8100         2.1000       0.280000       111.7500
       9263.50        17.4200         0.6700         2.1100       0.260000       109.6833
