~Version Information Block
VERS .                  2.0:  CWLS LOG ASCII STANDARD - VERSION 2.0
WRAP .                   NO:  One line per depth step
~Well Information Block
#MNEM.UNIT        Data Type   Information
#---------- ----------------  -----------
STRT .FT            1860.00:  START DEPTH
STOP .FT           10042.00:  STOP DEPTH
STEP .FT               0.50:  STEP
NULL .              -999.25:  NULL VALUE
COMP .                     :  COMPANY
WELL .             SA-15RD3:  WELL
FLD  .                     :  FIELD
LOC  .                     :  LOCATION
CTRY .                     :  COUNTRY
STAT .                     :  STATE
CNTY .                     :  COUNTY
SRVC .                     :  SERVICE COMPANY
DATE .                     :  DATE
API  .                     :  API NUMBER
UWI  .                     :  UNIQUE WELL ID
~Curve Information Block
#MNEM.UNIT         API CODE   Curve Description
#---------- ----------------  -----------------
DEPTH.FT                   :  DEPTH
GR   .GAPI                 :  Gamma Ray
RT   .OHMM                 :  Deep resistivity
RHOB .G/C3                 :  IFC(DEPTH>8079&DEPTH<8084,DRHO,RHOB_EDT)
NPHI .V/V                  :  Neutron porosity
~Parameter Information Block
#MNEM.UNIT            Value   Description
#---------- ----------------  -----------
PROJECT.            SERANG_FE:  
~Other Information Block
# 
~A       DEPTH             GR             RT           RHOB           NPHI 
# ...
       8280.00        39.2845         4.7594         2.2473       0.240000
       8280.50        42.3915         4.8091         2.2665       0.240000
       8281.00        44.5053         4.7629         2.2660       0.240000
       8281.50        45.1282         4.7916         2.2437       0.240000
       8282.00        45.4858         4.8936         2.2289       0.240000
       8282.50        46.3302         4.6172         2.2441       0.239700
       8283.00        47.3987         4.1669         2.2687       0.233600
       8283.50        48.2510         4.0880         2.2973       0.230000
       8284.00        51.9379         3.9212         2.3377       0.230800
       8284.50        59.6780         3.6636         2.3971       0.246300
       8285.00        70.2474         3.5046         2.4618       0.250500
       8285.50        79.0548         3.3968         2.5040       0.258800
       8286.00        81.3142         3.3059         2.5201       0.250100
       8286.50        83.4356         3.1857         2.5224       0.250000
       8287.00        83.5411         3.0951         2.5300       0.248300
       8287.50        86.7007         3.0131         2.5297       0.240100
       8288.00        87.6588         2.8629         2.5217       0.242800
       8288.50        86.0213         2.8391         2.4966       0.246400
       8289.00        81.3532         2.8946         2.4763       0.235500
       8289.50        73.9819         2.9895         2.4664       0.220700
       8290.00        69.1657         3.1209         2.4615       0.209700
       8290.50        66.8541         3.2051         2.4608       0.204600
       8291.00        67.5128         3.2508         2.4672       0.205800
       8291.50        68.6831         3.2579         2.4906       0.210600
       8292.00        70.1582         3.2301         2.5258       0.221300
       8292.50        73.7625         3.2273         2.5495       0.224800
       8293.00        76.4412         3.1786         2.5544       0.231300
       8293.50        79.7665         3.1211         2.5450       0.234200
       8294.00        79.6687         3.0807         2.5302       0.229700
       8294.50        82.2677         3.0414         2.5187       0.224500
       8295.00        85.6067         3.0031         2.5154       0.225800
       8295.50        89.8337         2.9824         2.5222       0.230300
       8296.00        91.4001         2.9791         2.5389       0.235100
       8296.50        90.0636         2.9621         2.5318       0.235300
       8297.00        87.8464         2.9434         2.4922       0.229800
       8297.50        84.4732         2.9426         2.4489       0.226800
       8298.00        81.5502         2.9904         2.4466       0.219900
       8298.50        81.4751         3.0494         2.4628       0.218300
       8299.00        83.2343         3.1108         2.5461       0.210000
       8299.50        84.1622         3.2148         2.5769       0.210000
       8300.00        79.9496         3.3411         2.5706       0.210000
       8300.50        73.7396         3.4913         2.5367       0.209600
       8301.00        67.8600         3.6683         2.4817       0.202200
       8301.50        64.8157         3.8297         2.4256       0.193700
       8302.00        64.6562         3.8892         2.4171       0.196000
       8302.50        66.5644         3.8167         2.4235       0.200300
       8303.00        70.2287         3.6686         2.4407       0.204700
       8303.50        73.8407         3.5264         2.4607       0.213700
       8304.00        75.1000         3.4086         2.4842       0.220000
       8304.50        75.0039         3.3670         2.5125       0.219900
       8305.00        73.2082         3.3949         2.5070       0.216500
       8305.50        71.4254         3.4585         2.4595       0.209800
       8306.00        65.2453         3.5855         2.3936       0.205400
       8306.50        57.9375         3.7645         2.3383       0.200000
       8307.00        53.1076         3.8990         2.3077       0.200300
       8307.50        53.7497         4.0167         2.3127       0.206200
       8308.00        56.4398         4.1969         2.3359       0.210400
       8308.50        56.7557         4.2980         2.3791       0.217200
       8309.00        56.1349         4.2277         2.4188       0.219600
       8309.50        59.8839         4.1063         2.4637       0.211300
       8310.00        67.1684         4.0030         2.4788       0.201200
       8310.50        72.4552         3.9464         2.4758       0.200000
       8311.00        69.4559         4.0888         2.4578       0.199000
       8311.50        62.5420         4.6510         2.4507       0.179000
       8312.00        57.3641         5.1397         2.4578       0.168700
       8312.50        58.7810         5.1754         2.4767       0.162100
       8313.00        63.6943         4.7099         2.4834       0.180300
       8313.50        70.1735         4.2016         2.4748       0.198000
       8314.00        74.0860         3.8537         2.4816       0.208300
       8314.50        74.5136         3.6723         2.4884       0.217100
       8315.00        73.6372         3.6000         2.4924       0.219700
       8315.50        73.1613         3.5631         2.4953       0.214700
       8316.00        75.4601         3.5058         2.4928       0.210200
       8316.50        77.2005         3.4257         2.4901       0.213600
       8317.00        78.9155         3.3359         2.4913       0.219900
       8317.50        76.6008         3.2832         2.4968       0.217800
       8318.00        72.0710         3.2740         2.5000       0.210000
       8318.50        66.9261         3.2910         2.4993       0.210000
       8319.00        64.2367         3.3140         2.4868       0.210000
       8319.50        64.1079         3.3275         2.4803       0.210000
       8320.00        66.4628         3.3400         2.4803       0.210400
       8320.50        69.7263         3.3391         2.4861       0.218400
       8321.00        74.3232         3.3191         2.4901       0.220000
       8321.50        78.3133         3.2645         2.5010       0.220000
       8322.00        82.2800         3.2005         2.5043       0.220300
       8322.50        82.3193         3.1427         2.5100       0.226200
       8323.00        83.0306         3.1072         2.5104       0.230300
       8323.50        82.7552         3.0890         2.5089       0.235100
       8324.00        84.4584         3.0671         2.5161       0.240000
       8324.50        86.6472         3.0215         2.5133       0.240000
       8325.00        86.3539         2.9855         2.5170       0.239800
       8325.50        85.1390         2.9515         2.5127       0.237200
       8326.00        81.9891         2.9298         2.5174       0.232300
       8326.50        82.5275         2.9230         2.5101       0.238300
       8327.00        82.5220         2.8705         2.5123       0.231300
       8327.50        83.4415         2.7938         2.5241       0.240000
       8328.00        85.9870         2.7331         2.5413       0.241000
       8328.50        90.6535         2.6536         2.5501       0.258400
       8329.00        93.7735         2.5883         2.5534       0.251100
       8329.50        94.0050         2.5430         2.5582       0.260000
       8330.00        93.6360         2.4984         2.5518       0.260700
       8330.50        95.8995         2.4681         2.5471       0.262700
       8331.00       100.8905         2.4330         2.5468       0.262100
       8331.50       105.6460         2.4108         2.5560       0.276500
       8332.00       105.4460         2.4269         2.5563       0.296600
       8332.50       102.9165         2.4451         2.5513       0.290700
       8333.00        99.5880         2.4372         2.5491       0.297300
