~Version Information Block
VERS .                  2.0:  CWLS LOG ASCII STANDARD - VERSION 2.0
WRAP .                   NO:  One line per depth step
~Well Information Block
#MNEM.UNIT        Data Type   Information
#---------- ----------------  -----------
STRT .FT            3123.00:  START DEPTH
STOP .FT           14590.00:  STOP DEPTH
STEP .FT               0.50:  STEP
NULL .              -999.25:  NULL VALUE
COMP .                     :  COMPANY
WELL .                SA-10:  WELL
FLD  .                     :  FIELD
LOC  .                     :  LOCATION
CTRY .                     :  COUNTRY
STAT .                     :  STATE
CNTY .                     :  COUNTY
SRVC .                     :  SERVICE COMPANY
DATE .                     :  DATE
API  .                     :  API NUMBER
UWI  .                     :  UNIQUE WELL ID
~Curve Information Block
#MNEM.UNIT         API CODE   Curve Description
#---------- ----------------  -----------------
DEPTH.FT                   :  DEPTH
GR   .GAPI                 :  Gamma Ray
RT   .OHMM                 :  Deep resistivity
RHOB .G/C3                 :  Bulk density
NPHI .V/V                  :  Neutron porosity
DT   .US/F                 :  Sonic
~Parameter Information Block
#MNEM.UNIT            Value   Description
#---------- ----------------  -----------
PROJECT.            SERANG_FE:  
~Other Information Block
# 
~A       DEPTH             GR             RT           RHOB           NPHI             DT 
# ...
       9976.00        31.8300        25.3000         1.9800       0.080000       115.9333
       9976.50        30.9600        30.8500         2.0100       0.090000       114.1167
       9977.00        31.2700        23.6700         2.0700       0.120000       111.3333
       9977.50        36.1100        10.4500         2.1600       0.140000       107.1333
       9978.00        38.3900         5.8500         2.2000       0.150000       103.9667
       9978.50        41.5700         4.5600         2.1200       0.140000       103.8333
       9979.00        38.8700         7.5400         2.0200       0.110000       108.0167
       9979.50        36.4000        14.8700         1.9400       0.080000       110.5000
       9980.00        31.3300        18.2800         1.9600       0.070000       115.6500
       9980.50        29.7800        20.5200         2.0400       0.090000       111.0000
       9981.00        29.0100        14.5200         2.1200       0.120000       108.8333
       9981.50        33.5300         4.3700         2.1000       0.150000       109.3000
       9982.00        35.8900         5.3600         1.9800       0.140000       109.6500
       9982.50        34.5500        11.3400         1.9300       0.100000       111.3167
       9983.00        29.9700        17.1000         1.9300       0.070000       117.1167
       9983.50        27.2800        14.0700         1.9800       0.070000       118.6333
       9984.00        26.6200        14.4500         2.0300       0.090000       118.3833
       9984.50        28.3300        11.7600         2.1100       0.120000       117.0333
       9985.00        32.6900        12.5300         2.1900       0.160000       112.6667
       9985.50        40.4500        15.5200         2.2500       0.200000       108.9333
       9986.00        46.5700         6.0100         2.2300       0.220000       105.7500
       9986.50        46.9400         4.6700         2.1900       0.200000       102.6167
       9987.00        44.7900         4.4900         2.0900       0.170000       106.5667
       9987.50        41.1400         4.7200         2.0200       0.130000       116.9166
       9988.00        36.5700        11.6500         2.0300       0.110000       116.3333
       9988.50        33.0800        18.1500         2.0800       0.120000       119.0667
       9989.00        32.0800        11.8000         2.1300       0.140000       117.5833
       9989.50        34.8700         8.0100         2.1700       0.170000       110.3833
       9990.00        36.7900         9.6200         2.1900       0.180000       110.4667
       9990.50        38.0800         5.2100         2.1900       0.170000       108.5833
       9991.00        39.7500         5.1900         2.1700       0.180000       107.4833
       9991.50        40.2600        10.5500         2.2000       0.190000       110.3000
       9992.00        44.5500        18.3100         2.2700       0.230000       104.9667
       9992.50        51.4800        11.4700         2.3600       0.260000       100.3167
       9993.00        61.7200         5.6400         2.4500       0.270000        94.0833
       9993.50        71.2800         3.8900         2.4900       0.290000        91.9667
       9994.00        75.8400         2.9000         2.5000       0.290000        92.8000
       9994.50        79.0000         2.2500         2.5000       0.290000        93.6500
       9995.00        79.5100         2.3600         2.5100       0.300000        93.3500
       9995.50        80.0300         2.4900         2.5100       0.290000        93.1500
       9996.00        83.5800         2.8900         2.5200       0.280000        93.7333
       9996.50        85.8800         3.4900         2.5100       0.280000        94.7333
       9997.00        88.9700         2.4000         2.4900       0.310000        96.3167
       9997.50        86.6200         1.9700         2.4900       0.320000        97.7333
       9998.00        87.2000         2.3000         2.4900       0.330000        98.5833
       9998.50        87.6600         2.1800         2.5100       0.320000        99.2667
       9999.00        89.3400         2.1600         2.5000       0.340000        99.5500
       9999.50        89.6100         1.8800         2.5000       0.340000       100.0833
      10000.00        87.8300         1.7000         2.4900       0.330000       100.7500
      10000.50        85.7500         1.7300         2.4900       0.320000       100.0000
      10001.00        82.0700         3.0900         2.4800       0.300000        98.5167
      10001.50        79.5400         3.9900         2.4900       0.310000        97.7000
      10002.00        76.5700         5.1400         2.5000       0.300000        95.8833
      10002.50        74.3100         2.9200         2.4900       0.290000        93.7833
      10003.00        72.0100         3.1200         2.5000       0.280000        92.6333
      10003.50        71.6800         4.1000         2.5100       0.280000        92.2500
      10004.00        69.8300        10.3000         2.5200       0.270000        91.4000
      10004.50        73.5300        10.9900         2.5100       0.270000        91.7000
      10005.00        80.2000         4.9200         2.4900       0.280000        92.5333
      10005.50        92.1600         2.5000         2.4800       0.290000        95.4167
      10006.00       105.3300         2.5600         2.4700       0.300000        95.3500
      10006.50       130.4800         3.7800         2.3800       0.350000        97.5667
      10007.00       184.4000        10.2300         2.2200       0.400000       107.5833
      10007.50       226.1500         8.6000         2.1400       0.430000       111.9500
      10008.00       247.7200         4.3800         2.1600       0.430000       115.2667
      10008.50       223.8600         1.8400         2.2600       0.420000       112.6667
      10009.00       201.1600         1.8900         2.3300       0.410000       110.6333
      10009.50       171.0800         3.1200         2.3500       0.350000       107.7833
      10010.00       144.2800         5.5200         2.3700       0.290000       103.2333
      10010.50       118.7600         7.1000         2.4300       0.230000        96.4500
      10011.00       102.4300         3.3400         2.5000       0.200000        90.2834
      10011.50        94.0900         2.1200         2.5800       0.180000        86.4333
      10012.00        92.1900         1.7800         2.6100       0.190000        83.2833
      10012.50        93.9700         2.5100         2.6100       0.210000        82.7833
      10013.00        99.3900         3.4300         2.5700       0.210000        84.3167
      10013.50       101.9000         3.1800         2.5200       0.200000        85.3500
      10014.00       106.3400         3.0400         2.5000       0.200000        87.0500
      10014.50       110.0900         3.5800         2.4800       0.190000        88.6000
      10015.00       106.8800         3.2600         2.4600       0.190000        88.7333
      10015.50        95.7700         3.3700         2.4200       0.190000        89.4500
      10016.00        78.8000         3.5100         2.3900       0.190000        90.2167
      10016.50        65.3200         4.0300         2.3700       0.180000        91.1667
      10017.00        56.9000         4.6000         2.3500       0.180000        92.4667
      10017.50        51.8200         5.0500         2.3400       0.180000        94.0333
      10018.00        51.5700         4.7400         2.3300       0.200000        94.8500
      10018.50        51.5700         4.9100         2.3200       0.210000        97.1833
      10019.00        54.3100         4.9800         2.3200       0.230000        98.8333
      10019.50        55.2900         4.4300         2.3100       0.220000        99.2667
      10020.00        54.9600         4.4200         2.3000       0.220000       101.1500
