~Version Information Block
VERS .                  2.0:  CWLS LOG ASCII STANDARD - VERSION 2.0
WRAP .                   NO:  One line per depth step
~Well Information Block
#MNEM.UNIT        Data Type   Information
#---------- ----------------  -----------
STRT .FT            3123.00:  START DEPTH
STOP .FT           14590.00:  STOP DEPTH
STEP .FT               0.50:  STEP
NULL .              -999.25:  NULL VALUE
COMP .                     :  COMPANY
WELL .                SA-10:  WELL
FLD  .                     :  FIELD
LOC  .                     :  LOCATION
CTRY .                     :  COUNTRY
STAT .                     :  STATE
CNTY .                     :  COUNTY
SRVC .                     :  SERVICE COMPANY
DATE .                     :  DATE
API  .                     :  API NUMBER
UWI  .                     :  UNIQUE WELL ID
~Curve Information Block
#MNEM.UNIT         API CODE   Curve Description
#---------- ----------------  -----------------
DEPTH.FT                   :  DEPTH
GR   .GAPI                 :  Gamma Ray
RT   .OHMM                 :  Deep resistivity
RHOB .G/C3                 :  Bulk density
NPHI .V/V                  :  Neutron porosity
DT   .US/F                 :  Sonic
~Parameter Information Block
#MNEM.UNIT            Value   Description
#---------- ----------------  -----------
PROJECT.            SERANG_FE:  
~Other Information Block
# 
~A       DEPTH             GR             RT           RHOB           NPHI             DT 
# ...
       6193.50        57.6900         2.2100         2.2700       0.390000       119.3167
       6194.00        49.0200         2.6800         2.2300       0.380000       115.8667
       6194.50        45.2400         2.4900         2.2100       0.390000       113.8667
       6195.00        44.6600         2.9600         2.2200       0.370000       109.6833
       6195.50        44.7300         2.8000         2.3200       0.300000        99.9167
       6196.00        42.4400         7.1400         2.4100       0.230000        89.4167
       6196.50        39.9400         6.2700         2.4700       0.180000        81.1667
       6197.00        36.4000         4.8600         2.4800       0.180000        75.7833
       6197.50        35.1800         5.2400         2.4600       0.160000        74.3333
       6198.00        34.6000         6.5000         2.4600       0.150000        74.8500
       6198.50        33.5600        10.8600         2.4400       0.170000        75.7500
       6199.00        33.2200         7.0800         2.4000       0.210000        78.0667
       6199.50        31.4500         4.8800         2.3600       0.260000        85.3667
       6200.00        33.0200         4.0000         2.3400       0.280000        84.8167
       6200.50        33.9800         3.7100         2.3600       0.270000        81.5667
       6201.00        37.9600         5.0600         2.3800       0.220000        79.1167
       6201.50        43.7600         5.7400         2.3800       0.210000        75.5667
       6202.00        47.4300         5.9000         2.3800       0.200000        73.9167
       6202.50        49.4600         5.9100         2.4000       0.190000        74.5833
       6203.00        44.6300         7.8100         2.4500       0.150000        74.0667
       6203.50        39.0700        11.5100         2.4700       0.130000        73.0500
       6204.00        34.8700        12.2900         2.4900       0.130000        71.2833
       6204.50        34.4700        11.4500         2.4700       0.140000        72.3000
       6205.00        37.7100         8.2500         2.4500       0.140000        71.9833
       6205.50        40.4300         8.6300         2.4500       0.130000        72.6667
       6206.00        40.2000         8.9700         2.4900       0.110000        73.7500
       6206.50        38.5400        10.0800         2.4900       0.100000        66.9167
       6207.00        35.7600         8.1600         2.4800       0.100000        68.0333
       6207.50        37.2300         7.1800         2.4700       0.090000        67.6667
       6208.00        35.9800         5.9600         2.5000       0.080000        69.8333
       6208.50        37.2100         7.8000         2.5300       0.070000        67.0000
       6209.00        37.5300         7.9900         2.5400       0.070000        65.8833
       6209.50        40.6700         7.6000         2.5400       0.080000        65.1167
       6210.00        40.9500         7.5000         2.5400       0.090000        64.2167
       6210.50        40.8200         6.9500         2.5400       0.100000        65.5167
       6211.00        44.0800         8.8900         2.5200       0.110000        67.0500
       6211.50        47.3200         7.5000         2.4600       0.120000        66.9333
       6212.00        49.3500         7.7700         2.4400       0.130000        67.4333
       6212.50        51.0600         7.8100         2.4000       0.140000        70.4500
       6213.00        52.9600         6.8700         2.4000       0.170000        71.1167
       6213.50        57.1500         6.8200         2.4100       0.190000        48.0500
       6214.00        58.3200         7.3100         2.4700       0.170000        69.4500
       6214.50        63.2100         7.2000         2.5100       0.140000        67.1833
       6215.00        69.2900         6.7600         2.5400       0.100000        64.4000
       6215.50        80.8900         6.3400         2.5300       0.120000        63.5667
       6216.00        84.3400         6.5800         2.4500       0.190000        72.0500
       6216.50        89.1600         7.7700         2.3400       0.270000        76.1833
       6217.00        86.9200         7.7500         2.3000       0.270000        77.0500
       6217.50        91.0500        11.7000         2.3900       0.200000        77.7333
       6218.00        94.8500        11.4200         2.5500       0.140000        73.1167
       6218.50        96.6700        11.3800         2.5900       0.140000        64.7000
       6219.00        96.9800        14.4400         2.5200       0.190000        71.0500
       6219.50       100.5200         9.1600         2.4300       0.250000        88.0500
       6220.00       114.4300         4.4000         2.3500       0.300000       102.5333
       6220.50       132.4300         3.1500         2.2900       0.350000       109.3333
       6221.00       149.9300         2.0800         2.2600       0.370000       114.6500
       6221.50       165.3800         1.8600         2.2200       0.400000       117.2667
       6222.00       188.4000         1.6600         2.0800       0.420000       122.1333
       6222.50       218.6500         2.6000         1.8800       0.450000       127.5500
       6223.00       248.6700         4.2800         1.7500       0.490000       132.5167
       6223.50       261.9600         6.6300         1.7600       0.520000       136.5667
       6224.00       252.8800         4.5700         1.8900       0.510000       136.5833
       6224.50       229.9500         3.3700         2.0200       0.490000       131.3000
       6225.00       210.3900         2.2800         2.1100       0.460000       129.1167
       6225.50       192.9700         2.0400         2.1600       0.460000       127.3667
       6226.00       178.4900         1.9700         2.2100       0.440000       124.7334
       6226.50       163.9600         1.8700         2.2700       0.420000       123.5167
       6227.00       153.4800         1.8400         2.3200       0.400000       120.8000
       6227.50       147.5200         1.6300         2.3100       0.410000       120.5833
       6228.00       139.1200         1.8900         2.2400       0.430000       122.6000
       6228.50       127.3000         2.4300         2.1700       0.430000       124.0000
       6229.00       118.0900         2.5900         2.1600       0.410000       124.1333
       6229.50       109.2100         2.5500         2.2200       0.380000       123.9500
       6230.00       103.8100         2.2200         2.2700       0.370000       123.3667
       6230.50        92.6900         2.2400         2.2800       0.380000       122.1000
       6231.00        81.4600         2.2800         2.2700       0.400000       118.6500
       6231.50        71.8400         2.3200         2.2500       0.390000       116.8333
       6232.00        65.8900         2.4100         2.2400       0.370000       114.8333
       6232.50        62.8900         2.5500         2.2300       0.350000       112.7500
       6233.00        59.4300         3.1000         2.2500       0.330000       113.1333
       6233.50        55.4400         2.9800         2.3000       0.320000       106.4667
       6234.00        53.8800         3.3000         2.3500       0.300000        98.5500
       6234.50        52.8500         2.7400         2.3900       0.300000        92.2667
       6235.00        52.1300         2.6100         2.3800       0.310000        89.9167
       6235.50        52.9700         3.5200         2.3400       0.310000        94.0667
       6236.00        51.9000         4.1000         2.3200       0.330000        93.5000
       6236.50        52.5500         3.6100         2.3300       0.350000        96.1167
       6237.00        53.4100         3.6000         2.3500       0.370000        97.2167
       6237.50        57.0100         2.7600         2.3400       0.370000        98.8167
