~Version Information Block
VERS .                  2.0:  CWLS LOG ASCII STANDARD - VERSION 2.0
WRAP .                   NO:  One line per depth step
~Well Information Block
#MNEM.UNIT        Data Type   Information
#---------- ----------------  -----------
STRT .FT            3123.00:  START DEPTH
STOP .FT           14590.00:  STOP DEPTH
STEP .FT               0.50:  STEP
NULL .              -999.25:  NULL VALUE
COMP .                     :  COMPANY
WELL .                SA-10:  WELL
FLD  .                     :  FIELD
LOC  .                     :  LOCATION
CTRY .                     :  COUNTRY
STAT .                     :  STATE
CNTY .                     :  COUNTY
SRVC .                     :  SERVICE COMPANY
DATE .                     :  DATE
API  .                     :  API NUMBER
UWI  .                     :  UNIQUE WELL ID
~Curve Information Block
#MNEM.UNIT         API CODE   Curve Description
#---------- ----------------  -----------------
DEPTH.FT                   :  DEPTH
GR   .GAPI                 :  Gamma Ray
RT   .OHMM                 :  Deep resistivity
RHOB .G/C3                 :  Bulk density
NPHI .V/V                  :  Neutron porosity
DT   .US/F                 :  Sonic
~Parameter Information Block
#MNEM.UNIT            Value   Description
#---------- ----------------  -----------
PROJECT.            SERANG_FE:  
~Other Information Block
# 
~A       DEPTH             GR             RT           RHOB           NPHI             DT 
# ...
       7706.50        97.5000         3.2800         1.9500       0.310000       117.3167
       7707.00        85.9100         2.9800         1.8200       0.280000       122.6667
       7707.50        76.2800         2.0600         1.8100       0.290000       123.7000
       7708.00        70.1500         1.8200         1.8800       0.340000       123.5834
       7708.50        71.4200         1.7600         1.9300       0.410000       122.4333
       7709.00        71.3500         1.6700         1.9500       0.480000       121.4667
       7709.50        68.5100         1.9500         1.9600       0.500000       123.1167
       7710.00        66.8200         2.1400         1.9800       0.500000       123.8667
       7710.50        66.1700         2.3600         2.0200       0.500000       137.0000
       7711.00        70.6900         2.5600         2.0500       0.500000       145.6333
       7711.50        72.8000         2.9000         2.0800       0.510000       140.4833
       7712.00        72.9400         3.0700         2.1100       0.500000       139.3333
       7712.50        73.9300         3.5800         2.1600       0.490000       139.1000
       7713.00        80.4500         4.0300         2.2100       0.460000       139.5167
       7713.50        86.8700         2.8100         2.2500       0.450000       135.8167
       7714.00        94.0200         2.1400         2.2800       0.430000       117.2833
       7714.50        97.0800         1.9500         2.2900       0.430000       116.0500
       7715.00        97.3300         2.0200         2.2900       0.420000       113.7333
       7715.50        90.3300         1.8600         2.2800       0.390000       117.6333
       7716.00        77.7100         1.9300         2.3000       0.360000       117.9833
       7716.50        71.1100         2.5300         2.3000       0.330000       116.6500
       7717.00        64.2800         2.8400         2.2800       0.320000       115.6000
       7717.50        62.5400         2.3900         2.2500       0.300000       110.9667
       7718.00        59.4600         2.3400         2.2000       0.300000       113.3500
       7718.50        56.4600         2.1400         2.1600       0.300000       113.8000
       7719.00        52.5100         1.8900         2.1400       0.300000       114.9500
       7719.50        48.2300         1.8300         2.1400       0.320000       117.9667
       7720.00        50.1800         1.9700         2.1400       0.310000       118.9167
       7720.50        50.3800         1.8700         2.1300       0.310000       118.5000
       7721.00        49.0700         1.6700         2.1300       0.310000       118.0000
       7721.50        45.5100         1.7200         2.1400       0.300000       117.0833
       7722.00        47.1200         1.6300         2.1400       0.290000       117.2000
       7722.50        49.3700         1.5800         2.1500       0.280000       116.9500
       7723.00        50.0100         1.7300         2.1600       0.290000       116.4500
       7723.50        51.2000         2.3400         2.1400       0.320000       113.8333
       7724.00        59.8100         2.0900         2.1300       0.350000       112.2667
       7724.50        76.4700         2.0000         2.1000       0.370000       111.4167
       7725.00        90.9600         2.4100         2.1100       0.360000       110.4167
       7725.50        99.0500         2.9900         2.1200       0.360000       109.8500
       7726.00       101.0100         2.5900         2.1700       0.350000       109.1000
       7726.50        99.8600         2.6900         2.2100       0.360000       108.6333
       7727.00       100.0500         2.6500         2.2300       0.360000       110.2000
       7727.50       100.7500         2.3500         2.2200       0.390000       112.1500
       7728.00       109.0400         2.7100         2.2100       0.380000       112.1167
       7728.50       113.7700         2.7400         2.2300       0.380000       111.9167
       7729.00       116.0600         2.3600         2.2500       0.360000       111.2167
       7729.50       113.2800         2.4300         2.2800       0.370000       110.0500
       7730.00       109.6600         3.8700         2.3200       0.370000       108.7666
       7730.50       107.8900         3.3400         2.3600       0.370000       107.4000
       7731.00       103.1900         2.2300         2.3900       0.350000       106.1333
       7731.50       100.4900         2.0600         2.4100       0.340000       105.8667
       7732.00        97.8500         1.8900         2.4200       0.340000       105.1167
       7732.50        96.9000         2.0300         2.4200       0.360000       104.9500
       7733.00        95.1500         1.9500         2.4200       0.360000       105.0000
       7733.50        92.8500         1.8000         2.4100       0.380000       105.6500
       7734.00        91.7600         2.0300         2.4100       0.380000       105.0500
       7734.50        89.6300         2.2400         2.4100       0.370000       104.7000
       7735.00        86.7100         2.2800         2.4100       0.360000       104.4500
       7735.50        82.8900         1.9300         2.4100       0.350000       103.0000
       7736.00        78.8500         1.8000         2.4000       0.350000       103.0500
       7736.50        77.1700         1.7100         2.4000       0.340000       103.2833
       7737.00        74.4700         1.9600         2.4000       0.340000       102.9167
       7737.50        76.0600         2.0100         2.4000       0.320000       102.8833
       7738.00        76.9200         1.8500         2.4000       0.310000       103.0667
       7738.50        78.8500         1.8200         2.4000       0.310000       103.0500
       7739.00        76.1900         1.8500         2.4000       0.320000       103.2500
       7739.50        75.1100         1.9000         2.4000       0.320000       103.0833
       7740.00        71.9700         2.1300         2.4000       0.320000       103.7667
       7740.50        72.5200         2.2700         2.4000       0.320000       104.6667
       7741.00        70.2800         1.9900         2.3900       0.320000       105.1833
       7741.50        69.9600         1.8500         2.3900       0.300000       106.4833
       7742.00        67.9200         1.9600         2.3900       0.310000       107.5167
       7742.50        64.3800         1.9600         2.4000       0.320000       106.8500
       7743.00        63.6400         2.0100         2.4000       0.330000       106.7500
       7743.50        64.0600         2.1900         2.3900       0.320000       106.5500
       7744.00        65.8200         2.1300         2.3700       0.300000       106.9333
       7744.50        65.6700         2.0800         2.3700       0.290000       106.7000
       7745.00        64.4300         1.9800         2.3700       0.290000       106.2667
       7745.50        63.7100         2.0700         2.3700       0.290000       106.0000
       7746.00        63.1200         2.0100         2.3600       0.300000       106.0333
       7746.50        63.0200         2.0600         2.3500       0.300000       106.7000
       7747.00        63.5900         2.0300         2.3500       0.300000       106.4500
       7747.50        62.7600         2.0700         2.3500       0.300000       106.8500
       7748.00        64.5800         1.9600         2.3600       0.290000       106.6000
       7748.50        65.1400         1.9600         2.3600       0.290000       105.7500
       7749.00        66.0000         2.0500         2.3700       0.280000       105.2834
       7749.50        65.4200         2.0900         2.3800       0.300000       104.8500
       7750.00        63.9100         2.0400         2.3800       0.310000       105.2500
       7750.50        66.9300         1.9200         2.3800       0.320000       106.1500
