~Version Information Block
VERS .                  2.0:  CWLS LOG ASCII STANDARD - VERSION 2.0
WRAP .                   NO:  One line per depth step
~Well Information Block
#MNEM.UNIT        Data Type   Information
#---------- ----------------  -----------
STRT .FT            3123.00:  START DEPTH
STOP .FT           14590.00:  STOP DEPTH
STEP .FT               0.50:  STEP
NULL .              -999.25:  NULL VALUE
COMP .                     :  COMPANY
WELL .                SA-10:  WELL
FLD  .                     :  FIELD
LOC  .                     :  LOCATION
CTRY .                     :  COUNTRY
STAT .                     :  STATE
CNTY .                     :  COUNTY
SRVC .                     :  SERVICE COMPANY
DATE .                     :  DATE
API  .                     :  API NUMBER
UWI  .                     :  UNIQUE WELL ID
~Curve Information Block
#MNEM.UNIT         API CODE   Curve Description
#---------- ----------------  -----------------
DEPTH.FT                   :  DEPTH
GR   .GAPI                 :  Gamma Ray
RT   .OHMM                 :  Deep resistivity
RHOB .G/C3                 :  Bulk density
NPHI .V/V                  :  Neutron porosity
DT   .US/F                 :  Sonic
~Parameter Information Block
#MNEM.UNIT            Value   Description
#---------- ----------------  -----------
PROJECT.            SERANG_FE:  
~Other Information Block
# 
~A       DEPTH             GR             RT           RHOB           NPHI             DT 
# ...
      12290.00        82.6900         2.3100         2.5200       0.290000        89.7000
      12290.50        82.3400         2.3600         2.4900       0.280000        89.5333
      12291.00        79.1700         2.6200         2.4700       0.280000        90.5000
      12291.50        74.4400         3.3900         2.4600       0.290000        91.9333
      12292.00        68.5800         3.2800         2.4600       0.280000        90.7834
      12292.50        67.0200         2.9400         2.4500       0.280000        90.8167
      12293.00        62.6600         2.5900         2.3900       0.280000        92.2333
      12293.50        53.0900         2.2300         2.2900       0.270000        93.6333
      12294.00        41.2700         1.9000         2.2100       0.260000        97.2500
      12294.50        32.2300         1.7800         2.1600       0.260000       100.5333
      12295.00        32.8300         1.9100         2.1800       0.250000       100.9333
      12295.50        35.7300         1.8100         2.2400       0.250000        98.3333
      12296.00        40.0300         1.8500         2.3000       0.260000        95.8167
      12296.50        40.5100         2.2800         2.3200       0.250000        93.9333
      12297.00        40.6900         2.3200         2.3100       0.220000        93.4000
      12297.50        39.6600         2.2300         2.3500       0.200000        91.8833
      12298.00        40.2200         2.5000         2.4100       0.210000        84.9833
      12298.50        37.7400         2.8300         2.3700       0.230000        83.8167
      12299.00        36.6000         2.2100         2.2900       0.240000        86.4167
      12299.50        35.9900         1.9200         2.2600       0.230000        92.9667
      12300.00        38.4700         1.8600         2.2900       0.230000        96.2667
      12300.50        43.2200         1.9400         2.3200       0.240000        94.2500
      12301.00        46.6800         2.3200         2.3500       0.250000        92.6500
      12301.50        51.9500         2.3800         2.3600       0.260000        92.0167
      12302.00        52.5400         2.5800         2.3600       0.260000        92.4833
      12302.50        57.6800         2.6400         2.3700       0.260000        92.1500
      12303.00        59.8800         2.5800         2.4000       0.270000        92.4167
      12303.50        65.7900         3.3400         2.4200       0.280000        91.6500
      12304.00        68.1100         4.3100         2.4200       0.290000        92.1167
      12304.50        71.1800         3.7000         2.4400       0.300000        92.8167
      12305.00        73.8800         4.2300         2.4400       0.310000        94.4833
      12305.50        71.6900         2.1700         2.4100       0.300000        95.1833
      12306.00        66.9600         2.6400         2.3300       0.310000        97.9500
      12306.50        63.9600         3.9300         2.2800       0.330000       100.6667
      12307.00        68.4900         5.4200         2.2700       0.360000       100.5333
      12307.50        76.6100         6.4800         2.3100       0.360000        99.8833
      12308.00        80.2200         2.7700         2.3800       0.330000        98.4000
      12308.50        78.8500         2.9100         2.4300       0.300000        94.6000
      12309.00        77.4300         3.3900         2.4400       0.290000        94.1167
      12309.50        79.4300         2.7000         2.4400       0.310000        94.9000
      12310.00        81.2200         3.0000         2.4300       0.340000        95.6500
      12310.50        81.6700         3.6800         2.4200       0.350000        96.0500
      12311.00        78.1500         3.5000         2.4400       0.320000        95.3000
      12311.50        78.7300         3.4100         2.4600       0.300000        93.1500
      12312.00        78.0300         3.6100         2.4800       0.290000        91.4333
      12312.50        80.2500         2.7600         2.4800       0.290000        90.1833
      12313.00        79.1000         2.6100         2.4800       0.270000        90.9834
      12313.50        81.9800         3.1400         2.4800       0.280000        91.1667
      12314.00        82.0000         2.6800         2.4800       0.290000        91.8500
      12314.50        83.1300         2.4700         2.4700       0.320000        92.7000
      12315.00        83.6100         3.1200         2.4700       0.340000        93.5333
      12315.50        84.9700         3.2600         2.4700       0.330000        93.6500
      12316.00        86.7000         2.7500         2.4800       0.320000        92.8667
      12316.50        86.6200         2.6200         2.4800       0.300000        92.4500
      12317.00        87.4400         3.0100         2.4900       0.320000        92.1500
      12317.50        86.7400         2.4100         2.4900       0.320000        91.8667
      12318.00        84.2200         2.4800         2.4900       0.320000        91.8500
      12318.50        84.9100         2.3900         2.5000       0.310000        92.0333
      12319.00        86.7600         2.3600         2.5000       0.320000        92.3333
      12319.50        89.7400         2.4200         2.5000       0.320000        92.1167
      12320.00        90.4300         2.3100         2.5000       0.320000        92.3500
      12320.50        88.5200         2.2300         2.5100       0.310000        92.5000
      12321.00        88.3100         2.2500         2.5200       0.310000        92.4000
      12321.50        88.6600         2.3000         2.5100       0.310000        91.8167
      12322.00        86.0800         2.3100         2.5200       0.310000        91.7500
      12322.50        86.5900         2.2600         2.5200       0.310000        91.1000
      12323.00        83.7300         2.2500         2.5200       0.310000        90.9667
      12323.50        87.2500         2.3500         2.5200       0.310000        90.3667
      12324.00        85.8900         2.3800         2.5300       0.310000        90.0167
      12324.50        86.5200         2.3300         2.5200       0.300000        89.7167
      12325.00        85.5500         2.2800         2.5100       0.290000        89.3333
      12325.50        85.5800         2.3300         2.5000       0.290000        88.9167
      12326.00        82.2800         2.4500         2.5100       0.280000        88.3333
      12326.50        80.7600         2.4400         2.5200       0.280000        87.7167
      12327.00        79.3400         2.3500         2.5200       0.280000        87.7667
      12327.50        81.1900         2.3100         2.5200       0.280000        87.6667
      12328.00        81.0000         2.3500         2.5300       0.290000        87.7667
      12328.50        77.7300         2.3700         2.5300       0.290000        87.9667
      12329.00        81.1900         2.3200         2.5300       0.290000        88.5167
      12329.50        83.7200         2.2900         2.5300       0.290000        88.8667
      12330.00        90.8400         2.3000         2.5300       0.300000        89.3667
      12330.50        91.9600         2.1600         2.5300       0.320000        90.4000
      12331.00        92.4600         1.8500         2.5300       0.330000        91.8667
      12331.50        91.4400         1.7900         2.5300       0.340000        92.7500
      12332.00        90.4400         1.9700         2.5300       0.330000        93.6167
      12332.50        93.5600         2.0000         2.5200       0.330000        94.0667
      12333.00        97.1600         1.8800         2.5200       0.330000        94.3833
      12333.50       101.7700         1.7200         2.5200       0.330000        95.1833
      12334.00       101.1300         1.7000         2.5200       0.340000        95.4333
