~Version Information Block
VERS .                  2.0:  CWLS LOG ASCII STANDARD - VERSION 2.0
WRAP .                   NO:  One line per depth step
~Well Information Block
#MNEM.UNIT        Data Type   Information
#---------- ----------------  -----------
STRT .FT            3123.00:  START DEPTH
STOP .FT           14590.00:  STOP DEPTH
STEP .FT               0.50:  STEP
NULL .              -999.25:  NULL VALUE
COMP .                     :  COMPANY
WELL .                SA-10:  WELL
FLD  .                     :  FIELD
LOC  .                     :  LOCATION
CTRY .                     :  COUNTRY
STAT .                     :  STATE
CNTY .                     :  COUNTY
SRVC .                     :  SERVICE COMPANY
DATE .                     :  DATE
API  .                     :  API NUMBER
UWI  .                     :  UNIQUE WELL ID
~Curve Information Block
#MNEM.UNIT         API CODE   Curve Description
#---------- ----------------  -----------------
DEPTH.FT                   :  DEPTH
GR   .GAPI                 :  Gamma Ray
RT   .OHMM                 :  Deep resistivity
RHOB .G/C3                 :  Bulk density
NPHI .V/V                  :  Neutron porosity
DT   .US/F                 :  Sonic
~Parameter Information Block
#MNEM.UNIT            Value   Description
#---------- ----------------  -----------
PROJECT.            SERANG_FE:  
~Other Information Block
# 
~A       DEPTH             GR             RT           RHOB           NPHI             DT 
# ...
       3879.50        40.3700         1.5900         2.0300       0.350000       139.8691
       3880.00        41.7700         1.7000         2.1000       0.340000       126.8500
       3880.50        44.6400         1.6800         2.1500       0.340000       127.5500
       3881.00        47.5000         1.5500         2.2100       0.340000       127.7833
       3881.50        48.3600         1.4800         2.2300       0.350000       128.9004
       3882.00        53.6500         1.5100         2.2500       0.350000       130.1333
       3882.50        54.1900         1.4800         2.2600       0.360000       131.1500
       3883.00        61.2000         1.5200         2.2600       0.360000       131.0000
       3883.50        58.8200         1.4400         2.2600       0.370000       131.3499
       3884.00        61.5500         1.6600         2.2500       0.360000       130.8167
       3884.50        62.7600         1.4900         2.2500       0.350000       130.8500
       3885.00        67.6400         1.5100         2.2600       0.340000       130.8500
       3885.50        67.0100         1.6100         2.2600       0.350000       130.5503
       3886.00        67.4300         1.6600         2.2600       0.370000       130.2333
       3886.50        67.7100         1.5400         2.2600       0.400000       129.8000
       3887.00        71.0700         1.7400         2.2600       0.420000       129.4000
       3887.50        68.9500         1.6500         2.2600       0.410000       129.5665
       3888.00        67.5700         1.6500         2.2700       0.370000       131.8333
       3888.50        69.4300         1.6600         2.2600       0.350000       132.5000
       3889.00        68.4800         1.5300         2.2500       0.350000       135.4833
       3889.50        67.0000         1.5700         2.2400       0.360000       136.1660
       3890.00        64.1000         1.6400         2.2300       0.350000       133.9000
       3890.50        66.6100         1.6200         2.2300       0.340000       137.2166
       3891.00        67.7300         1.6700         2.2400       0.340000       134.2500
       3891.50        67.0800         1.6200         2.2500       0.340000       133.9336
       3892.00        65.4000         1.5800         2.2600       0.360000       134.3833
       3892.50        66.9500         1.6200         2.2700       0.370000       132.9500
       3893.00        65.2000         1.7400         2.2700       0.380000       131.9000
       3893.50        66.2300         1.6100         2.2700       0.360000       131.7002
       3894.00        67.2600         1.6100         2.2700       0.360000       131.3000
       3894.50        70.3700         1.6100         2.2700       0.340000       130.5500
       3895.00        70.4800         1.6700         2.2600       0.360000       130.5500
       3895.50        68.4200         1.7500         2.2600       0.360000       130.5667
       3896.00        70.6300         1.7900         2.2700       0.380000       130.3667
       3896.50        70.4000         1.7500         2.2700       0.380000       129.6000
       3897.00        69.6100         1.6400         2.2700       0.400000       129.2500
       3897.50        70.2200         1.7500         2.2700       0.390000       129.1334
       3898.00        73.5000         1.6100         2.2600       0.400000       129.8167
       3898.50        75.8400         1.5800         2.2600       0.380000       130.7500
       3899.00        75.2000         1.7200         2.2600       0.380000       131.6000
       3899.50        74.3000         1.7300         2.2600       0.370000       130.6504
       3900.00        74.0100         1.6900         2.2800       0.380000       130.7834
       3900.50        76.5200         1.8000         2.2700       0.380000       130.6500
       3901.00        78.1500         1.6900         2.2800       0.410000       131.1500
       3901.50        80.4900         1.6600         2.2700       0.390000       131.9497
       3902.00        79.5800         1.7400         2.2700       0.390000       131.9000
       3902.50        76.0300         1.7200         2.2600       0.370000       131.5667
       3903.00        74.4500         1.6800         2.2600       0.370000       131.3000
       3903.50        73.1900         1.8500         2.2600       0.400000       132.0332
       3904.00        75.8800         1.7700         2.2600       0.410000       132.5500
       3904.50        75.2600         1.6800         2.2600       0.410000       132.9667
       3905.00        75.0000         1.7200         2.2500       0.390000       132.8000
       3905.50        74.2700         1.8000         2.2500       0.400000       133.0498
       3906.00        74.8900         1.6800         2.2500       0.410000       131.9500
       3906.50        73.8400         1.7600         2.2500       0.420000       131.8000
       3907.00        72.9700         1.7800         2.2600       0.430000       132.2333
       3907.50        73.5000         1.6600         2.2600       0.430000       132.3166
       3908.00        75.1900         1.7300         2.2600       0.420000       133.1833
       3908.50        75.7400         1.7500         2.2600       0.400000       132.8500
       3909.00        76.2400         1.6900         2.2500       0.410000       132.8500
       3909.50        75.7400         1.8200         2.2600       0.410000       132.5669
       3910.00        77.1000         1.7200         2.2600       0.420000       132.6500
       3910.50        76.8900         1.6500         2.2700       0.400000       132.6500
       3911.00        76.3600         1.7500         2.2600       0.390000       132.6000
       3911.50        74.6400         1.7000         2.2600       0.400000       133.0664
       3912.00        77.5200         1.8200         2.2700       0.410000       132.8167
       3912.50        77.3800         1.6500         2.2600       0.400000       132.8500
       3913.00        77.2400         1.6700         2.2600       0.400000       132.9500
       3913.50        73.7500         1.7400         2.2600       0.390000       132.6670
       3914.00        74.8500         1.7300         2.2700       0.390000       132.2500
       3914.50        74.8000         1.7500         2.2700       0.390000       132.0000
       3915.00        75.2100         1.6500         2.2700       0.390000       131.7500
       3915.50        72.2800         1.7500         2.2600       0.410000       131.7334
       3916.00        72.4000         1.7000         2.2600       0.400000       132.2500
       3916.50        71.2700         1.6900         2.2500       0.400000       132.2500
       3917.00        72.3000         1.7100         2.2600       0.380000       132.2500
       3917.50        71.9800         1.6500         2.2700       0.380000       131.6499
       3918.00        73.3800         1.7600         2.2700       0.380000       132.0500
       3918.50        76.5300         1.6600         2.2700       0.390000       130.6667
       3919.00        79.6600         1.7000         2.2700       0.400000       130.4167
       3919.50        80.1100         1.7100         2.2700       0.390000       130.8330
       3920.00        80.0100         1.7100         2.2600       0.380000       131.3000
       3920.50        77.2900         1.6800         2.2400       0.380000       131.9666
       3921.00        75.1700         1.7000         2.2400       0.370000       133.2167
       3921.50        73.8600         1.6700         2.2400       0.390000       133.6665
       3922.00        75.8300         1.6500         2.2500       0.390000       134.4000
       3922.50        77.4200         1.6700         2.2500       0.390000       133.9500
       3923.00        78.1300         1.6800         2.2500       0.400000       133.4500
       3923.50        75.1100         1.7400         2.2600       0.400000       132.3164
