~Version Information Block
VERS .                  2.0:  CWLS LOG ASCII STANDARD - VERSION 2.0
WRAP .                   NO:  One line per depth step
~Well Information Block
#MNEM.UNIT        Data Type   Information
#---------- ----------------  -----------
STRT .FT        8000.328084:  START DEPTH
STOP .FT       11551.837384:  STOP DEPTH
STEP .FT           1.640420:  STEP
NULL .              -999.25:  NULL VALUE
COMP .                     :  COMPANY
WELL .           SA-15RD1ST:  WELL
FLD  .                     :  FIELD
LOC  .                     :  LOCATION
CTRY .                     :  COUNTRY
STAT .                     :  STATE
CNTY .                     :  COUNTY
SRVC .                     :  SERVICE COMPANY
DATE .                     :  DATE
API  .                     :  API NUMBER
UWI  .                     :  UNIQUE WELL ID
~Curve Information Block
#MNEM.UNIT         API CODE   Curve Description
#---------- ----------------  -----------------
DEPTH.FT                   :  
GR   .GAPI                 :  Merged WIRE with WIRE_ST at 9000.00 F
RT   .OHMM                 :  Merged WIRE with WIRE_ST at 9000.00 F
RHOB .G/C3                 :  Merged WIRE with WIRE_ST at 9000.00 F
NPHI .V/V                  :  Merged WIRE with WIRE_ST at 9000.00 F
~Parameter Information Block
#MNEM.UNIT            Value   Description
#---------- ----------------  -----------
PROJECT.            SERANG_FE:  
~Other Information Block
# 
~A       DEPTH             GR             RT           RHOB           NPHI 
# ...
  10457.677165        77.0229         1.6117         2.4495        0.35637
  10459.317585        82.4525         1.6269         2.4218        0.34895
  10460.958005        86.0447         1.4119         2.4105        0.38013
  10462.598425        87.7463         1.5900         2.4490        0.37205
  10464.238845        80.9787         1.5269         2.4247        0.37023
  10465.879265        81.1512         1.5915         2.3944        0.34804
  10467.519685        71.5577         1.6643         2.4137        0.32368
  10469.160105        68.3846         2.0850         2.3860        0.27725
  10470.800525        67.0940         2.2094         2.3726        0.27270
  10472.440945        67.9230         2.1157         2.3832        0.27729
  10474.081365        70.9989         1.9947         2.4157        0.29964
  10475.721785        78.2778         1.9400         2.4378        0.32361
  10477.362205        90.0028         1.3687         2.4405        0.36905
  10479.002625       100.8678         1.3014         2.3989        0.46056
  10480.643045       108.0408         1.1253         2.3469        0.50427
  10482.283465       103.9595         1.2066         2.3424        0.49222
  10483.923885        85.4029         1.6886         2.3098        0.40279
  10485.564304        59.9659         4.1020         2.1585        0.22927
  10487.204724        43.1717         6.0020         1.9948        0.16666
  10488.845144        37.1925         2.3761         2.0359        0.19346
  10490.485564        33.8238         1.3345         2.1660        0.26685
  10492.125984        32.0901         1.0319         2.1885        0.27301
  10493.766404        28.0706         0.8300         2.1739        0.28814
  10495.406824        29.0116         0.7936         2.1607        0.28192
  10497.047244        37.4634         1.0912         2.1935        0.28271
  10498.687664        34.4342         0.9584         2.1971        0.27916
  10500.328084        26.4313         0.9027         2.1434        0.27289
  10501.968504        27.7166         0.7157         2.1332        0.25764
  10503.608924        31.1990         0.8599         2.1387        0.29938
  10505.249344        32.3556         0.8986         2.1480        0.29429
  10506.889764        35.2268         0.8223         2.1392        0.29121
  10508.530184        44.0973         0.8695         2.1646        0.30087
  10510.170604        52.8928         1.2232         2.2647        0.31502
  10511.811024        52.7216         0.9756         2.2304        0.31671
  10513.451444        61.0594         1.3505         2.2776        0.32619
  10515.091864        58.1680         1.3796         2.2975        0.30897
  10516.732283        58.4677         1.6530         2.3628        0.32124
  10518.372703        59.1692         1.9459         2.4012        0.30992
  10520.013123        56.7919         1.9969         2.3862        0.31073
  10521.653543        59.0215         1.8745         2.3802        0.30622
  10523.293963        64.6403         1.8580         2.3949        0.33831
  10524.934383        69.5115         1.7733         2.4035        0.34087
  10526.574803        69.3395         1.8025         2.4111        0.32942
  10528.215223        65.2321         1.9199         2.4114        0.31456
  10529.855643        62.0929         2.0041         2.4133        0.30373
  10531.496063        62.5528         1.9566         2.4070        0.31161
  10533.136483        69.6426         1.9225         2.4083        0.32203
  10534.776903        67.6930         1.8742         2.4227        0.33730
  10536.417323        65.9941         1.8699         2.4248        0.34543
  10538.057743        62.5204         1.8906         2.3988        0.35236
  10539.698163        63.4777         1.8444         2.3860        0.33235
  10541.338583        66.3758         1.8816         2.3871        0.35145
  10542.979003        71.2100         1.8236         2.4039        0.35811
  10544.619423        75.9801         1.7459         2.4119        0.37390
  10546.259843        74.4398         1.8378         2.4181        0.35360
  10547.900262        65.1503         2.1009         2.4062        0.34102
  10549.540682        64.1492         2.0067         2.4019        0.30561
  10551.181102        67.5113         1.9364         2.4102        0.33174
  10552.821522        69.8227         2.0000         2.4368        0.33979
  10554.461942        66.5215         1.8669         2.4405        0.34056
  10556.102362        66.2418         1.8774         2.4268        0.36239
  10557.742782        67.3429         1.8770         2.4105        0.34492
  10559.383202        69.4462         1.8701         2.4151        0.35315
  10561.023622        73.0979         1.8243         2.3975        0.34917
  10562.664042        71.7108         1.7940         2.3900        0.33335
  10564.304462        73.5210         1.7587         2.3932        0.36183
  10565.944882        84.9489         1.7410         2.4159        0.38046
  10567.585302        83.1176         1.6831         2.4070        0.42588
  10569.225722        76.2974         1.7015         2.3983        0.42332
  10570.866142        76.0871         1.6760         2.3875        0.40482
  10572.506562        79.2486         1.6490         2.3992        0.42101
  10574.146982        81.2764         1.6056         2.4157        0.40501
  10575.787402        82.6746         1.6055         2.4134        0.39686
  10577.427822        77.1511         1.6123         2.4213        0.39431
  10579.068241        74.9179         1.5574         2.4229        0.38729
  10580.708661        83.1526         1.5004         2.4286        0.40532
  10582.349081        86.9693         1.4921         2.4151        0.43194
  10583.989501        82.5807         1.5042         2.4220        0.42426
  10585.629921        72.1112         1.5352         2.4132        0.44306
  10587.270341        73.7712         1.4924         2.4206        0.41628
  10588.910761        80.9579         1.4835         2.4206        0.42513
  10590.551181        82.3516         1.4555         2.4165        0.43469
  10592.191601        78.7926         1.4287         2.4195        0.42043
  10593.832021        83.1731         1.4037         2.4217        0.41812
  10595.472441        84.7578         1.3890         2.4446        0.42152
  10597.112861        84.9854         1.3359         2.4351        0.43471
  10598.753281        84.2716         1.2599         2.4555        0.42935
  10600.393701        80.4196         1.2029         2.4588        0.42450
  10602.034121        79.1369         1.1968         2.4707        0.42761
  10603.674541        82.9179         1.1778         2.4734        0.43995
  10605.314961        86.3163         1.1525         2.4726        0.44998
  10606.955381        90.1846         1.8667         2.5053        0.35788
  10608.595801        91.8471         1.3633         2.5529        0.36788
  10610.236220        97.1841         1.2872         2.5042        0.39002
  10611.876640        96.9383         1.3113         2.4942        0.44528
  10613.517060        86.4657         1.9450         2.4955        0.35782
  10615.157480        79.7968         1.4908         2.5026        0.32657
  10616.797900        78.0979         1.3435         2.4656        0.37118
  10618.438320        77.4037         1.3110         2.4649        0.37302
  10620.078740        79.0589         1.3840         2.4536        0.38222
  10621.719160        85.4675         1.2470         2.4458        0.40804
  10623.359580        93.3334         1.1660         2.4284        0.43024
  10625.000000        96.0920         1.1200         2.4290        0.45806
  10626.640420       102.1076         1.0478         2.4193        0.45584
  10628.280840       133.3754         0.9536         2.3888        0.49115
  10629.921260       175.0811         1.5737         2.2148        0.54022
  10631.561680       153.6700         1.7526         2.1887        0.51895
