~Version Information Block
VERS .                  2.0:  CWLS LOG ASCII STANDARD - VERSION 2.0
WRAP .                   NO:  One line per depth step
~Well Information Block
#MNEM.UNIT        Data Type   Information
#---------- ----------------  -----------
STRT .FT            1860.00:  START DEPTH
STOP .FT           10042.00:  STOP DEPTH
STEP .FT               0.50:  STEP
NULL .              -999.25:  NULL VALUE
COMP .                     :  COMPANY
WELL .             SA-15RD3:  WELL
FLD  .                     :  FIELD
LOC  .                     :  LOCATION
CTRY .                     :  COUNTRY
STAT .                     :  STATE
CNTY .                     :  COUNTY
SRVC .                     :  SERVICE COMPANY
DATE .                     :  DATE
API  .                     :  API NUMBER
UWI  .                     :  UNIQUE WELL ID
~Curve Information Block
#MNEM.UNIT         API CODE   Curve Description
#---------- ----------------  -----------------
DEPTH.FT                   :  DEPTH
GR   .GAPI                 :  Gamma Ray
RT   .OHMM                 :  Deep resistivity
RHOB .G/C3                 :  IFC(DEPTH>8079&DEPTH<8084,DRHO,RHOB_EDT)
NPHI .V/V                  :  Neutron porosity
~Parameter Information Block
#MNEM.UNIT            Value   Description
#---------- ----------------  -----------
PROJECT.            SERANG_FE:  
~Other Information Block
# 
~A       DEPTH             GR             RT           RHOB           NPHI 
# ...
       5070.00        36.8300         2.4700      -999.2500    -999.250000
       5070.50        40.0100         2.1800      -999.2500    -999.250000
       5071.00        43.4500         1.9800      -999.2500    -999.250000
       5071.50        48.2800         1.7700      -999.2500    -999.250000
       5072.00        47.2700         1.6600      -999.2500    -999.250000
       5072.50        61.9900         1.5800      -999.2500    -999.250000
       5073.00        68.0900         1.5500      -999.2500    -999.250000
       5073.50        72.0700         1.5000      -999.2500    -999.250000
       5074.00        73.5500         1.4600      -999.2500    -999.250000
       5074.50        75.8100         1.4100      -999.2500    -999.250000
       5075.00        77.0800         1.3400      -999.2500    -999.250000
       5075.50        84.7000         1.3000      -999.2500    -999.250000
       5076.00        84.5600         1.2700      -999.2500    -999.250000
       5076.50        83.5200         1.2500      -999.2500    -999.250000
       5077.00        82.1400         1.2200      -999.2500    -999.250000
       5077.50        77.3000         1.2000      -999.2500    -999.250000
       5078.00        79.3400         1.1700      -999.2500    -999.250000
       5078.50        80.3400         1.1700      -999.2500    -999.250000
       5079.00        83.3000         1.1700      -999.2500    -999.250000
       5079.50        91.1600         1.1800      -999.2500    -999.250000
       5080.00        91.1600         1.1700      -999.2500    -999.250000
       5080.50        92.7200         1.2300      -999.2500    -999.250000
       5081.00        92.2800         1.3100      -999.2500    -999.250000
       5081.50        77.0800         1.3700      -999.2500    -999.250000
       5082.00        72.6200         1.4000      -999.2500    -999.250000
       5082.50        73.6600         1.4100      -999.2500    -999.250000
       5083.00        64.9100         1.4100      -999.2500    -999.250000
       5083.50        64.4300         1.3800      -999.2500    -999.250000
       5084.00        71.9100         1.4000      -999.2500    -999.250000
       5084.50        72.3900         1.3800      -999.2500    -999.250000
       5085.00        72.3900         1.3500      -999.2500    -999.250000
       5085.50        75.5700         1.3100      -999.2500    -999.250000
       5086.00        76.8400         1.2300      -999.2500    -999.250000
       5086.50        79.5400         1.1900      -999.2500    -999.250000
       5087.00        93.2900         1.1700      -999.2500    -999.250000
       5087.50        82.6500         1.1600      -999.2500    -999.250000
       5088.00        88.9300         1.1600      -999.2500    -999.250000
       5088.50        90.3600         1.1600      -999.2500    -999.250000
       5089.00        95.6900         1.1700      -999.2500    -999.250000
       5089.50        92.5100         1.1900      -999.2500    -999.250000
       5090.00        96.5900         1.1900      -999.2500    -999.250000
       5090.50        96.0900         1.2000      -999.2500    -999.250000
       5091.00        87.7400         1.2700      -999.2500    -999.250000
       5091.50        80.5800         1.4700      -999.2500    -999.250000
       5092.00        70.0000         2.1400      -999.2500    -999.250000
       5092.50        56.2200         3.2900      -999.2500    -999.250000
       5093.00        40.8000         3.9100      -999.2500    -999.250000
       5093.50        38.4200         3.8100      -999.2500    -999.250000
       5094.00        41.5000         3.6600      -999.2500    -999.250000
       5094.50        46.9300         3.9300      -999.2500    -999.250000
       5095.00        46.6100         4.4700      -999.2500    -999.250000
       5095.50        42.9500         4.5200      -999.2500    -999.250000
       5096.00        39.7700         4.2000      -999.2500    -999.250000
       5096.50        39.7500         4.1200      -999.2500    -999.250000
       5097.00        32.5300         3.7500      -999.2500    -999.250000
       5097.50        26.7300         3.2300      -999.2500    -999.250000
       5098.00        24.1000         3.1100      -999.2500    -999.250000
       5098.50        23.5500         3.0300      -999.2500    -999.250000
       5099.00        22.9500         2.8100      -999.2500    -999.250000
       5099.50        21.4800         2.7500      -999.2500    -999.250000
       5100.00        22.1900         2.8400      -999.2500    -999.250000
       5100.50        28.0800         2.9200      -999.2500    -999.250000
       5101.00        25.9300         3.0200      -999.2500    -999.250000
       5101.50        29.1100         3.1400      -999.2500    -999.250000
       5102.00        26.4100         3.4000      -999.2500    -999.250000
       5102.50        27.6000         3.5300      -999.2500    -999.250000
       5103.00        25.9300         3.6900      -999.2500    -999.250000
       5103.50        24.9000         3.8300      -999.2500    -999.250000
       5104.00        28.8700         4.1800      -999.2500    -999.250000
       5104.50        25.2300         4.1900      -999.2500    -999.250000
       5105.00        22.9300         4.1400      -999.2500    -999.250000
       5105.50        20.6000         3.9600      -999.2500    -999.250000
       5106.00        20.3600         4.0100      -999.2500    -999.250000
       5106.50        19.9100         4.2000      -999.2500    -999.250000
       5107.00        19.3300         4.2700      -999.2500    -999.250000
       5107.50        13.0800         4.5500      -999.2500    -999.250000
       5108.00        12.7300         4.7600      -999.2500    -999.250000
       5108.50        21.4800         4.9700      -999.2500    -999.250000
       5109.00        31.8200         5.1700      -999.2500    -999.250000
       5109.50        34.5500         5.1000      -999.2500    -999.250000
       5110.00        29.4300         5.0600      -999.2500    -999.250000
       5110.50        25.9300         5.0200      -999.2500    -999.250000
       5111.00        31.6900         4.4200      -999.2500    -999.250000
       5111.50        37.6200         4.1800      -999.2500    -999.250000
       5112.00        46.3800         4.0200      -999.2500    -999.250000
       5112.50        48.2000         4.1000      -999.2500    -999.250000
       5113.00        44.2900         4.0300      -999.2500    -999.250000
       5113.50        42.6400         4.5500      -999.2500    -999.250000
       5114.00        40.2500         4.9800      -999.2500    -999.250000
       5114.50        35.7900         5.2900      -999.2500    -999.250000
       5115.00        36.0300         5.9600      -999.2500    -999.250000
       5115.50        34.4300         6.8400      -999.2500    -999.250000
       5116.00        29.1100         7.3100      -999.2500    -999.250000
       5116.50        26.7300         7.5600      -999.2500    -999.250000
       5117.00        28.1700         6.8900      -999.2500    -999.250000
       5117.50        28.8800         6.8400      -999.2500    -999.250000
       5118.00        36.5800         6.7700      -999.2500    -999.250000
       5118.50        28.0800         6.8500      -999.2500    -999.250000
       5119.00        29.6700         6.7900      -999.2500    -999.250000
       5119.50        37.6200         6.9800      -999.2500    -999.250000
       5120.00        38.3600         6.7900      -999.2500    -999.250000
       5120.50        35.0000         6.2100      -999.2500    -999.250000
       5121.00        30.7900         4.9700      -999.2500    -999.250000
       5121.50        33.8900         3.5700      -999.2500    -999.250000
       5122.00        47.9700         2.8500      -999.2500    -999.250000
       5122.50        49.0200         2.4100      -999.2500    -999.250000
       5123.00        54.0900         2.1400      -999.2500    -999.250000
