~Version Information Block
VERS .                  2.0:  CWLS LOG ASCII STANDARD - VERSION 2.0
WRAP .                   NO:  One line per depth step
~Well Information Block
#MNEM.UNIT        Data Type   Information
#---------- ----------------  -----------
STRT .FT            1860.00:  START DEPTH
STOP .FT           10042.00:  STOP DEPTH
STEP .FT               0.50:  STEP
NULL .              -999.25:  NULL VALUE
COMP .                     :  COMPANY
WELL .             SA-15RD3:  WELL
FLD  .                     :  FIELD
LOC  .                     :  LOCATION
CTRY .                     :  COUNTRY
STAT .                     :  STATE
CNTY .                     :  COUNTY
SRVC .                     :  SERVICE COMPANY
DATE .                     :  DATE
API  .                     :  API NUMBER
UWI  .                     :  UNIQUE WELL ID
~Curve Information Block
#MNEM.UNIT         API CODE   Curve Description
#---------- ----------------  -----------------
DEPTH.FT                   :  DEPTH
GR   .GAPI                 :  Gamma Ray
RT   .OHMM                 :  Deep resistivity
RHOB .G/C3                 :  IFC(DEPTH>8079&DEPTH<8084,DRHO,RHOB_EDT)
NPHI .V/V                  :  Neutron porosity
~Parameter Information Block
#MNEM.UNIT            Value   Description
#---------- ----------------  -----------
PROJECT.            SERANG_FE:  
~Other Information Block
# 
~A       DEPTH             GR             RT           RHOB           NPHI 
# ...
       7798.50        85.6740         3.4574         2.4016       0.335000
       7799.00        79.3917         3.5428         2.3790       0.319300
       7799.50        73.5277         3.7164         2.3591       0.313000
       7800.00        74.9578         3.7745         2.3529       0.308200
       7800.50        84.8412         3.2946         2.3699       0.330800
       7801.00        96.7555         2.5838         2.3937       0.360200
       7801.50       104.0998         2.2627         2.4190       0.393300
       7802.00       105.0030         2.1364         2.4398       0.423500
       7802.50       103.2489         2.0759         2.4332       0.400100
       7803.00       100.8832         2.0065         2.4196       0.405700
       7803.50       100.8585         1.9667         2.4122       0.414300
       7804.00       102.8319         1.8903         2.4102       0.403000
       7804.50       105.4188         1.8300         2.4100       0.414100
       7805.00       104.9497         1.8300         2.4102       0.420000
       7805.50       107.1680         1.8280         2.4112       0.420600
       7806.00       106.3157         1.8037         2.4170       0.424400
       7806.50       112.5554         1.7674         2.4313       0.450400
       7807.00       113.3371         1.7479         2.4448       0.472900
       7807.50       117.0306         1.7470         2.4525       0.477500
       7808.00       113.6945         1.7532         2.4434       0.459200
       7808.50       108.9842         1.7886         2.3971       0.442400
       7809.00        91.5663         1.8535         2.3746       0.403500
       7809.50        71.1818         2.1091         2.3672       0.403600
       7810.00        49.1045         3.8022         2.2820       0.375200
       7810.50        41.2766         5.4522         2.2461       0.327500
       7811.00        37.3089         5.0122         2.3125       0.305000
       7811.50        42.4127         3.3396         2.3422       0.326800
       7812.00        46.1559         3.0585         2.3222       0.356800
       7812.50        49.1319         2.9365         2.3084       0.349100
       7813.00        49.1298         2.6287         2.3188       0.351500
       7813.50        50.9074         2.4679         2.3331       0.407400
       7814.00        56.0441         2.5593         2.3582       0.479000
       7814.50        63.5750         2.5880         2.4059       0.464300
       7815.00        72.0393         2.3473         2.3597       0.462600
       7815.50        77.3934         2.2069         2.2856       0.495000
       7816.00        80.2138         2.0881         2.2923       0.500200
       7816.50        81.8971         2.0975         2.2831       0.530800
       7817.00        82.7291         2.1850         2.2859       0.530500
       7817.50        79.1832         2.3569         2.2827       0.513200
       7818.00        71.3641         2.7129         2.2552       0.517600
       7818.50        64.8906         2.7802         2.2398       0.505900
       7819.00        59.4346         2.6902         2.2228       0.504200
       7819.50        57.4168         2.7559         2.2147       0.507500
       7820.00        58.0202         2.5804         2.2214       0.497600
       7820.50        59.8847         2.5377         2.2384       0.474800
       7821.00        60.8867         2.8196         2.1898       0.460900
       7821.50        62.4811         2.4117         2.2417       0.485800
       7822.00        61.8847         2.3427         2.2942       0.486000
       7822.50        62.0802         2.3559         2.2998       0.443900
       7823.00        58.1980         2.3146         2.2797       0.393400
       7823.50        57.0226         2.2582         2.2613       0.323200
       7824.00        57.3147         2.2127         2.2803       0.337400
       7824.50        57.7903         2.1590         2.2816       0.328700
       7825.00        60.7921         2.1241         2.2664       0.387000
       7825.50        61.1830         2.1038         2.2450       0.360600
       7826.00        63.0436         2.1091         2.2246       0.364900
       7826.50        64.1190         2.1938         2.2303       0.373300
       7827.00        63.5327         2.2643         2.2656       0.402200
       7827.50        62.9832         2.3381         2.3002       0.441400
       7828.00        63.2463         2.4398         2.3100       0.467300
       7828.50        63.6196         2.3608         2.3104       0.495300
       7829.00        61.6959         2.3970         2.3142       0.528900
       7829.50        58.8126         2.2364         2.3293       0.489300
       7830.00        56.6008         2.1106         2.3461       0.415200
       7830.50        59.4485         2.1592         2.3601       0.385800
       7831.00        60.6590         2.2329         2.3542       0.350700
       7831.50        64.2471         2.2257         2.3414       0.382800
       7832.00        61.5635         2.1665         2.3272       0.326500
       7832.50        58.0742         2.2823         2.3143       0.315300
       7833.00        52.6344         2.1567         2.3219       0.290900
       7833.50        49.7544         1.9904         2.3239       0.307900
       7834.00        48.2498         1.9244         2.3032       0.341300
       7834.50        47.5392         1.8146         2.2377       0.346500
       7835.00        47.1517         1.7633         2.1753       0.307300
       7835.50        45.0454         1.7309         2.1527       0.291300
       7836.00        41.8577         1.6685         2.1472       0.304100
       7836.50        37.3235         1.5131         2.1648       0.316800
       7837.00        33.4115         1.2226         2.1827       0.314400
       7837.50        27.9208         1.0393         2.1882       0.313200
       7838.00        23.8092         0.9922         2.1850       0.300900
       7838.50        20.1838         0.9747         2.1874       0.281300
       7839.00        20.1977         0.9814         2.2025       0.271000
       7839.50        21.3617         1.0133         2.2195       0.282100
       7840.00        27.2899         1.0422         2.2556       0.304100
       7840.50        36.9307         1.2008         2.3211       0.343100
       7841.00        52.5499         1.5577         2.3236       0.372100
       7841.50        65.4718         2.0518         2.2731       0.396200
       7842.00        75.8964         2.3911         2.2283       0.452100
       7842.50        77.3690         2.6463         2.2126       0.471000
       7843.00        78.6854         2.7723         2.2969       0.475600
       7843.50        75.4234         2.7900         2.3723       0.441800
       7844.00        78.6740         2.7815         2.4065       0.408500
       7844.50        81.4289         2.7041         2.3943       0.400700
       7845.00        85.2756         2.6737         2.3584       0.406900
       7845.50        83.7220         2.6070         2.3133       0.412900
       7846.00        80.9227         2.6428         2.2905       0.399000
       7846.50        79.1458         2.7336         2.3337       0.393900
       7847.00        79.6031         2.7176         2.3795       0.433900
       7847.50        81.8744         2.5706         2.4102       0.446100
       7848.00        84.1928         2.4608         2.4110       0.460800
       7848.50        86.0030         2.4874         2.4171       0.412600
       7849.00        87.2414         2.3626         2.4121       0.421700
       7849.50        88.0204         2.2947         2.4010       0.447700
       7850.00        88.6206         2.2675         2.3986       0.478700
       7850.50        88.3765         2.2242         2.4187       0.479100
       7851.00        87.2798         2.2164         2.4619       0.437800
       7851.50        82.4023         2.2791         2.4881       0.367600
