~Version Information Block
VERS .                  2.0:  CWLS LOG ASCII STANDARD - VERSION 2.0
WRAP .                   NO:  One line per depth step
~Well Information Block
#MNEM.UNIT        Data Type   Information
#---------- ----------------  -----------
STRT .FT        8000.328084:  START DEPTH
STOP .FT       11551.837384:  STOP DEPTH
STEP .FT           1.640420:  STEP
NULL .              -999.25:  NULL VALUE
COMP .                     :  COMPANY
WELL .           SA-15RD1ST:  WELL
FLD  .                     :  FIELD
LOC  .                     :  LOCATION
CTRY .                     :  COUNTRY
STAT .                     :  STATE
CNTY .                     :  COUNTY
SRVC .                     :  SERVICE COMPANY
DATE .                     :  DATE
API  .                     :  API NUMBER
UWI  .                     :  UNIQUE WELL ID
~Curve Information Block
#MNEM.UNIT         API CODE   Curve Description
#---------- ----------------  -----------------
DEPTH.FT                   :  
GR   .GAPI                 :  Merged WIRE with WIRE_ST at 9000.00 F
RT   .OHMM                 :  Merged WIRE with WIRE_ST at 9000.00 F
RHOB .G/C3                 :  Merged WIRE with WIRE_ST at 9000.00 F
NPHI .V/V                  :  Merged WIRE with WIRE_ST at 9000.00 F
~Parameter Information Block
#MNEM.UNIT            Value   Description
#---------- ----------------  -----------
PROJECT.            SERANG_FE:  
~Other Information Block
# 
~A       DEPTH             GR             RT           RHOB           NPHI 
# ...
   9580.052493       129.7387         1.3572         2.2758        0.43001
   9581.692913        98.6380         1.2790         2.4056        0.38852
   9583.333333        87.1527         1.1310         2.4067        0.40145
   9584.973753        86.8204         1.1422         2.4103        0.40551
   9586.614173        86.5382         1.1568         2.3821        0.40003
   9588.254593        88.8285         1.1905         2.4190        0.39223
   9589.895013        93.2035         1.0142         2.4113        0.42993
   9591.535433        96.1314         1.0692         2.3915        0.44332
   9593.175853       113.3021         1.2814         2.3104        0.34463
   9594.816273       126.3353         1.4337         2.2748        0.34058
   9596.456693       119.2888         1.4464         2.2480        0.41528
   9598.097113       116.9091         1.0685         2.3356        0.38304
   9599.737533       124.4531         1.5583         2.3069        0.38112
   9601.377953       113.9628         1.3777         2.2420        0.43383
   9603.018373        94.5670         1.5741         2.3280        0.39879
   9604.658793        75.0639         1.8820         2.3520        0.36975
   9606.299213        66.6459         1.9682         2.3590        0.34555
   9607.939633        64.2909         2.1679         2.3252        0.32810
   9609.580052        67.0682         2.1504         2.3071        0.33718
   9611.220472        75.4309         1.9185         2.3379        0.35911
   9612.860892        77.0746         1.8482         2.3587        0.35929
   9614.501312        73.3190         1.8060         2.4080        0.34826
   9616.141732        74.3408         1.7777         2.3861        0.36997
   9617.782152        75.7880         1.8070         2.4048        0.40023
   9619.422572        76.1592         1.8295         2.3995        0.38614
   9621.062992        76.1575         1.7385         2.3803        0.38835
   9622.703412        77.3670         1.6967         2.3968        0.39575
   9624.343832        76.6317         1.6478         2.3816        0.41225
   9625.984252        78.4901         1.5920         2.3799        0.39653
   9627.624672        83.7252         1.5717         2.3925        0.38337
   9629.265092        86.3938         1.5410         2.4013        0.36450
   9630.905512        81.8157         1.5563         2.4087        0.40319
   9632.545932        78.8542         1.5257         2.3856        0.44707
   9634.186352        81.6873         1.4861         2.4015        0.41757
   9635.826772        85.2994         1.4403         2.4047        0.45751
   9637.467192        87.2598         1.4270         2.4121        0.45809
   9639.107612        82.1171         1.4125         2.4076        0.44163
   9640.748031        83.3601         1.3121         2.3776        0.44851
   9642.388451        82.6508         1.2788         2.3826        0.45785
   9644.028871        69.5088         2.5052         2.3851        0.37604
   9645.669291        50.3004         4.0458         2.2932        0.21940
   9647.309711        46.8957         2.6897         2.2255        0.26893
   9648.950131        55.4753         1.9285         2.2957        0.33058
   9650.590551        64.9278         1.6364         2.3815        0.32788
   9652.230971        67.0420         1.6750         2.3953        0.29958
   9653.871391        70.2200         1.3898         2.4255        0.34060
   9655.511811        70.8559         1.6736         2.4335        0.34720
   9657.152231        67.7865         1.5473         2.4618        0.33262
   9658.792651        67.9054         1.7190         2.4471        0.33498
   9660.433071        58.4560         3.1341         2.4228        0.29648
   9662.073491        50.0952         4.7893         2.4613        0.21299
   9663.713911        50.2435         4.1082         2.5186        0.19730
   9665.354331        58.7741         2.6892         2.4184        0.25816
   9666.994751        66.2398         2.2550         2.3600        0.29287
   9668.635171        74.8199         1.7350         2.3535        0.31719
   9670.275591        71.6955         1.6130         2.3717        0.36769
   9671.916010        75.9338         1.4739         2.4048        0.38613
   9673.556430        80.6701         1.3600         2.4038        0.40114
   9675.196850        77.5462         1.3737         2.4284        0.40662
   9676.837270        76.3249         1.3500         2.4129        0.39904
   9678.477690        80.5201         1.3420         2.4090        0.39224
   9680.118110        83.8993         1.2328         2.4018        0.38808
   9681.758530        75.6932         1.7401         2.4341        0.38408
   9683.398950        80.9165         1.6070         2.4430        0.35345
   9685.039370        79.2164         1.6050         2.4143        0.35845
   9686.679790        63.4506         1.8573         2.3503        0.31928
   9688.320210        57.7362         1.7382         2.2715        0.29249
   9689.960630        68.5391         1.2830         2.3106        0.36844
   9691.601050        80.2077         1.1763         2.3774        0.45290
   9693.241470        87.1901         0.9614         2.3792        0.47585
   9694.881890        96.8430         0.8640         2.3792        0.52789
   9696.522310        92.1367         0.9741         2.3774        0.52818
   9698.162730        83.2898         1.0493         2.3436        0.48947
   9699.803150        80.8798         1.2480         2.3752        0.44926
   9701.443570        81.3232         1.1120         2.3960        0.45429
   9703.083990        77.3875         1.5590         2.3583        0.39980
   9704.724409        70.5283         1.2390         2.3750        0.32957
   9706.364829        72.6264         1.2750         2.3776        0.32651
   9708.005249        74.7354         1.4484         2.3444        0.33853
   9709.645669        83.3772         1.7940         2.3117        0.38325
   9711.286089        83.1123         1.7910         2.3197        0.37619
   9712.926509        75.5795         1.9899         2.4250        0.34678
   9714.566929        75.5411         2.0400         2.4273        0.34628
   9716.207349        70.7684         2.0160         2.4196        0.37770
   9717.847769        64.1620         1.9648         2.4069        0.36210
   9719.488189        65.5829         1.8699         2.4238        0.35774
   9721.128609        74.0012         1.8170         2.4176        0.34645
   9722.769029        77.5396         1.7967         2.4218        0.31597
   9724.409449        73.3217         1.7891         2.4233        0.35143
   9726.049869        72.8216         1.7720         2.4227        0.36807
   9727.690289        79.4885         1.7070         2.4269        0.38943
   9729.330709        82.0647         1.7290         2.4161        0.41870
   9730.971129        77.2439         1.7319         2.4167        0.42295
   9732.611549        76.7269         1.7320         2.4283        0.39043
   9734.251969        80.4559         1.7400         2.4290        0.39007
   9735.892388        77.1244         1.7380         2.4076        0.40409
   9737.532808        69.5972         1.6806         2.3969        0.38372
   9739.173228        68.2054         1.6410         2.3870        0.40651
   9740.813648        73.4687         1.6180         2.4103        0.39201
   9742.454068        70.2674         1.6303         2.4044        0.39229
   9744.094488        73.4491         1.6290         2.3926        0.42435
   9745.734908        76.1582         1.5940         2.4029        0.42235
   9747.375328        79.1080         1.5770         2.4040        0.43973
   9749.015748        84.3710         1.5910         2.3950        0.43016
   9750.656168        83.2209         1.6171         2.3897        0.42480
   9752.296588        86.6153         1.5762         2.3988        0.42414
   9753.937008        82.3453         1.5200         2.4031        0.44758
