~Version Information Block
VERS .                  2.0:  CWLS LOG ASCII STANDARD - VERSION 2.0
WRAP .                   NO:  One line per depth step
~Well Information Block
#MNEM.UNIT        Data Type   Information
#---------- ----------------  -----------
STRT .FT        8000.328084:  START DEPTH
STOP .FT       11551.837384:  STOP DEPTH
STEP .FT           1.640420:  STEP
NULL .              -999.25:  NULL VALUE
COMP .                     :  COMPANY
WELL .           SA-15RD1ST:  WELL
FLD  .                     :  FIELD
LOC  .                     :  LOCATION
CTRY .                     :  COUNTRY
STAT .                     :  STATE
CNTY .                     :  COUNTY
SRVC .                     :  SERVICE COMPANY
DATE .                     :  DATE
API  .                     :  API NUMBER
UWI  .                     :  UNIQUE WELL ID
~Curve Information Block
#MNEM.UNIT         API CODE   Curve Description
#---------- ----------------  -----------------
DEPTH.FT                   :  
GR   .GAPI                 :  Merged WIRE with WIRE_ST at 9000.00 F
RT   .OHMM                 :  Merged WIRE with WIRE_ST at 9000.00 F
RHOB .G/C3                 :  Merged WIRE with WIRE_ST at 9000.00 F
NPHI .V/V                  :  Merged WIRE with WIRE_ST at 9000.00 F
~Parameter Information Block
#MNEM.UNIT            Value   Description
#---------- ----------------  -----------
PROJECT.            SERANG_FE:  
~Other Information Block
# 
~A       DEPTH             GR             RT           RHOB           NPHI 
# ...
  11335.301837        73.4640         1.6080         2.4798        0.35589
  11336.942257        69.8885         1.7906         2.4575        0.33195
  11338.582677        69.5402         1.8862         2.4535        0.30865
  11340.223097        71.7393         1.8440         2.4714        0.32364
  11341.863517        78.5185         1.7114         2.4526        0.33451
  11343.503937        85.5262         1.5880         2.4570        0.33885
  11345.144357        85.8919         1.5010         2.4448        0.35457
  11346.784777        80.9536         1.3656         2.4651        0.37539
  11348.425197        79.8819         1.3488         2.5016        0.35320
  11350.065617        75.8959         1.3862         2.4947        0.36507
  11351.706037        80.0712         1.3554         2.4915        0.36879
  11353.346457        74.4632         1.3568         2.4923        0.35383
  11354.986877        67.2088         3.0710         2.5361        0.27508
  11356.627297        64.8805         1.8229         2.5117        0.28127
  11358.267717        68.7689         1.5431         2.4793        0.31631
  11359.908136        60.1295         2.8189         2.3914        0.23871
  11361.548556        42.9662         4.3161         2.1777        0.16505
  11363.188976        37.8727         4.9665         2.2083        0.18662
  11364.829396        35.5387         7.2661         2.1606        0.17951
  11366.469816        36.1007         8.8763         2.1319        0.18995
  11368.110236        42.4509        10.4924         2.1494        0.22399
  11369.750656        47.9016         7.5879         2.1900        0.25711
  11371.391076        55.7782         4.7378         2.2710        0.25875
  11373.031496        60.5639         3.5059         2.3370        0.28232
  11374.671916        66.2341         2.5567         2.3659        0.30220
  11376.312336        70.6094         1.7359         2.4291        0.33223
  11377.952756        72.8037         1.8168         2.4508        0.30231
  11379.593176        71.0432         2.1814         2.4075        0.27607
  11381.233596        78.8674         2.7399         2.2993        0.33449
  11382.874016        87.0244         1.7544         2.2694        0.41168
  11384.514436        73.9821         1.4088         2.4313        0.36440
  11386.154856        69.5015         1.9727         2.4872        0.29033
  11387.795276        65.1385         2.4875         2.4436        0.27158
  11389.435696        61.9071         2.9471         2.3799        0.28282
  11391.076115        66.3153         2.9166         2.3563        0.27779
  11392.716535        66.7817         2.7394         2.3208        0.28391
  11394.356955        59.8125         3.4634         2.3023        0.26518
  11395.997375        57.2821         3.3572         2.2809        0.25727
  11397.637795        47.7996         5.4558         2.1956        0.21334
  11399.278215        44.9527         5.1354         2.1620        0.21171
  11400.918635        43.6149         5.5926         2.1780        0.21723
  11402.559055        38.8828         6.2392         2.1531        0.20618
  11404.199475        40.1602         3.6926         2.1940        0.24535
  11405.839895        40.5273         5.0486         2.1900        0.25541
  11407.480315        43.7503         4.5241         2.2202        0.26005
  11409.120735        51.9647         4.0784         2.2037        0.26493
  11410.761155        65.9855         2.7691         2.3462        0.28013
  11412.401575        71.6127         2.6871         2.4016        0.30834
  11414.041995        73.5913         2.6159         2.4062        0.29432
  11415.682415        77.8553         2.5646         2.3828        0.30160
  11417.322835        78.5904         2.4208         2.4179        0.30871
  11418.963255        76.9256         2.2937         2.4346        0.31398
  11420.603675        77.2818         2.4315         2.4145        0.30209
  11422.244094        71.8984         2.8333         2.3920        0.28120
  11423.884514        70.2823         2.7675         2.3587        0.28870
  11425.524934        74.6719         2.8249         2.3554        0.28864
  11427.165354        82.5406         2.5185         2.3930        0.30993
  11428.805774        79.6253         2.2029         2.4323        0.32082
  11430.446194        74.0972         1.9313         2.4601        0.32302
  11432.086614        68.3246         2.0367         2.4461        0.30566
  11433.727034        70.0045         2.1083         2.4252        0.31084
  11435.367454        78.3186         1.8452         2.4707        0.33355
  11437.007874        86.8574         1.6752         2.4878        0.39063
  11438.648294        89.9553         1.4132         2.4906        0.37111
  11440.288714        81.4217         1.4032         2.4752        0.32755
  11441.929134        71.7786         2.5661         2.4630        0.32222
  11443.569554        79.8857         1.2756         2.4813        0.36738
  11445.209974        81.5633         1.2411         2.4898        0.38214
  11446.850394        80.0213         1.3559         2.4679        0.34936
  11448.490814        78.6600         1.1617         2.4671        0.32329
  11450.131234        64.9902         2.9358         2.4448        0.25094
  11451.771654        52.9945         3.5165         2.3257        0.23918
  11453.412073        49.6942         3.7146         2.2982        0.24546
  11455.052493        54.3329         2.7074         2.3925        0.24523
  11456.692913        60.2908         2.3129         2.4781        0.24261
  11458.333333        64.5123         1.9727         2.4753        0.25436
  11459.973753        70.6642         1.4344         2.4533        0.32206
  11461.614173        76.9126         1.1443         2.4546        0.33272
  11463.254593        75.2464         1.6593         2.4480        0.31012
  11464.895013        75.8705         1.4588         2.4500        0.32404
  11466.535433        71.1134         1.4978         2.4446        0.33704
  11468.175853        61.3808         2.3580         2.4426        0.26256
  11469.816273        64.1029         2.4127         2.4425        0.24379
  11471.456693        70.1882         2.5715         2.4162        0.26305
  11473.097113        75.4225         1.8080         2.4549        0.32261
  11474.737533        74.5346         1.4863         2.4754        0.34301
  11476.377953        72.4907         1.2986         2.4941        0.34964
  11478.018373        58.3813         3.0315         2.4654        0.21582
  11479.658793        50.1918         4.1700         2.3813       -3.04833
  11481.299213        47.6566         6.1069         2.3695       -9.99000
  11482.939633        45.1775         7.0542         2.3511       -9.99000
  11484.580052        44.8575         7.9342         2.4761       -9.99000
  11486.220472        44.4097         6.4854         2.5142       -9.99000
  11487.860892        41.3842         6.8189         2.5191       -9.99000
  11489.501312        40.1940         6.4900         2.5290       -9.99000
  11491.141732        42.3529      -999.0000         2.5333       -9.99000
  11492.782152        46.2445      -999.0000         2.5543       -9.99000
  11494.422572        51.3300      -999.0000         2.5331       -9.99000
  11496.062992        45.5316      -999.0000         2.4865       -9.99000
  11497.703412        38.4257      -999.0000      -999.2500       -9.99000
  11499.343832        31.3993      -999.0000      -999.2500       -9.99000
  11500.984252        35.7134      -999.0000      -999.2500       -9.99000
  11502.624672        36.8217      -999.0000      -999.2500       -9.99000
  11504.265092        35.3559      -999.0000      -999.2500       -9.99000
  11505.905512        37.1372      -999.0000      -999.2500       -9.99000
  11507.545932        41.5820      -999.0000      -999.2500       -9.99000
  11509.186352      -999.2500      -999.0000      -999.2500       -9.99000
