~Version Information Block
VERS .                  2.0:  CWLS LOG ASCII STANDARD - VERSION 2.0
WRAP .                   NO:  One line per depth step
~Well Information Block
#MNEM.UNIT        Data Type   Information
#---------- ----------------  -----------
STRT .FT            1860.00:  START DEPTH
STOP .FT           10042.00:  STOP DEPTH
STEP .FT               0.50:  STEP
NULL .              -999.25:  NULL VALUE
COMP .                     :  COMPANY
WELL .             SA-15RD3:  WELL
FLD  .                     :  FIELD
LOC  .                     :  LOCATION
CTRY .                     :  COUNTRY
STAT .                     :  STATE
CNTY .                     :  COUNTY
SRVC .                     :  SERVICE COMPANY
DATE .                     :  DATE
API  .                     :  API NUMBER
UWI  .                     :  UNIQUE WELL ID
~Curve Information Block
#MNEM.UNIT         API CODE   Curve Description
#---------- ----------------  -----------------
DEPTH.FT                   :  DEPTH
GR   .GAPI                 :  Gamma Ray
RT   .OHMM                 :  Deep resistivity
RHOB .G/C3                 :  IFC(DEPTH>8079&DEPTH<8084,DRHO,RHOB_EDT)
NPHI .V/V                  :  Neutron porosity
~Parameter Information Block
#MNEM.UNIT            Value   Description
#---------- ----------------  -----------
PROJECT.            SERANG_FE:  
~Other Information Block
# 
~A       DEPTH             GR             RT           RHOB           NPHI 
# ...
       4535.00        46.4500         3.0100      -999.2500    -999.250000
       4535.50        47.9700         2.8000      -999.2500    -999.250000
       4536.00        47.3200         3.6600      -999.2500    -999.250000
       4536.50        40.9000         3.8200      -999.2500    -999.250000
       4537.00        35.4700         4.2200      -999.2500    -999.250000
       4537.50        32.2100         4.6100      -999.2500    -999.250000
       4538.00        31.0200         4.9800      -999.2500    -999.250000
       4538.50        31.1300         4.1300      -999.2500    -999.250000
       4539.00        31.8200         3.5400      -999.2500    -999.250000
       4539.50        32.2900         3.9700      -999.2500    -999.250000
       4540.00        22.7500         4.0900      -999.2500    -999.250000
       4540.50        20.7300         3.9000      -999.2500    -999.250000
       4541.00        28.1000         3.4700      -999.2500    -999.250000
       4541.50        29.1000         2.8800      -999.2500    -999.250000
       4542.00        34.4400         3.3900      -999.2500    -999.250000
       4542.50        35.2400         5.4700      -999.2500    -999.250000
       4543.00        34.6800         5.5500      -999.2500    -999.250000
       4543.50        34.2000         2.3300      -999.2500    -999.250000
       4544.00        33.0900         2.4300      -999.2500    -999.250000
       4544.50        30.8000         3.4100      -999.2500    -999.250000
       4545.00        30.3900         4.5800      -999.2500    -999.250000
       4545.50        29.9100         4.3400      -999.2500    -999.250000
       4546.00        30.4600         4.2800      -999.2500    -999.250000
       4546.50        28.5600         4.1700      -999.2500    -999.250000
       4547.00        27.5200         4.8900      -999.2500    -999.250000
       4547.50        27.0700         4.1800      -999.2500    -999.250000
       4548.00        22.2200         3.8600      -999.2500    -999.250000
       4548.50        29.5400         3.7300      -999.2500    -999.250000
       4549.00        31.0200         3.5100      -999.2500    -999.250000
       4549.50        38.9800         3.4400      -999.2500    -999.250000
       4550.00        37.2700         3.2900      -999.2500    -999.250000
       4550.50        34.5200         3.4200      -999.2500    -999.250000
       4551.00        32.5300         3.3500      -999.2500    -999.250000
       4551.50        30.7000         3.3500      -999.2500    -999.250000
       4552.00        33.2300         3.2200      -999.2500    -999.250000
       4552.50        33.0900         2.8900      -999.2500    -999.250000
       4553.00        32.2900         2.8000      -999.2500    -999.250000
       4553.50        30.2000         2.7200      -999.2500    -999.250000
       4554.00        29.9400         2.5600      -999.2500    -999.250000
       4554.50        32.0600         2.5000      -999.2500    -999.250000
       4555.00        31.2700         2.3600      -999.2500    -999.250000
       4555.50        34.9800         2.3600      -999.2500    -999.250000
       4556.00        35.7900         2.3300      -999.2500    -999.250000
       4556.50        38.6700         2.4800      -999.2500    -999.250000
       4557.00        40.2600         2.5600      -999.2500    -999.250000
       4557.50        39.4500         2.3000      -999.2500    -999.250000
       4558.00        39.8500         1.6600      -999.2500    -999.250000
       4558.50        41.9900         1.5900      -999.2500    -999.250000
       4559.00        43.6000         2.1000      -999.2500    -999.250000
       4559.50        41.8400         2.2600      -999.2500    -999.250000
       4560.00        35.2400         2.2700      -999.2500    -999.250000
       4560.50        31.7000         2.0100      -999.2500    -999.250000
       4561.00        27.5200         1.9200      -999.2500    -999.250000
       4561.50        28.3200         1.8900      -999.2500    -999.250000
       4562.00        32.2100         1.9500      -999.2500    -999.250000
       4562.50        31.7700         2.0000      -999.2500    -999.250000
       4563.00        32.5300         1.9700      -999.2500    -999.250000
       4563.50        34.6100         1.9700      -999.2500    -999.250000
       4564.00        39.7900         1.9500      -999.2500    -999.250000
       4564.50        40.1400         1.9200      -999.2500    -999.250000
       4565.00        41.6800         1.9200      -999.2500    -999.250000
       4565.50        36.2700         1.8800      -999.2500    -999.250000
       4566.00        38.4700         1.9000      -999.2500    -999.250000
       4566.50        29.5700         1.8300      -999.2500    -999.250000
       4567.00        28.6800         1.7700      -999.2500    -999.250000
       4567.50        28.8700         1.7500      -999.2500    -999.250000
       4568.00        32.0600         1.6900      -999.2500    -999.250000
       4568.50        34.0600         1.6700      -999.2500    -999.250000
       4569.00        36.0300         1.6600      -999.2500    -999.250000
       4569.50        33.8900         1.6600      -999.2500    -999.250000
       4570.00        30.2300         1.6900      -999.2500    -999.250000
       4570.50        30.3400         1.6500      -999.2500    -999.250000
       4571.00        31.0200         1.7400      -999.2500    -999.250000
       4571.50        31.5000         1.9500      -999.2500    -999.250000
       4572.00        32.1000         2.0600      -999.2500    -999.250000
       4572.50        34.2000         2.0800      -999.2500    -999.250000
       4573.00        37.0700         2.1700      -999.2500    -999.250000
       4573.50        37.0800         2.1800      -999.2500    -999.250000
       4574.00        34.3300         2.1500      -999.2500    -999.250000
       4574.50        33.3300         2.1700      -999.2500    -999.250000
       4575.00        33.1700         2.1400      -999.2500    -999.250000
       4575.50        33.6500         2.1500      -999.2500    -999.250000
       4576.00        35.5200         2.1600      -999.2500    -999.250000
       4576.50        37.7000         2.2400      -999.2500    -999.250000
       4577.00        38.6600         2.1700      -999.2500    -999.250000
       4577.50        39.2200         1.9500      -999.2500    -999.250000
       4578.00        38.1300         1.7700      -999.2500    -999.250000
       4578.50        35.4800         1.7100      -999.2500    -999.250000
       4579.00        33.6500         1.6100      -999.2500    -999.250000
       4579.50        34.3300         1.6200      -999.2500    -999.250000
       4580.00        35.0000         1.6600      -999.2500    -999.250000
       4580.50        33.0900         1.7100      -999.2500    -999.250000
       4581.00        33.4300         1.7700      -999.2500    -999.250000
       4581.50        35.0800         1.8600      -999.2500    -999.250000
       4582.00        36.0300         1.8800      -999.2500    -999.250000
       4582.50        41.0500         1.9800      -999.2500    -999.250000
       4583.00        42.6000         1.8100      -999.2500    -999.250000
       4583.50        43.4300         1.7200      -999.2500    -999.250000
       4584.00        42.2600         1.6400      -999.2500    -999.250000
       4584.50        45.8200         1.5800      -999.2500    -999.250000
       4585.00        47.6800         1.5400      -999.2500    -999.250000
       4585.50        48.4400         1.5100      -999.2500    -999.250000
       4586.00        53.7700         1.4300      -999.2500    -999.250000
       4586.50        55.2900         1.3700      -999.2500    -999.250000
       4587.00        57.7500         1.3600      -999.2500    -999.250000
       4587.50        61.0400         1.2700      -999.2500    -999.250000
       4588.00        67.5200         1.2700      -999.2500    -999.250000
