~Version Information Block
VERS .                  2.0:  CWLS LOG ASCII STANDARD - VERSION 2.0
WRAP .                   NO:  One line per depth step
~Well Information Block
#MNEM.UNIT        Data Type   Information
#---------- ----------------  -----------
STRT .FT        8000.328084:  START DEPTH
STOP .FT       11551.837384:  STOP DEPTH
STEP .FT           1.640420:  STEP
NULL .              -999.25:  NULL VALUE
COMP .                     :  COMPANY
WELL .           SA-15RD1ST:  WELL
FLD  .                     :  FIELD
LOC  .                     :  LOCATION
CTRY .                     :  COUNTRY
STAT .                     :  STATE
CNTY .                     :  COUNTY
SRVC .                     :  SERVICE COMPANY
DATE .                     :  DATE
API  .                     :  API NUMBER
UWI  .                     :  UNIQUE WELL ID
~Curve Information Block
#MNEM.UNIT         API CODE   Curve Description
#---------- ----------------  -----------------
DEPTH.FT                   :  
GR   .GAPI                 :  Merged WIRE with WIRE_ST at 9000.00 F
RT   .OHMM                 :  Merged WIRE with WIRE_ST at 9000.00 F
RHOB .G/C3                 :  Merged WIRE with WIRE_ST at 9000.00 F
NPHI .V/V                  :  Merged WIRE with WIRE_ST at 9000.00 F
~Parameter Information Block
#MNEM.UNIT            Value   Description
#---------- ----------------  -----------
PROJECT.            SERANG_FE:  
~Other Information Block
# 
~A       DEPTH             GR             RT           RHOB           NPHI 
# ...
   8175.853018       112.1691         2.1353         2.1812        0.54311
   8177.493438       124.0888         1.6701         2.2201        0.55286
   8179.133858       124.4846         1.6883         2.1493        0.56181
   8180.774278       128.9743         2.3742         2.0790        0.60433
   8182.414698       136.3350         2.6973         2.0583        0.57586
   8184.055118       138.3887         2.9313         2.0267        0.51337
   8185.695538       135.2813         2.4161         2.0887        0.46227
   8187.335958       125.4347         1.7425         2.3002        0.47938
   8188.976378       131.3283         1.4552         2.3491        0.55491
   8190.616798       140.6029         1.2334         2.2783        0.61335
   8192.257218       149.9002         2.9283         1.9791        0.62610
   8193.897638       159.1712         3.1859         1.8500        0.61474
   8195.538058       160.4763         3.0816         2.0208        0.60146
   8197.178478       153.0008         2.6972         2.0371        0.56420
   8198.818898       139.3941         2.2729         2.1528        0.55496
   8200.459318       127.7567         1.9055         2.2084        0.52503
   8202.099738       120.9878         1.9019         2.2600        0.51686
   8203.740157       109.0095         1.9704         2.2596        0.45842
   8205.380577       104.1596         1.9481         2.3100        0.44899
   8207.020997       101.2557         1.8750         2.3204        0.44355
   8208.661417        95.4213         1.6165         2.3397        0.43138
   8210.301837        86.1076         1.7621         2.3600        0.40589
   8211.942257        87.9157         1.6481         2.3412        0.43747
   8213.582677        94.2336         1.5998         2.3035        0.48301
   8215.223097       105.5582         1.9022         2.2645        0.51752
   8216.863517       107.3160         1.9709         2.3127        0.52259
   8218.503937       106.7506         1.8901         2.3102        0.49638
   8220.144357        99.6574         2.1158         2.3087        0.52249
   8221.784777       108.5881         1.8057         2.3557        0.49664
   8223.425197       111.8468         1.7990         2.3330        0.50318
   8225.065617        99.5469         1.5913         2.3300        0.44531
   8226.706037        94.5919         1.8435         2.3441        0.40862
   8228.346457        97.7991         1.7477         2.3431        0.38953
   8229.986877        87.6071         1.7890         2.3600        0.40240
   8231.627297        79.7793         1.8749         2.3349        0.40625
   8233.267717        77.9387         1.7032         2.3246        0.37695
   8234.908136        76.0073         1.4382         2.3482        0.35791
   8236.548556        74.1735         1.4571         2.3381        0.35120
   8238.188976        67.3446         1.3800         2.3262        0.35237
   8239.829396        63.9065         1.3468         2.3134        0.35772
   8241.469816        59.6274         1.3000         2.2906        0.34484
   8243.110236        56.1442         1.2390         2.2622        0.34888
   8244.750656        60.5692         1.1601         2.2900        0.35619
   8246.391076        61.3281         1.0409         2.3022        0.37690
   8248.031496        56.0838         1.3006         2.3081        0.36588
   8249.671916        39.0130         1.1322         2.1597        0.33963
   8251.312336        23.4211         0.7863         2.0638        0.31181
   8252.952756        21.5850         0.6953         2.0691        0.30870
   8254.593176        21.6859         0.5807         2.0681        0.31089
   8256.233596        28.8053         0.5353         2.0847        0.31820
   8257.874016        41.1076         0.6573         2.1999        0.31253
   8259.514436        38.5750         0.7506         2.1994        0.31377
   8261.154856        27.0382         0.7414         2.1500        0.32374
   8262.795276        19.3668         0.6064         2.0300        0.33832
   8264.435696        18.7709         0.5413         2.0087        0.33547
   8266.076115        20.2031         0.5746         2.0100        0.31507
   8267.716535        18.3794         0.5870         2.0530        0.28103
   8269.356955        18.7855         0.6071         2.0871        0.27730
   8270.997375        19.9221         0.6200         2.1000        0.30069
   8272.637795        24.6543         0.6228         2.1100        0.31176
   8274.278215        23.2418         0.6256         2.0800        0.30686
   8275.918635        21.2618         0.6667         2.0784        0.27571
   8277.559055        19.1092         0.6976         2.1112        0.27089
   8279.199475        17.3049         0.6400         2.1200        0.27982
   8280.839895        17.6206         0.6704         2.1468        0.28971
   8282.480315        20.2348         0.7096         2.1404        0.29673
   8284.120735        19.7290         0.5752         2.1200        0.29037
   8285.761155        18.4492         0.5648         2.1000        0.29379
   8287.401575        20.8415         0.7464         2.1041        0.30712
   8289.041995        32.8351         1.1110         2.2008        0.33946
   8290.682415        53.1079         2.1076         2.3109        0.38151
   8292.322835        72.5283         1.9702         2.3865        0.38274
   8293.963255        81.8969         1.8244         2.3800        0.38381
   8295.603675        83.9280         1.6796         2.3821        0.36928
   8297.244094        85.0454         1.6793         2.3900        0.39680
   8298.884514        82.4962         1.6939         2.3669        0.41116
   8300.524934        84.9724         1.6715         2.3795        0.42373
   8302.165354        83.9227         1.6702         2.3867        0.42808
   8303.805774        83.2926         1.5439         2.3900        0.43586
   8305.446194        85.3171         1.5343         2.3911        0.43162
   8307.086614        75.9895         1.4217         2.3883        0.39561
   8308.727034        59.0910         1.5681         2.3845        0.34107
   8310.367454        52.4726         2.3627         2.4127        0.30132
   8312.007874        56.2876         1.8591         2.3983        0.30550
   8313.648294        57.4475         1.6192         2.2730        0.34476
   8315.288714        57.1294         1.5420         2.2758        0.38849
   8316.929134        60.3561         1.6699         2.2800        0.38851
   8318.569554        59.9774         2.0336         2.3314        0.34565
   8320.209974        53.6115         2.4734         2.4026        0.27656
   8321.850394        49.6206         4.2536         2.4940        0.23359
   8323.490814        50.4303         4.0150         2.5200        0.20979
   8325.131234        50.7986         3.5726         2.5174        0.21513
   8326.771654        49.1202         3.3068         2.4900        0.23372
   8328.412073        46.7940         3.0623         2.4518        0.25421
   8330.052493        44.4159         2.9558         2.4610        0.24915
   8331.692913        45.4055         3.3798         2.4877        0.23520
   8333.333333        45.7267         3.5633         2.4467        0.22930
   8334.973753        50.2757         2.5547         2.3816        0.25564
   8336.614173        55.0238         2.7906         2.4400        0.28307
   8338.254593        56.4422         2.7402         2.4500        0.28972
   8339.895013        49.7117         2.8994         2.4958        0.25017
   8341.535433        41.4421         3.2590         2.5807        0.21326
   8343.175853        38.7550         4.2357         2.5435        0.18454
   8344.816273        38.8499         4.7365         2.5600        0.17707
   8346.456693        37.5364         4.7157         2.5717        0.15796
   8348.097113        37.3963         5.7857         2.5600        0.14837
   8349.737533        35.1220         5.3260         2.5652        0.16964
