~Version Information Block
VERS .                  2.0:  CWLS LOG ASCII STANDARD - VERSION 2.0
WRAP .                   NO:  One line per depth step
~Well Information Block
#MNEM.UNIT        Data Type   Information
#---------- ----------------  -----------
STRT .FT            3123.00:  START DEPTH
STOP .FT           14590.00:  STOP DEPTH
STEP .FT               0.50:  STEP
NULL .              -999.25:  NULL VALUE
COMP .                     :  COMPANY
WELL .                SA-10:  WELL
FLD  .                     :  FIELD
LOC  .                     :  LOCATION
CTRY .                     :  COUNTRY
STAT .                     :  STATE
CNTY .                     :  COUNTY
SRVC .                     :  SERVICE COMPANY
DATE .                     :  DATE
API  .                     :  API NUMBER
UWI  .                     :  UNIQUE WELL ID
~Curve Information Block
#MNEM.UNIT         API CODE   Curve Description
#---------- ----------------  -----------------
DEPTH.FT                   :  DEPTH
GR   .GAPI                 :  Gamma Ray
RT   .OHMM                 :  Deep resistivity
RHOB .G/C3                 :  Bulk density
NPHI .V/V                  :  Neutron porosity
DT   .US/F                 :  Sonic
~Parameter Information Block
#MNEM.UNIT            Value   Description
#---------- ----------------  -----------
PROJECT.            SERANG_FE:  
~Other Information Block
# 
~A       DEPTH             GR             RT           RHOB           NPHI             DT 
# ...
      13046.50        91.4600         2.1400         2.5200       0.250000        87.6333
      13047.00        90.2000         2.1400         2.5300       0.250000        87.9333
      13047.50        89.4500         2.2800         2.5300       0.260000        88.6833
      13048.00        89.4200         2.3100         2.5300       0.260000        90.5500
      13048.50        92.8800         2.1000         2.5400       0.280000        92.4167
      13049.00        96.3600         1.8100         2.5400       0.290000        93.7667
      13049.50        97.8500         1.6300         2.5300       0.310000        94.5000
      13050.00        97.7300         1.6400         2.5300       0.320000        94.3167
      13050.50       102.0900         1.6100         2.5500       0.330000        92.3333
      13051.00       100.3400         1.4700         2.5800       0.330000        88.2000
      13051.50        94.7000         1.3800         2.6100       0.280000        81.9167
      13052.00        80.5900         1.5800         2.6300       0.210000        75.2667
      13052.50        64.4400         3.1600         2.6500       0.150000        69.6667
      13053.00        51.3600         4.1700         2.6600       0.120000        67.4000
      13053.50        43.5700         5.7000         2.6500       0.110000        66.6167
      13054.00        38.2200         5.3300         2.6300       0.110000        66.9167
      13054.50        34.9600         4.9200         2.6100       0.100000        66.8833
      13055.00        31.9200         4.7300         2.6200       0.090000        66.9333
      13055.50        32.0900         4.0000         2.6400       0.080000        66.0167
      13056.00        33.3200         3.9300         2.6400       0.070000        64.9833
      13056.50        36.3100         4.2400         2.6500       0.070000        65.1000
      13057.00        38.6900         4.3800         2.6500       0.070000        65.6667
      13057.50        37.5500         4.4200         2.6600       0.080000        67.1833
      13058.00        36.8400         3.8300         2.6400       0.090000        70.8167
      13058.50        39.1700         3.7900         2.6200       0.110000        74.3333
      13059.00        45.6000         2.9600         2.6200       0.130000        75.4333
      13059.50        47.4800         2.6300         2.6200       0.140000        74.9333
      13060.00        46.9100         3.1800         2.6200       0.130000        72.8500
      13060.50        43.9900         3.3300         2.6300       0.120000        71.7000
      13061.00        42.7000         3.4300         2.6300       0.110000        71.9833
      13061.50        42.5200         2.6800         2.6300       0.110000        73.2833
      13062.00        42.6800         2.5300         2.6300       0.120000        75.5000
      13062.50        46.4300         2.3800         2.6200       0.130000        80.1167
      13063.00        52.1700         4.1500         2.6000       0.160000        83.9000
      13063.50        59.8700         2.8800         2.5800       0.210000        88.6167
      13064.00        69.4900         1.3900         2.5800       0.250000        92.9167
      13064.50        75.9300         1.3700         2.5800       0.270000        93.5667
      13065.00        78.2300         1.5900         2.5900       0.280000        92.3167
      13065.50        75.8600         1.3800         2.5900       0.290000        89.8167
      13066.00        75.4100         1.4400         2.5900       0.270000        86.1000
      13066.50        72.9900         1.6900         2.5900       0.220000        79.0667
      13067.00        66.6100         2.3300         2.6100       0.170000        70.7167
      13067.50        51.1400         2.0500         2.6400       0.120000        64.4833
      13068.00        39.5200         4.0300         2.6700       0.080000        63.5667
      13068.50        33.8500         9.7000         2.7000       0.070000        64.7500
      13069.00        33.9500        11.3300         2.7000       0.060000        66.5500
      13069.50        35.1800        15.8300         2.6900       0.080000        73.2333
      13070.00        39.4000        10.9700         2.6500       0.100000        79.7500
      13070.50        50.0000         4.1100         2.6200       0.150000        86.4000
      13071.00        67.0200         1.6100         2.5900       0.230000        89.0833
      13071.50        78.0800         0.9600         2.5700       0.270000        86.9000
      13072.00        80.2000         1.2900         2.5800       0.250000        79.0833
      13072.50        68.6600         4.3400         2.6100       0.180000        71.7167
      13073.00        53.5600         9.1200         2.6300       0.120000        66.5667
      13073.50        39.7500        15.3400         2.6100       0.090000        66.4500
      13074.00        32.5600        13.6800         2.5500       0.090000        69.3000
      13074.50        28.8200         9.3500         2.4900       0.110000        72.9833
      13075.00        29.0000        11.4600         2.4500       0.140000        76.2333
      13075.50        28.6900         9.8900         2.4100       0.160000        77.2000
      13076.00        29.5600         8.3900         2.3900       0.170000        77.0667
      13076.50        29.6200         7.4100         2.3900       0.180000        76.4000
      13077.00        28.8000         6.8500         2.3900       0.180000        76.6167
      13077.50        29.5000         7.2300         2.4000       0.180000        77.1333
      13078.00        30.3400         7.1100         2.3800       0.190000        77.9333
      13078.50        32.4300         7.3700         2.3500       0.190000        78.5000
      13079.00        33.3600         9.2000         2.3400       0.190000        77.2000
      13079.50        35.1000         8.7600         2.3600       0.180000        74.3667
      13080.00        37.5300         8.4500         2.4000       0.160000        69.8833
      13080.50        40.4600         7.1400         2.4300       0.150000        67.2000
      13081.00        41.1100         7.5200         2.4700       0.130000        65.0833
      13081.50        39.7400         7.9300         2.5000       0.120000        66.0167
      13082.00        38.6900        10.1200         2.5100       0.120000        65.8167
      13082.50        39.4800         8.9400         2.5100       0.110000        64.9333
      13083.00        40.3100         8.8200         2.5100       0.100000        63.3667
      13083.50        39.2600         8.5700         2.5100       0.110000        66.1167
      13084.00        36.3600         9.1700         2.5000       0.120000        70.1333
      13084.50        35.8500         9.7000         2.4700       0.130000        72.3500
      13085.00        32.6900         8.7200         2.4400       0.130000        74.1833
      13085.50        31.4100         8.9000         2.4300       0.140000        74.2500
      13086.00        27.7800         8.2600         2.4400       0.140000        73.8333
      13086.50        27.6000         9.6600         2.4700       0.130000        71.9667
      13087.00        27.3700        10.2700         2.5000       0.120000        71.2500
      13087.50        27.0000         7.0600         2.5200       0.110000        70.4000
      13088.00        27.9300         5.9600         2.5500       0.100000        69.9500
      13088.50        29.4500         6.1600         2.5600       0.100000        68.5500
      13089.00        29.5100         7.5900         2.5600       0.090000        67.3833
      13089.50        29.9800         6.9600         2.5400       0.090000        66.8667
      13090.00        29.6300         5.8700         2.5600       0.080000        66.0167
      13090.50        30.7800         7.5700         2.5700       0.080000        65.5167
