~Version Information Block
VERS .                  2.0:  CWLS LOG ASCII STANDARD - VERSION 2.0
WRAP .                   NO:  One line per depth step
~Well Information Block
#MNEM.UNIT        Data Type   Information
#---------- ----------------  -----------
STRT .FT            1860.00:  START DEPTH
STOP .FT           10042.00:  STOP DEPTH
STEP .FT               0.50:  STEP
NULL .              -999.25:  NULL VALUE
COMP .                     :  COMPANY
WELL .             SA-15RD3:  WELL
FLD  .                     :  FIELD
LOC  .                     :  LOCATION
CTRY .                     :  COUNTRY
STAT .                     :  STATE
CNTY .                     :  COUNTY
SRVC .                     :  SERVICE COMPANY
DATE .                     :  DATE
API  .                     :  API NUMBER
UWI  .                     :  UNIQUE WELL ID
~Curve Information Block
#MNEM.UNIT         API CODE   Curve Description
#---------- ----------------  -----------------
DEPTH.FT                   :  DEPTH
GR   .GAPI                 :  Gamma Ray
RT   .OHMM                 :  Deep resistivity
RHOB .G/C3                 :  IFC(DEPTH>8079&DEPTH<8084,DRHO,RHOB_EDT)
NPHI .V/V                  :  Neutron porosity
~Parameter Information Block
#MNEM.UNIT            Value   Description
#---------- ----------------  -----------
PROJECT.            SERANG_FE:  
~Other Information Block
# 
~A       DEPTH             GR             RT           RHOB           NPHI 
# ...
       9938.50        14.5541        23.7930         2.6497       0.050300
       9939.00        21.2428        24.9654         2.6403       0.050000
       9939.50        27.2269        24.5961         2.6444       0.050000
       9940.00        30.5300        25.5329         2.6787       0.050000
       9940.50        28.4459        26.1090         2.6774       0.050000
       9941.00        28.3600        25.9568         2.6566       0.051400
       9941.50        29.6786        27.7595         2.6209       0.059700
       9942.00        30.6155        26.4536         2.5653       0.060000
       9942.50        28.8850        25.4644         2.5810       0.061600
       9943.00        27.4985        29.3655         2.6016       0.069700
       9943.50        27.0063        26.8960         2.6526       0.070000
       9944.00        26.5463        27.3498         2.6253       0.070000
       9944.50        22.9996        28.8748         2.6009       0.068000
       9945.00        20.2270        31.0810         2.6000       0.062300
       9945.50        21.8952        29.7903         2.6042       0.069700
       9946.00        29.0208        29.3059         2.6195       0.070000
       9946.50        36.3408        27.5345         2.6269       0.070000
       9947.00        37.4778        26.4668         2.6492       0.070000
       9947.50        32.2144        27.8769         2.6426       0.070000
       9948.00        25.8467        33.1195         2.6107       0.070000
       9948.50        24.7326        33.5126         2.5810       0.070000
       9949.00        26.4652        31.4365         2.6016       0.072700
       9949.50        25.6522        29.6141         2.6635       0.079800
       9950.00        20.3244        32.6367         2.6737       0.077100
       9950.50        17.0369        37.2737         2.6486       0.070200
       9951.00        18.6990        33.2347         2.6240       0.070000
       9951.50        23.1777        31.8043         2.6391       0.070000
       9952.00        25.0990        31.4507         2.6465       0.070000
       9952.50        24.7153        32.8707         2.6242       0.066700
       9953.00        22.4960        33.5870         2.6298       0.060200
       9953.50        22.4200        35.6980         2.6335       0.060000
       9954.00        24.1890        35.6733         2.6504       0.060000
       9954.50        25.5743        34.1137         2.6730       0.060000
       9955.00        26.0647        32.8710         2.6649       0.060000
       9955.50        23.8663        31.4477         2.6408       0.060000
       9956.00        22.9007        29.3990         2.6283       0.063900
       9956.50        21.5457        28.1410         2.5867       0.073800
       9957.00        21.5000        27.5587         2.5187       0.083900
       9957.50        23.2690        24.2147         2.4467       0.089800
       9958.00        25.5437        18.3675         2.4238       0.098400
       9958.50        26.0656        16.6161         2.4731       0.109700
       9959.00        22.9703        18.4094         2.5468       0.101900
       9959.50        19.7700        18.4500         2.6078       0.082800
       9960.00        19.6700        20.4166         2.6283       0.066800
       9960.50        22.3341        21.6522         2.6139       0.056800
       9961.00        26.4016        20.5178         2.6167       0.053300
       9961.50        27.8572        22.3206         2.6160       0.059800
       9962.00        26.5728        25.4703         2.6376       0.060000
       9962.50        23.8756        24.3978         2.6519       0.060000
       9963.00        22.0172        25.7066         2.6352       0.060000
       9963.50        22.4056        22.8438         2.6435       0.060000
       9964.00        22.8559        23.3506         2.6279       0.060000
       9964.50        23.7612        25.2300         2.6574       0.060000
       9965.00        24.2356        25.7066         2.6543       0.060000
       9965.50        23.8044        24.9837         2.6769       0.060000
       9966.00        22.8988        27.0525         2.6606       0.060000
       9966.50        21.9884        27.3041         2.6593       0.060000
       9967.00        21.5134        26.6402         2.6507       0.060000
       9967.50        20.6165        26.0860         2.6602       0.060200
       9968.00        19.6968        26.9049         2.6794       0.069700
       9968.50        20.5632        24.9301         2.6610       0.070000
       9969.00        21.9200        22.6274         2.6415       0.060700
       9969.50        23.2900        20.5407         2.6491       0.060000
       9970.00        22.0000        20.5965         2.6500       0.060000
       9970.50        20.6300        19.6486         2.6758       0.060000
       9971.00        20.5900        19.1734         2.6631       0.068400
       9971.50        26.3568        18.2765         2.6764       0.070000
       9972.00        32.3065        14.5220         2.7117       0.070000
       9972.50        35.5867        14.0120         2.7506       0.077700
       9973.00        32.1268        16.0193         2.7073       0.079900
       9973.50        25.8067        18.2838         2.6905       0.080000
       9974.00        21.1736        18.8840         2.6336       0.087000
       9974.50        20.6031        17.0360         2.6243       0.089900
       9975.00        21.0278        14.5965         2.5173       0.096600
       9975.50        20.1546        12.3118         2.4039       0.106300
       9976.00        17.9020        11.2479         2.3708       0.116100
       9976.50        20.0680         9.7995         2.4413       0.119900
       9977.00        27.2518         8.6606         2.5575       0.120000
       9977.50        33.2291         8.4452         2.6197       0.125500
       9978.00        34.2851         9.7534         2.6570       0.124400
       9978.50        28.9687        13.3606         2.7013       0.109200
       9979.00        24.8116        16.6804         2.6866       0.094800
       9979.50        22.4818        17.4316         2.6057       0.090100
       9980.00        21.0774        17.6738         2.5115       0.095500
       9980.50        17.4791        19.7328         2.4322       0.105400
       9981.00        13.3813        22.2223         2.4175       0.104300
       9981.50        11.0420        21.7743         2.4185       0.105700
       9982.00        11.8653        22.4702         2.4719       0.104300
       9982.50        15.0131        24.5429         2.5638       0.100100
       9983.00        19.0987        24.3179         2.6781       0.094400
       9983.50        23.6753        23.6860         2.6647       0.084400
       9984.00        26.9100        22.2757         2.6114       0.080100
       9984.50        26.5415        22.6397         2.6100       0.074300
       9985.00        23.8585        22.2795         2.6157       0.064400
       9985.50        21.1087        22.9915         2.6257       0.060100
       9986.00        21.0400        22.6590         2.6415       0.060000
       9986.50        19.2558        22.3673         2.6556       0.060000
       9987.00        17.4258        24.5732         2.6541       0.060000
       9987.50        17.3800        26.9310         2.6443       0.060000
       9988.00        21.8455        27.2045         2.6460       0.060000
       9988.50        26.8643        26.3617         2.6558       0.065900
       9989.00        29.2227        24.0780         2.6481       0.075800
       9989.50        31.0643        23.3180         2.6224       0.085800
       9990.00        32.4458        23.9825         2.6400       0.089900
       9990.50        35.6000        22.6155         2.6595       0.090000
       9991.00        34.7928        20.3472         2.6660       0.090000
       9991.50        32.5326        24.1395         2.5917    -999.250000
