~Version Information Block
VERS .                  2.0:  CWLS LOG ASCII STANDARD - VERSION 2.0
WRAP .                   NO:  One line per depth step
~Well Information Block
#MNEM.UNIT        Data Type   Information
#---------- ----------------  -----------
STRT .FT            3121.50:  START DEPTH
STOP .FT            8357.50:  STOP DEPTH
STEP .FT               0.50:  STEP
NULL .              -999.25:  NULL VALUE
COMP .                     :  COMPANY
WELL .                SA-21:  WELL
FLD  .                     :  FIELD
LOC  .                     :  LOCATION
CTRY .                     :  COUNTRY
STAT .                     :  STATE
CNTY .                     :  COUNTY
SRVC .                     :  SERVICE COMPANY
DATE .                     :  DATE
API  .                     :  API NUMBER
UWI  .                     :  UNIQUE WELL ID
~Curve Information Block
#MNEM.UNIT         API CODE   Curve Description
#---------- ----------------  -----------------
DEPTH.FT                   :  DEPTH
GR   .GAPI                 :  Gamma Ray
RT   .OHMM                 :  Deep resistivity
RHOB .G/C3                 :  Bulk density
NPHI .V/V                  :  Neutron porosity
DT   .US/F                 :  Sonic
~Parameter Information Block
#MNEM.UNIT            Value   Description
#---------- ----------------  -----------
PROJECT.            SERANG_FE:  
~Other Information Block
# 
~A       DEPTH             GR             RT           RHOB           NPHI             DT 
# ...
       4501.00        85.7500         1.5000         2.3000       0.367400       129.7000
       4501.50        85.5625         1.5100         2.2900       0.363000       129.4000
       4502.00        83.1250         1.5200         2.2900       0.345300       129.1000
       4502.50        82.5625         1.5400         2.2900       0.356500       128.2000
       4503.00        78.6250         1.5400         2.2800       0.377800       128.0000
       4503.50        80.9375         1.5300         2.2700       0.405400       127.4000
       4504.00        81.1875         1.5300         2.2700       0.422400       128.6000
       4504.50        88.9375         1.5300         2.2800       0.424500       129.1000
       4505.00        89.4375         1.5200         2.2900       0.447200       131.3000
       4505.50        91.8750         1.5100         2.3000       0.426500       131.5000
       4506.00        91.1875         1.5000         2.2900       0.417700       130.5000
       4506.50        90.0000         1.5000         2.2800       0.393400       131.6000
       4507.00        84.3125         1.5000         2.2600       0.395500       130.4000
       4507.50        85.6250         1.5000         2.2500       0.396800       132.0000
       4508.00        86.5000         1.5000         2.2600       0.403400       132.0000
       4508.50        89.5625         1.5000         2.2700       0.404800       131.6000
       4509.00        85.6875         1.5000         2.2700       0.416300       132.0000
       4509.50        87.6250         1.5000         2.2700       0.408100       133.1000
       4510.00        87.0000         1.5000         2.2600       0.407100       132.5000
       4510.50        91.6250         1.5000         2.2500       0.383000       132.7000
       4511.00        92.7500         1.5000         2.2500       0.386300       133.3000
       4511.50        88.9375         1.5100         2.2700       0.379600       133.0000
       4512.00        83.5625         1.5200         2.2800       0.405900       132.7000
       4512.50        77.8750         1.5300         2.2700       0.380500       131.8000
       4513.00        75.9375         1.5400         2.2700       0.396200       130.4000
       4513.50        72.5625         1.5600         2.2800       0.371800       129.2000
       4514.00        67.6250         1.5900         2.3100       0.374200       131.0000
       4514.50        66.1250         1.6300         2.3300       0.341200       132.3000
       4515.00        61.5938         1.6800         2.3400       0.334300       130.2000
       4515.50        64.0000         1.7200         2.3400       0.316200       127.1000
       4516.00        64.2500         1.7600         2.3600       0.307900       123.6000
       4516.50        66.3750         1.7900         2.3400       0.304000       119.0000
       4517.00        67.8750         1.8200         2.3300       0.326100       118.5000
       4517.50        68.8750         1.8600         2.3200       0.343800       118.9000
       4518.00        72.6250         1.9000         2.3200       0.350200       119.1000
       4518.50        70.8125         1.9200         2.3300       0.346800       120.7000
       4519.00        72.5000         1.9100         2.3300       0.345900       121.0000
       4519.50        73.1250         1.8900         2.3400       0.353100       121.3000
       4520.00        75.7500         1.8700         2.3300       0.349500       121.8000
       4520.50        76.2500         1.8500         2.3100       0.347600       121.6000
       4521.00        76.5625         1.8300         2.2800       0.335300       121.7000
       4521.50        75.4375         1.8200         2.2700       0.345900       121.6000
       4522.00        73.1250         1.8100         2.2600       0.338500       121.6000
       4522.50        70.5625         1.8000         2.2700       0.333800       122.4000
       4523.00        73.5000         1.8000         2.2700       0.360300       123.4000
       4523.50        74.2500         1.7900         2.2700       0.390600       124.0000
       4524.00        77.2500         1.7900         2.2700       0.406700       125.6000
       4524.50        72.5000         1.7900         2.2600       0.398700       126.7000
       4525.00        73.4375         1.7900         2.2700       0.393300       126.8000
       4525.50        73.3125         1.7800         2.2700       0.389700       127.3000
       4526.00        73.8750         1.7800         2.2800       0.398100       126.7000
       4526.50        76.5000         1.7800         2.2800       0.390800       127.1000
       4527.00        76.2500         1.7700         2.2900       0.397400       126.6000
       4527.50        77.3125         1.7700         2.2900       0.400600       126.0000
       4528.00        75.1250         1.7700         2.2900       0.406400       126.4000
       4528.50        76.4375         1.7700         2.2800       0.408200       126.3000
       4529.00        77.5625         1.7700         2.2800       0.394300       126.4000
       4529.50        79.9375         1.7700         2.2700       0.384600       126.7000
       4530.00        80.3125         1.7700         2.2600       0.377900       126.9000
       4530.50        85.7500         1.7700         2.2500       0.380000       127.3999
       4531.00        81.0000         1.7700         2.2600       0.397100       127.9000
       4531.50        78.7500         1.7700         2.2700       0.396900       127.4000
       4532.00        75.9375         1.7700         2.2700       0.381300       126.8000
       4532.50        81.2500         1.7700         2.2700       0.384600       127.8000
       4533.00        85.1250         1.7700         2.2800       0.391500       127.3000
       4533.50        83.2500         1.7700         2.2700       0.409100       128.0000
       4534.00        82.3750         1.7700         2.2700       0.402600       127.3000
       4534.50        79.2500         1.7800         2.2600       0.410700       127.6000
       4535.00        83.2500         1.7800         2.2600       0.392800       127.3000
       4535.50        84.1250         1.7800         2.2600       0.378300       127.6000
       4536.00        86.5000         1.7800         2.2600       0.382300       127.4000
       4536.50        82.6250         1.7800         2.2600       0.396100       127.0000
       4537.00        81.5625         1.7800         2.2500       0.419000       126.8999
       4537.50        77.6875         1.7800         2.2600       0.407800       126.9000
       4538.00        76.0000         1.7800         2.2600       0.425700       126.9000
       4538.50        73.9375         1.7800         2.2700       0.423100       127.2000
       4539.00        75.6250         1.7800         2.2700       0.412000       127.0000
       4539.50        77.1875         1.7800         2.2700       0.398200       126.6000
       4540.00        79.1250         1.7800         2.2700       0.380300       127.0000
       4540.50        82.5000         1.7800         2.2700       0.394400       127.1000
       4541.00        84.3750         1.7800         2.2600       0.416600       127.8000
       4541.50        81.5625         1.7800         2.2600       0.422100       128.4000
       4542.00        80.6250         1.7800         2.2500       0.426700       128.2000
       4542.50        78.0625         1.7700         2.2500       0.411500       128.6000
       4543.00        79.7500         1.7700         2.2500       0.416700       128.5000
       4543.50        76.0000         1.7700         2.2600       0.427700       128.6000
       4544.00        75.8125         1.7600         2.2600       0.423800       128.2000
       4544.50        79.6875         1.7600         2.2600       0.408000       128.4000
       4545.00        81.1875         1.7600         2.2600       0.394500       128.4000
