~Version Information Block
VERS .                  2.0:  CWLS LOG ASCII STANDARD - VERSION 2.0
WRAP .                   NO:  One line per depth step
~Well Information Block
#MNEM.UNIT        Data Type   Information
#---------- ----------------  -----------
STRT .FT            3121.50:  START DEPTH
STOP .FT            8357.50:  STOP DEPTH
STEP .FT               0.50:  STEP
NULL .              -999.25:  NULL VALUE
COMP .                     :  COMPANY
WELL .                SA-21:  WELL
FLD  .                     :  FIELD
LOC  .                     :  LOCATION
CTRY .                     :  COUNTRY
STAT .                     :  STATE
CNTY .                     :  COUNTY
SRVC .                     :  SERVICE COMPANY
DATE .                     :  DATE
API  .                     :  API NUMBER
UWI  .                     :  UNIQUE WELL ID
~Curve Information Block
#MNEM.UNIT         API CODE   Curve Description
#---------- ----------------  -----------------
DEPTH.FT                   :  DEPTH
GR   .GAPI                 :  Gamma Ray
RT   .OHMM                 :  Deep resistivity
RHOB .G/C3                 :  Bulk density
NPHI .V/V                  :  Neutron porosity
DT   .US/F                 :  Sonic
~Parameter Information Block
#MNEM.UNIT            Value   Description
#---------- ----------------  -----------
PROJECT.            SERANG_FE:  
~Other Information Block
# 
~A       DEPTH             GR             RT           RHOB           NPHI             DT 
# ...
       4145.00        77.5625         1.7800         2.2900       0.277200       127.0000
       4145.50        73.0000         1.8000         2.2600       0.279400       131.6000
       4146.00        72.0625         1.8200         2.2300       0.274500       135.7000
       4146.50        70.3750         1.8500         2.2300       0.296700       135.5000
       4147.00        72.1875         1.8800         2.2500       0.289100       132.6000
       4147.50        69.7500         1.9000         2.3000       0.303100       127.2000
       4148.00        72.1875         1.9200         2.3500       0.306100       126.4000
       4148.50        70.0000         1.9200         2.3800       0.313500       124.0000
       4149.00        70.6250         1.9400         2.3800       0.309400       125.0000
       4149.50        70.6875         1.9400         2.3500       0.303500       124.1000
       4150.00        74.6250         1.9400         2.3100       0.306600       125.9000
       4150.50        81.4375         1.9400         2.3000       0.300100       125.6000
       4151.00        81.1250         1.9300         2.2800       0.304100       126.6000
       4151.50        79.5625         1.9200         2.2700       0.305300       127.3000
       4152.00        75.6250         1.9100         2.2700       0.311600       128.0000
       4152.50        72.0625         1.9000         2.2900       0.333200       127.6000
       4153.00        70.2500         1.8900         2.3000       0.343800       128.4000
       4153.50        68.2500         1.8900         2.3100       0.345000       129.4000
       4154.00        69.9375         1.8800         2.3100       0.338500       127.8000
       4154.50        72.1875         1.8700         2.3100       0.341500       128.2000
       4155.00        76.3750         1.8600         2.3100       0.349500       128.6000
       4155.50        75.2500         1.8600         2.3000       0.347400       128.2000
       4156.00        77.3750         1.8600         2.2900       0.352400       128.0000
       4156.50        73.5625         1.8500         2.2900       0.347000       129.4000
       4157.00        76.1875         1.8500         2.2900       0.360100       129.4000
       4157.50        72.6875         1.8500         2.2900       0.373400       127.9000
       4158.00        74.1875         1.8600         2.3000       0.389400       127.9000
       4158.50        74.8750         1.8600         2.3100       0.369200       126.6000
       4159.00        71.5625         1.8700         2.3000       0.341100       126.5000
       4159.50        72.5625         1.8800         2.2900       0.338500       126.5000
       4160.00        69.5000         1.8900         2.2900       0.342400       127.2000
       4160.50        72.9375         1.9100         2.2800       0.335800       129.0000
       4161.00        68.6250         1.9400         2.2700       0.311400       131.4000
       4161.50        66.3750         1.9700         2.2500       0.313700       134.9000
       4162.00        65.0625         1.9900         2.2400       0.331000       138.5000
       4162.50        64.6250         2.0100         2.2500       0.346000       139.5000
       4163.00        68.3125         2.0400         2.2500       0.360400       138.2000
       4163.50        68.5000         2.0500         2.2400       0.344500       139.7000
       4164.00        68.7500         2.0600         2.2200       0.341200       140.8000
       4164.50        66.4375         2.0700         2.2300       0.311500       136.6000
       4165.00        68.3750         2.0600         2.2500       0.315100       134.6000
       4165.50        69.6250         2.0600         2.2800       0.323900       130.6000
       4166.00        71.1250         2.0400         2.3000       0.339700       127.0000
       4166.50        68.3750         2.0300         2.2900       0.345300       133.6000
       4167.00        68.6250         2.0200         2.2600       0.341900       133.2000
       4167.50        69.5000         2.0100         2.2500       0.328500       133.4000
       4168.00        70.0625         2.0000         2.2600       0.332900       133.5999
       4168.50        67.7500         1.9800         2.2800       0.336600       133.1000
       4169.00        67.2500         1.9700         2.3000       0.350900       126.7000
       4169.50        65.8125         1.9500         2.3000       0.353400       126.7000
       4170.00        69.5000         1.9300         2.3000       0.368600       126.7000
       4170.50        69.7500         1.9100         2.3000       0.365900       126.6000
       4171.00        76.7500         1.8900         2.3000       0.359000       129.0000
       4171.50        79.0625         1.8700         2.3000       0.357300       127.8000
       4172.00        79.8125         1.8600         2.2900       0.356800       127.8999
       4172.50        77.2500         1.8400         2.2900       0.373300       127.6000
       4173.00        73.2500         1.8200         2.2700       0.364300       127.8000
       4173.50        75.7500         1.8100         2.2800       0.367000       127.9000
       4174.00        79.8750         1.8000         2.2800       0.367700       127.4000
       4174.50        82.0625         1.8000         2.2800       0.359900       128.7000
       4175.00        80.6250         1.7900         2.2700       0.345800       128.5000
       4175.50        75.2500         1.7900         2.2600       0.332700       128.9000
       4176.00        72.6875         1.7800         2.2600       0.338800       129.7000
       4176.50        73.7500         1.7800         2.2700       0.340300       128.4000
       4177.00        74.8750         1.7700         2.2800       0.359300       128.2000
       4177.50        78.8750         1.7700         2.2900       0.361100       128.0000
       4178.00        80.3125         1.7600         2.3000       0.384300       129.2000
       4178.50        82.2500         1.7600         2.3000       0.389400       129.5000
       4179.00        83.3750         1.7500         2.2900       0.385000       129.4000
       4179.50        82.6875         1.7400         2.2900       0.381900       129.8000
       4180.00        80.6250         1.7300         2.2800       0.385200       129.2000
       4180.50        77.8125         1.7300         2.2700       0.393800       129.1000
       4181.00        75.5000         1.7300         2.2700       0.399600       128.3000
       4181.50        80.2500         1.7300         2.2800       0.369400       128.3000
       4182.00        79.0625         1.7200         2.2800       0.384200       128.6000
       4182.50        82.1875         1.7200         2.2900       0.404000       128.6000
       4183.00        78.2500         1.7100         2.2800       0.406000       129.9000
       4183.50        82.0625         1.7100         2.2700       0.396100       130.4000
       4184.00        80.1875         1.7100         2.2700       0.366700       130.5000
       4184.50        81.1875         1.7000         2.2700       0.382300       130.6000
       4185.00        80.1250         1.6900         2.2700       0.371100       130.9000
       4185.50        81.6875         1.6800         2.2700       0.357700       131.5000
       4186.00        84.1875         1.6700         2.2600       0.373700       131.4000
       4186.50        83.8125         1.6700         2.2600       0.375800       131.9000
       4187.00        83.6250         1.6600         2.2600       0.411800       132.4000
       4187.50        81.7500         1.6500         2.2500       0.394100       131.7000
       4188.00        83.0000         1.6500         2.2600       0.406400       131.0999
       4188.50        78.3750         1.6500         2.2700       0.381800       131.7000
       4189.00        75.6250         1.6500         2.2700       0.400600       131.6000
