~Version Information Block
VERS .                  2.0:  CWLS LOG ASCII STANDARD - VERSION 2.0
WRAP .                   NO:  One line per depth step
~Well Information Block
#MNEM.UNIT        Data Type   Information
#---------- ----------------  -----------
STRT .FT            2988.00:  START DEPTH
STOP .FT            9585.50:  STOP DEPTH
STEP .FT               0.50:  STEP
NULL .              -999.25:  NULL VALUE
COMP .                     :  COMPANY
WELL .              SA-24HZ:  WELL
FLD  .                     :  FIELD
LOC  .                     :  LOCATION
CTRY .                     :  COUNTRY
STAT .                     :  STATE
CNTY .                     :  COUNTY
SRVC .                     :  SERVICE COMPANY
DATE .                     :  DATE
API  .                     :  API NUMBER
UWI  .                     :  UNIQUE WELL ID
~Curve Information Block
#MNEM.UNIT         API CODE   Curve Description
#---------- ----------------  -----------------
DEPTH.FT                   :  DEPTH
GR   .GAPI                 :  Gamma Ray
RT   .OHMM                 :  Deep resistivity
RHOB .G/C3                 :  Bulk density
NPHI .V/V                  :  Neutron porosity
~Parameter Information Block
#MNEM.UNIT            Value   Description
#---------- ----------------  -----------
PROJECT.            SERANG_FE:  
~Other Information Block
# 
~A       DEPTH             GR             RT           RHOB           NPHI 
# ...
       9515.00        51.4000         4.9400         2.5200       0.200000
       9515.50        52.4600         4.9900         2.5200       0.200000
       9516.00        51.9400         5.1500         2.5400       0.200000
       9516.50        49.2500         5.1600         2.5500       0.210000
       9517.00        47.0900         5.4900         2.5200       0.200000
       9517.50        46.1000         5.5800         2.4700       0.190000
       9518.00        45.9700         5.7900         2.4600       0.180000
       9518.50        46.6500         6.0500         2.4600       0.180000
       9519.00        46.7100         6.0700         2.4500       0.180000
       9519.50        50.4600         6.3400         2.4400       0.190000
       9520.00        52.8600         6.4700         2.4400       0.190000
       9520.50        54.7000         6.4200         2.4600       0.190000
       9521.00        53.1200         6.7700         2.4900       0.180000
       9521.50        54.1700         7.0000         2.5200       0.190000
       9522.00        55.6100         7.5300         2.5200       0.190000
       9522.50        56.8500         7.7200         2.4900       0.190000
       9523.00        56.4200         7.4900         2.4800       0.180000
       9523.50        52.1300         7.7400         2.4300       0.170000
       9524.00        48.2100         7.7600         2.3500       0.160000
       9524.50        45.2700         7.9700         2.3200       0.150000
       9525.00        47.0100         8.0000         2.3200       0.150000
       9525.50        48.3400         7.9400         2.3200       0.150000
       9526.00        48.2200         7.9700         2.3000       0.150000
       9526.50        47.5700         7.6400         2.2900       0.140000
       9527.00        48.3500         7.9000         2.2900       0.140000
       9527.50        49.4300         8.1200         2.3000       0.140000
       9528.00        51.0100         8.1200         2.3300       0.150000
       9528.50        50.5200         7.9500         2.3300       0.150000
       9529.00        48.5600         8.0800         2.2500       0.140000
       9529.50        44.8200         8.0600         2.1900       0.130000
       9530.00        40.7500         8.0400         2.1600       0.110000
       9530.50        39.7700         7.9700         2.1500       0.110000
       9531.00        37.9600         7.6900         2.1400       0.110000
       9531.50        38.2600         7.5100         2.1500       0.110000
       9532.00        38.7500         7.5100         2.1800       0.120000
       9532.50        43.5800         6.9900         2.2200       0.130000
       9533.00        49.8600         6.5000         2.2500       0.140000
       9533.50        58.1500         6.0200         2.3200       0.160000
       9534.00        63.8800         5.7000         2.4200       0.170000
       9534.50        66.9400         5.6600         2.5400       0.190000
       9535.00        70.1100         5.7000         2.5800       0.200000
       9535.50        72.8000         5.2400         2.5900       0.230000
       9536.00        76.6500         5.2000         2.6000       0.240000
       9536.50        80.0300         4.7700         2.5800       0.260000
       9537.00        85.0100         4.4700         2.5600       0.270000
       9537.50        88.9000         4.2500         2.5500       0.270000
       9538.00        92.1400         3.9800         2.5500       0.280000
       9538.50        94.4500         3.8100         2.5500       0.300000
       9539.00        94.3900         3.7500         2.5200       0.310000
       9539.50        90.9000         3.5700         2.4800       0.330000
       9540.00        85.5400         3.3000         2.4700       0.330000
       9540.50        82.3200         3.1200         2.4700       0.340000
       9541.00        81.3900         3.0000         2.4800       0.320000
       9541.50        81.7500         2.9200         2.5000       0.320000
       9542.00        82.2400         2.8800         2.5300       0.310000
       9542.50        84.0500         2.7900         2.5800       0.310000
       9543.00        84.3200         2.6800         2.6000       0.290000
       9543.50        84.2100         2.6200         2.6100       0.280000
       9544.00        81.3100         2.6500         2.6100       0.280000
       9544.50        82.0100         2.6900         2.6100       0.280000
       9545.00        80.9500         2.7500         2.6200       0.280000
       9545.50        79.7200         2.8000         2.6200       0.280000
       9546.00        76.7000         2.8800         2.6100       0.290000
       9546.50        76.9900         3.0100         2.6000       0.270000
       9547.00        77.4800         3.1900         2.6000       0.260000
       9547.50        75.2200         3.5000         2.6100       0.260000
       9548.00        74.1600         3.8200         2.6100       0.270000
       9548.50        73.6900         4.2500         2.6100       0.280000
       9549.00        74.3000         5.1400         2.6100       0.280000
       9549.50        74.7000         5.5600         2.6100       0.280000
       9550.00        74.2500         6.7400         2.6100       0.280000
       9550.50        71.2700         7.7900         2.6000       0.270000
       9551.00        57.4100         9.4000         2.5700       0.260000
       9551.50        42.2500         8.9400         2.4800    -999.250000
       9552.00        27.9900         9.9100         2.3800    -999.250000
       9552.50        20.9300        10.9000         2.3200    -999.250000
       9553.00        15.9600        12.5700         2.2700    -999.250000
       9553.50        13.6000        14.0000         2.2400    -999.250000
       9554.00        12.6400        15.8700         2.2100    -999.250000
       9554.50        11.6700        17.1300         2.2100    -999.250000
       9555.00        11.5800        18.5400         2.1600    -999.250000
       9555.50        11.0000        20.5300         2.0900    -999.250000
       9556.00        10.7400        22.8800         2.0400    -999.250000
       9556.50        10.0000        24.5000         2.0200    -999.250000
       9557.00        10.1400        25.0700         2.0300    -999.250000
       9557.50        10.6100        26.5300         2.0600    -999.250000
       9558.00        11.0800        26.7700      -999.2500    -999.250000
       9558.50        11.2200        25.9000      -999.2500    -999.250000
       9559.00        10.8700        27.8600      -999.2500    -999.250000
       9559.50        11.7000        31.0300      -999.2500    -999.250000
       9560.00        13.8500        30.8000      -999.2500    -999.250000
       9560.50        15.9800        31.9700      -999.2500    -999.250000
       9561.00        16.5100        29.9800      -999.2500    -999.250000
       9561.50        16.5200        35.4800      -999.2500    -999.250000
       9562.00        16.7100        34.7700      -999.2500    -999.250000
       9562.50        16.7700        33.2900      -999.2500    -999.250000
       9563.00        16.2600        37.3300      -999.2500    -999.250000
       9563.50        15.5500        38.0600      -999.2500    -999.250000
       9564.00        16.0700        35.6000      -999.2500    -999.250000
       9564.50        16.2400        38.4700      -999.2500    -999.250000
       9565.00        15.7900        40.1300      -999.2500    -999.250000
       9565.50        14.3200        42.8500      -999.2500    -999.250000
       9566.00        14.4800        38.8100      -999.2500    -999.250000
       9566.50        14.7700        38.0800      -999.2500    -999.250000
       9567.00        15.0900        39.2300      -999.2500    -999.250000
       9567.50        14.5100        38.8800      -999.2500    -999.250000
       9568.00        14.7700        39.6700      -999.2500    -999.250000
