~Version Information Block
VERS .                  2.0:  CWLS LOG ASCII STANDARD - VERSION 2.0
WRAP .                   NO:  One line per depth step
~Well Information Block
#MNEM.UNIT        Data Type   Information
#---------- ----------------  -----------
STRT .FT            2071.50:  START DEPTH
STOP .FT           10484.50:  STOP DEPTH
STEP .FT               0.50:  STEP
NULL .              -999.25:  NULL VALUE
COMP .                     :  COMPANY
WELL .          SA-25RD1BP1:  WELL
FLD  .                     :  FIELD
LOC  .                     :  LOCATION
CTRY .                     :  COUNTRY
STAT .                     :  STATE
CNTY .                     :  COUNTY
SRVC .                     :  SERVICE COMPANY
DATE .                     :  DATE
API  .                     :  API NUMBER
UWI  .                     :  UNIQUE WELL ID
~Curve Information Block
#MNEM.UNIT         API CODE   Curve Description
#---------- ----------------  -----------------
DEPTH.FT                   :  Bit Depth 2hz
GR   .GAPI                 :  Merged WIRE.GR_1 and WIRE_6125.GR_1 at 8490.50
RT   .OHMM                 :  Merged WIRE.RT_1 and WIRE_6125.RT_1 at 8497.50
RHOB .G/C3                 :  Merged WIRE.RHOB_1 and WIRE_6125.RHOB_1 at 8490.00
NPHI .V/V                  :  Merged WIRE.NPHI_1 and WIRE_6125.NPHI_1 at 8490.50
~Parameter Information Block
#MNEM.UNIT            Value   Description
#---------- ----------------  -----------
PROJECT.            SERANG_FE:  
~Other Information Block
# 
~A       DEPTH             GR             RT           RHOB           NPHI 
# ...
       9294.00        32.8713         3.4151         2.1451       0.194120
       9294.50        37.7622         3.9411         2.1787       0.200250
       9295.00        43.7905         3.7804         2.2615       0.208560
       9295.50        50.6718         2.8678         2.3761       0.219520
       9296.00        57.6669         2.4514         2.4186       0.228940
       9296.50        63.6384         2.3110         2.4160       0.239740
       9297.00        68.9273         2.2361         2.3746       0.251340
       9297.50        74.3869         2.0704         2.3794       0.267260
       9298.00        79.1641         1.9483         2.3769       0.281210
       9298.50        83.2588         1.7318         2.4057       0.296710
       9299.00        87.3535         1.6775         2.3760       0.309830
       9299.50        90.0832         1.6351         2.4150       0.321380
       9300.00        89.7420         1.6324         2.3774       0.325330
       9300.50        87.3535         1.7175         2.3953       0.324230
       9301.00        83.9412         1.8330         2.3507       0.318780
       9301.50        79.1641         2.1035         2.3856       0.311420
       9302.00        74.3869         2.4478         2.3578       0.301270
       9302.50        69.7804         2.7916         2.3689       0.286620
       9303.00        64.1502         2.9736         2.3824       0.270880
       9303.50        58.6906         3.5195         2.4219       0.251810
       9304.00        54.5959         4.3652         2.4730       0.233970
       9304.50        50.5012         5.1938         2.4920       0.215670
       9305.00        45.3829         5.6552         2.5149       0.202840
       9305.50        41.6294         5.6447         2.5063       0.194080
       9306.00        39.9233         4.4615         2.5141       0.192110
       9306.50        40.6057         3.5415         2.5350       0.192620
       9307.00        44.3592         2.8615         2.5138       0.194910
       9307.50        50.5012         2.5639         2.4677       0.198880
       9308.00        57.3257         2.5350         2.4079       0.206320
       9308.50        61.0792         2.4454         2.3823       0.217370
       9309.00        64.8326         2.3228         2.3970       0.229430
       9309.50        68.7567         2.2811         2.4298       0.241960
       9310.00        70.9747         2.2774         2.4346       0.253560
       9310.50        71.6571         2.1356         2.4142       0.264480
       9311.00        70.9747         2.0317         2.3707       0.274570
       9311.50        69.6098         2.0317         2.3515       0.282450
       9312.00        70.2922         2.0100         2.3109       0.289070
       9312.50        70.9747         2.0013         2.3159       0.292220
       9313.00        73.3633         1.9828         2.3134       0.294990
       9313.50        74.0457         2.0084         2.3129       0.296850
       9314.00        75.0694         1.9380         2.2953       0.299790
       9314.50        75.4106         1.9224         2.3049       0.304450
       9315.00        75.0694         1.7806         2.3240       0.308850
       9315.50        74.3869         1.9090         2.3848       0.312740
       9316.00        73.7045         1.9646         2.4272       0.312210
       9316.50        72.3396         2.0447         2.5477       0.310190
       9317.00        70.6335         2.3578         2.6595       0.308040
       9317.50        68.2449         2.4282         2.5809       0.307740
       9318.00        66.1975         2.3735         2.5478       0.306780
       9318.50        64.1502         2.2987         2.4317       0.302330
       9319.00        61.0792         2.2309         2.4164       0.294480
       9319.50        57.6669         2.2309         2.3987       0.283440
       9320.00        55.2784         2.2518         2.3593       0.273210
       9320.50        53.5722         2.2737         2.3733       0.262970
       9321.00        51.8661         2.5192         2.3608       0.256490
       9321.50        51.5249         2.4896         2.4006       0.253470
       9322.00        51.5249         2.4379         2.4085       0.251970
       9322.50        50.5012         2.3973         2.4195       0.252900
       9323.00        51.8661         2.3973         2.4034       0.255110
       9323.50        53.2310         2.4010         2.4063       0.260380
       9324.00        58.0082         2.3193         2.4021       0.268280
       9324.50        62.2735         2.1861         2.3678       0.278650
       9325.00        65.5151         2.0441         2.3137       0.290730
       9325.50        67.7330         1.9499         2.3319       0.302710
       9326.00        68.7567         1.9499         2.4425       0.314120
       9326.50        69.7804         1.8261         2.4791       0.326640
       9327.00        72.1690         1.7924         2.3407       0.340190
       9327.50        76.0930         1.7079         2.2830       0.352850
       9328.00        79.6759         1.6668         2.2543       0.357900
       9328.50        80.1877         1.6048         2.3474       0.357510
       9329.00        78.8228         1.6767         2.3262       0.354140
       9329.50        76.7755         1.6840         2.3221       0.342980
       9330.00        73.5339         1.8512         2.2988       0.324240
       9330.50        67.5624         1.8512         2.4021       0.300130
       9331.00        58.0082         2.4597         2.4894       0.274290
       9331.50        47.0890         4.5946         2.5271       0.246210
       9332.00        36.5110         8.5592         2.6036       0.216390
       9332.50        28.6629         9.9378         2.6281       0.185570
       9333.00        24.9094        11.4943         2.6255       0.160870
       9333.50        23.8857        11.9516         2.5773       0.141770
       9334.00        24.5682        12.5530         2.5542       0.126150
       9334.50        25.9331        12.4143         2.5683       0.117010
       9335.00        27.9804        12.6836         2.6046       0.113510
       9335.50        30.0278        11.7923         2.5670       0.113480
       9336.00        29.3453         9.5227         2.5177       0.114280
       9336.50        30.3690         9.4879         2.4563       0.115340
       9337.00        31.3926        10.2948         2.4795       0.116240
       9337.50        30.7102        11.8022         2.4675       0.118020
       9338.00        30.3690        10.0396         2.5078       0.120330
       9338.50        31.7339         7.3844         2.4943       0.124300
       9339.00        34.4637         8.2909         2.4998       0.129660
       9339.50        38.2171        10.1150         2.5369       0.135770
       9340.00        39.5820         7.7094         2.5598       0.143120
       9340.50        40.9469         5.5978         2.5673       0.152730
       9341.00        47.4302         4.2778         2.5044       0.163840
       9341.50        52.5486         3.7675         2.4896       0.176370
       9342.00        55.9608         3.2479         2.4755       0.190100
       9342.50        59.3731         3.2479         2.4668       0.203980
       9343.00        62.7853         3.0294         2.4232       0.216860
       9343.50        64.1502         2.9432         2.3887       0.225950
       9344.00        64.8326         2.7191         2.3901       0.232450
       9344.50        65.5151         2.6970         2.4132       0.239310
       9345.00        68.2449         2.6632         2.4437       0.245470
       9345.50        67.5624         2.6241         2.4542       0.249320
       9346.00        66.8800         2.5745         2.4375       0.250990
       9346.50        67.5624         2.5607         2.4468       0.251410
       9347.00        68.2449         2.5454         2.4281       0.252560
