~Version Information Block
VERS .                  2.0:  CWLS LOG ASCII STANDARD - VERSION 2.0
WRAP .                   NO:  One line per depth step
~Well Information Block
#MNEM.UNIT        Data Type   Information
#---------- ----------------  -----------
STRT .FT            2200.00:  START DEPTH
STOP .FT            8176.50:  STOP DEPTH
STEP .FT               0.50:  STEP
NULL .              -999.25:  NULL VALUE
COMP .                     :  COMPANY
WELL .             SA-25RD1:  WELL
FLD  .                     :  FIELD
LOC  .                     :  LOCATION
CTRY .                     :  COUNTRY
STAT .                     :  STATE
CNTY .                     :  COUNTY
SRVC .                     :  SERVICE COMPANY
DATE .                     :  DATE
API  .                     :  API NUMBER
UWI  .                     :  UNIQUE WELL ID
~Curve Information Block
#MNEM.UNIT         API CODE   Curve Description
#---------- ----------------  -----------------
DEPTH.FT                   :  Bit Depth 2hz
GR   .GAPI                 :  ECO Gamma Ray
RT   .OHMM                 :  ECO Non-BHCorr Phase-Shift Resistivity 40-in. at 2 MHz
RHOB .G/C3                 :  Bulk Density  Bottom
NPHI .V/V                  :  Thermal Neutron Porosity (Ratio Method) in Selected Lithology
~Parameter Information Block
#MNEM.UNIT            Value   Description
#---------- ----------------  -----------
PROJECT.            SERANG_FE:  
~Other Information Block
# 
~A       DEPTH             GR             RT           RHOB           NPHI 
# ...
       6533.50        71.1741         3.6600         2.3946         0.2637
       6534.00        71.9367         2.4368         2.4178         0.2853
       6534.50        70.2495         2.0689         2.4284         0.3212
       6535.00        66.5143         1.8413         2.4223         0.2856
       6535.50        69.3462         1.7652         2.4344         0.2883
       6536.00        74.0853         1.6643         2.4387         0.3364
       6536.50        80.1129         1.5816         2.4265         0.3781
       6537.00        83.5422         1.4923         2.4092         0.3515
       6537.50        82.2418         1.4743         2.4146         0.3452
       6538.00        82.6195         1.5606         2.4350         0.3171
       6538.50        83.9207         1.6610         2.4239         0.4159
       6539.00        86.1366         1.7091         2.4332         0.3524
       6539.50        82.9292         1.7554         2.4045         0.3259
       6540.00        78.2717         1.8612         2.3439         0.3343
       6540.50        73.7670         2.0132         2.2554         0.2639
       6541.00        67.5858         2.2935         2.2371         0.2714
       6541.50        60.6460         2.5396         2.2632         0.2242
       6542.00        61.1070         2.6213         2.3127         0.2122
       6542.50        67.3644         2.4051         2.3410         0.2186
       6543.00        72.8516         2.1487         2.3753         0.2523
       6543.50        75.4435         1.9573         2.3904         0.2891
       6544.00        74.6871         1.8910         2.4008         0.3061
       6544.50        75.9142         1.9086         2.3972         0.3523
       6545.00        78.0528         1.8401         2.4111         0.3254
       6545.50        83.0122         1.7649         2.4065         0.2789
       6546.00        83.4700         1.6966         2.3925         0.3543
       6546.50        82.0966         1.7374         2.3804         0.3344
       6547.00        76.9846         1.8801         2.3718         0.3241
       6547.50        79.1973         2.1122         2.3619         0.3552
       6548.00        81.8601         1.7916         2.3441         0.3674
       6548.50        88.9558         1.1941         2.3077         0.3643
       6549.00        95.7367         1.2678         2.2618         0.4959
       6549.50        98.4871         1.4409         2.1859         0.5793
       6550.00       103.2939         1.6047         2.0910         0.6198
       6550.50       106.7268         1.2567         2.0501         0.4899
       6551.00       116.9498         1.9293         2.0104         0.6420
       6551.50       128.4707         3.2498         1.9777         0.8028
       6552.00       141.1586         3.6257         1.9008         0.7477
       6552.50       151.3806         3.6926         1.8300         0.7727
       6553.00       158.6543         4.2142         1.7920         0.7077
       6553.50       165.8903         5.7046         1.7905         0.8072
       6554.00       170.7039         6.5231         1.8380         0.7384
       6554.50       171.7467         5.6424         1.8988         0.6139
       6555.00       168.7637         4.8547         1.9839         0.5462
       6555.50       165.8555         4.2351         2.0291         0.5418
       6556.00       158.8361         3.7818         2.0937         0.6091
       6556.50       155.5031         3.0112         2.1128         0.4703
       6557.00       151.7734         2.7434         2.1222         0.6421
       6557.50       151.4617         2.5516         2.1083         0.5443
       6558.00       150.0882         2.7478         2.1014         0.5504
       6558.50       147.0302         2.9562         2.1292         0.5459
       6559.00       143.2941         3.0041         2.1627         0.4644
       6559.50       134.2744         2.8421         2.1981         0.4530
       6560.00       129.7789         2.6440         2.2388         0.5526
       6560.50       128.4095         2.2285         2.2649         0.5109
       6561.00       131.7841         2.3228         2.2707         0.5035
       6561.50       134.6835         2.6867         2.2475         0.5670
       6562.00       136.7319         2.6442         2.2284         0.4731
       6562.50       139.5251         2.4704         2.2364         0.5010
       6563.00       135.7048         2.5803         2.2682         0.5592
       6563.50       139.1499         2.8240         2.2803         0.4517
       6564.00       137.1020         2.7024         2.2812         0.4426
       6564.50       141.8317         2.4454         2.2881         0.4309
       6565.00       144.1074         2.1584         2.2781         0.5233
       6565.50       155.0180         1.7626         2.2579         0.5251
       6566.00       166.6066         1.6679         2.1850         0.4958
       6566.50       175.0126         1.9346         2.1711         0.5625
       6567.00       181.2690         2.5175         2.1451         0.5351
       6567.50       189.9819         1.8804         2.1769         0.6167
       6568.00       206.6815         1.6672         2.1374         0.5450
       6568.50       231.9256         1.8690         1.9643         0.6518
       6569.00       260.7422         2.7160         1.7669         0.5446
       6569.50       287.0747         5.5953         1.6995         0.8397
       6570.00       305.0915         5.2602         1.7162         0.5772
       6570.50       316.7128         3.8878         1.7500         0.7318
       6571.00       324.4189         3.3580         1.7872         0.8232
       6571.50       320.9855         3.7429         1.8010         0.6689
       6572.00       317.7545         3.9182         1.7792         0.7894
       6572.50       302.2661         3.6441         1.7633         0.7027
       6573.00       293.4918         3.7419         1.7786         0.7222
       6573.50       280.9942         4.0533         1.8384         0.6180
       6574.00       285.5468         4.1269         1.9145         0.4940
       6574.50       284.7075         3.8973         1.9957         0.4973
       6575.00       280.9801         3.4431         2.0066         0.6503
       6575.50       268.6344         3.3570         1.9622         0.6774
       6576.00       269.3097         3.0501         1.9408         0.6299
       6576.50       277.3089         3.3008         1.9923         0.5507
       6577.00       279.7544         2.5155         2.1136         0.4810
       6577.50       255.5524         1.5035         2.2717         0.4190
       6578.00       218.7888         1.5667         2.4229         0.3507
       6578.50       172.1718         1.6857         2.4968         0.3229
       6579.00       138.9999         1.2304         2.4759         0.3805
       6579.50       113.8933         0.7897         2.3404         0.4219
       6580.00       103.9802         1.0077         2.1606         0.3976
       6580.50       101.6243         1.7138         2.0572         0.3255
       6581.00        95.8225         2.8638         1.9968         0.2936
       6581.50        89.0319         3.0546         2.0358         0.2493
       6582.00        83.0731         3.2213         2.1267         0.2154
       6582.50        79.2660         3.3105         2.2404         0.1812
       6583.00        78.5030         3.1514         2.3405         0.1992
       6583.50        79.1170         2.8469         2.3357         0.2216
       6584.00        84.5341         2.4831         2.2885         0.2556
       6584.50        91.2484         2.3977         2.1891         0.2779
       6585.00        95.9828         2.5713         2.1546         0.3741
       6585.50        97.5005         2.6024         2.1748         0.4800
       6586.00        98.7126         2.1850         2.2505         0.4734
       6586.50       101.6882         1.9040         2.3375         0.3483
