~Version Information Block
VERS .                  2.0:  CWLS LOG ASCII STANDARD - VERSION 2.0
WRAP .                   NO:  One line per depth step
~Well Information Block
#MNEM.UNIT        Data Type   Information
#---------- ----------------  -----------
STRT .FT            2200.00:  START DEPTH
STOP .FT            8176.50:  STOP DEPTH
STEP .FT               0.50:  STEP
NULL .              -999.25:  NULL VALUE
COMP .                     :  COMPANY
WELL .             SA-25RD1:  WELL
FLD  .                     :  FIELD
LOC  .                     :  LOCATION
CTRY .                     :  COUNTRY
STAT .                     :  STATE
CNTY .                     :  COUNTY
SRVC .                     :  SERVICE COMPANY
DATE .                     :  DATE
API  .                     :  API NUMBER
UWI  .                     :  UNIQUE WELL ID
~Curve Information Block
#MNEM.UNIT         API CODE   Curve Description
#---------- ----------------  -----------------
DEPTH.FT                   :  Bit Depth 2hz
GR   .GAPI                 :  ECO Gamma Ray
RT   .OHMM                 :  ECO Non-BHCorr Phase-Shift Resistivity 40-in. at 2 MHz
RHOB .G/C3                 :  Bulk Density  Bottom
NPHI .V/V                  :  Thermal Neutron Porosity (Ratio Method) in Selected Lithology
~Parameter Information Block
#MNEM.UNIT            Value   Description
#---------- ----------------  -----------
PROJECT.            SERANG_FE:  
~Other Information Block
# 
~A       DEPTH             GR             RT           RHOB           NPHI 
# ...
       3805.00        70.1006         1.6398         2.2412         0.3717
       3805.50        70.5311         1.6129         2.2454         0.4680
       3806.00        71.5484         1.6327         2.2566         0.4357
       3806.50        73.5636         1.5785         2.2659         0.4242
       3807.00        72.3365         1.6327         2.2681         0.4777
       3807.50        71.8278         1.5848         2.2616         0.4492
       3808.00        69.8487         1.6549         2.2693         0.4441
       3808.50        71.0680         1.5357         2.2845         0.4973
       3809.00        71.9424         1.5048         2.2706         0.4471
       3809.50        72.2083         1.5502         2.2708         0.4771
       3810.00        71.4801         1.5846         2.2577         0.4065
       3810.50        70.5021         1.5241         2.2824         0.4202
       3811.00        72.4254         1.5352         2.2684         0.4173
       3811.50        73.7019         1.5992         2.2608         0.5053
       3812.00        75.5952         1.5844         2.2444         0.4473
       3812.50        73.7865         1.5332         2.2461         0.4397
       3813.00        73.1252         1.5537         2.2535         0.4606
       3813.50        73.9761         1.5871         2.2609         0.4045
       3814.00        72.7329         1.5422         2.2724         0.4403
       3814.50        73.6948         1.5733         2.2701         0.4106
       3815.00        71.8140         1.6034         2.2665         0.4340
       3815.50        73.2095         1.5665         2.2662         0.4643
       3816.00        72.7010         1.5451         2.2662         0.4102
       3816.50        73.5691         1.6058         2.2721         0.4160
       3817.00        73.8521         1.5982         2.2792         0.4713
       3817.50        71.9235         1.5483         2.2745         0.4688
       3818.00        72.5811         1.5776         2.2783         0.4932
       3818.50        75.1936         1.6220         2.2732         0.4676
       3819.00        76.9739         1.5602         2.2828         0.4469
       3819.50        76.1348         1.5550         2.2841         0.3415
       3820.00        71.8692         1.6323         2.2829         0.4848
       3820.50        71.0299         1.6040         2.2762         0.3968
       3821.00        70.4230         1.5350         2.2782         0.4584
       3821.50        72.4322         1.5899         2.2864         0.4016
       3822.00        74.2633         1.6479         2.2852         0.4991
       3822.50        75.0263         1.6088         2.2723         0.4748
       3823.00        76.3742         1.6804         2.2640         0.4620
       3823.50        74.3142         1.6606         2.2748         0.4159
       3824.00        76.2217         1.7031         2.2665         0.4225
       3824.50        76.2217         1.6960         2.2736         0.4539
       3825.00        76.0691         1.6748         2.2592         0.4632
       3825.50        74.2379         1.6566         2.2825         0.4572
       3826.00        72.9343         1.6380         2.2662         0.4353
       3826.50        74.7655         1.6299         2.2802         0.4535
       3827.00        69.6510         1.6586         2.2715         0.4099
       3827.50        72.4805         1.7209         2.2828         0.4610
       3828.00        73.0114         1.7331         2.2749         0.4427
       3828.50        79.1178         1.6969         2.2708         0.4401
       3829.00        78.2715         1.6944         2.2708         0.4691
       3829.50        76.2084         1.6235         2.2752         0.4575
       3830.00        76.5899         1.7124         2.2791         0.4500
       3830.50        76.1357         1.7126         2.2839         0.4445
       3831.00        77.5124         1.7421         2.2840         0.4933
       3831.50        78.8094         1.6532         2.2849         0.4958
       3832.00        78.8060         1.6728         2.2941         0.4632
       3832.50        79.6712         1.7182         2.3003         0.4029
       3833.00        79.8444         1.8371         2.3074         0.4556
       3833.50        79.6942         1.8889         2.2982         0.4272
       3834.00        76.3096         1.8194         2.2952         0.4553
       3834.50        77.7386         1.8135         2.2902         0.4507
       3835.00        76.8252         1.7821         2.2878         0.5001
       3835.50        79.0408         1.8465         2.2892         0.4157
       3836.00        74.4120         1.8596         2.2902         0.4771
       3836.50        73.8802         1.8884         2.2935         0.4382
       3837.00        72.9600         1.7501         2.2978         0.4712
       3837.50        74.1154         1.7709         2.2861         0.4274
       3838.00        74.7410         1.6810         2.2889         0.4156
       3838.50        77.5322         1.7551         2.2801         0.4377
       3839.00        77.0762         1.7210         2.2961         0.4244
       3839.50        77.7824         1.8120         2.2889         0.5590
       3840.00        77.3211         1.7765         2.2999         0.4821
       3840.50        78.7707         1.8504         2.3048         0.4316
       3841.00        78.2749         1.7609         2.3041         0.4484
       3841.50        76.5983         1.8064         2.3054         0.4562
       3842.00        76.5586         1.7519         2.3051         0.4446
       3842.50        77.1191         1.7140         2.3133         0.4163
       3843.00        79.2934         1.6750         2.3093         0.4547
       3843.50        79.9817         1.6944         2.2965         0.4062
       3844.00        82.0167         1.6217         2.2923         0.4925
       3844.50        81.6369         1.6049         2.2801         0.4764
       3845.00        83.9742         1.6325         2.2871         0.4377
       3845.50        84.2394         1.5467         2.2875         0.4773
       3846.00        85.6128         1.5169         2.2839         0.5148
       3846.50        84.1529         1.5114         2.2753         0.5294
       3847.00        84.1926         1.4104         2.2708         0.5045
       3847.50        83.8076         1.4347         2.2774         0.5238
       3848.00        84.5250         1.4273         2.2857         0.4742
       3848.50        84.2965         1.4511         2.2960         0.4570
       3849.00        88.1859         1.4894         2.3071         0.5450
       3849.50        90.1009         1.5071         2.3028         0.5162
       3850.00        89.1085         1.4959         2.2970         0.4341
       3850.50        84.6375         1.4692         2.2877         0.5071
       3851.00        82.1378         1.5293         2.3019         0.4536
       3851.50        82.2035         1.5295         2.3015         0.4985
       3852.00        84.0826         1.4850         2.3140         0.4261
       3852.50        83.7211         1.5701         2.3164         0.4813
       3853.00        85.0286         1.5839         2.3233         0.4304
       3853.50        85.3853         1.5719         2.3158         0.4374
       3854.00        86.8089         1.5782         2.2952         0.4661
       3854.50        88.6767         1.4424         2.2865         0.4781
       3855.00        88.6587         1.4398         2.2899         0.5015
       3855.50        89.5340         1.4087         2.2977         0.4831
       3856.00        91.9795         1.4868         2.3006         0.4958
       3856.50        94.5008         1.3912         2.2909         0.4556
       3857.00        97.0469         1.6070         2.2875         0.4665
       3857.50        98.7589         1.4748         2.2871         0.5248
       3858.00        98.3692         1.5790         2.2938         0.4781
