~Version Information Block
VERS .                  2.0:  CWLS LOG ASCII STANDARD - VERSION 2.0
WRAP .                   NO:  One line per depth step
~Well Information Block
#MNEM.UNIT        Data Type   Information
#---------- ----------------  -----------
STRT .FT            2988.00:  START DEPTH
STOP .FT            9585.50:  STOP DEPTH
STEP .FT               0.50:  STEP
NULL .              -999.25:  NULL VALUE
COMP .                     :  COMPANY
WELL .              SA-24HZ:  WELL
FLD  .                     :  FIELD
LOC  .                     :  LOCATION
CTRY .                     :  COUNTRY
STAT .                     :  STATE
CNTY .                     :  COUNTY
SRVC .                     :  SERVICE COMPANY
DATE .                     :  DATE
API  .                     :  API NUMBER
UWI  .                     :  UNIQUE WELL ID
~Curve Information Block
#MNEM.UNIT         API CODE   Curve Description
#---------- ----------------  -----------------
DEPTH.FT                   :  DEPTH
GR   .GAPI                 :  Gamma Ray
RT   .OHMM                 :  Deep resistivity
RHOB .G/C3                 :  Bulk density
NPHI .V/V                  :  Neutron porosity
~Parameter Information Block
#MNEM.UNIT            Value   Description
#---------- ----------------  -----------
PROJECT.            SERANG_FE:  
~Other Information Block
# 
~A       DEPTH             GR             RT           RHOB           NPHI 
# ...
       6037.50        78.6200         1.0600         2.5300       0.360000
       6038.00        73.8400         1.1400         2.5400       0.370000
       6038.50        75.5100         1.1700         2.5000       0.360000
       6039.00        78.6100         1.1800         2.4500       0.360000
       6039.50        81.4400         1.1900         2.4400       0.370000
       6040.00        80.2600         1.1900         2.4400       0.360000
       6040.50        80.2300         1.2000         2.4600       0.380000
       6041.00        80.1700         1.2100         2.4600       0.380000
       6041.50        79.7200         1.2400         2.4600       0.400000
       6042.00        78.6100         1.2600         2.4600       0.410000
       6042.50        79.0000         1.2800         2.4600       0.420000
       6043.00        80.1000         1.3000         2.4500       0.450000
       6043.50        81.4200         1.3100         2.4300       0.470000
       6044.00        79.2500         1.3800         2.4000       0.470000
       6044.50        75.8900         1.4200         2.3900       0.450000
       6045.00        72.5900         1.4000         2.4100       0.430000
       6045.50        70.9700         1.3800         2.4300       0.420000
       6046.00        70.0900         1.3800         2.4200       0.410000
       6046.50        69.6500         1.4300         2.4100       0.400000
       6047.00        67.1200         1.4500         2.3900       0.400000
       6047.50        63.9700         1.4400         2.3900       0.400000
       6048.00        62.5100         1.4300         2.4300       0.390000
       6048.50        66.7400         1.4300         2.4200       0.390000
       6049.00        72.0900         1.4200         2.4200       0.400000
       6049.50        75.6100         1.4200         2.4700       0.440000
       6050.00        75.0200         1.3600         2.4900       0.450000
       6050.50        74.0600         1.3600         2.4800       0.490000
       6051.00        77.0000         1.3600         2.4900       0.510000
       6051.50        80.6200         1.3700         2.4300       0.510000
       6052.00        84.2900         1.3200         2.4000       0.490000
       6052.50        82.0800         1.3300         2.4000       0.460000
       6053.00        80.7300         1.3300         2.4000       0.470000
       6053.50        79.4800         1.3300         2.4400       0.500000
       6054.00        79.8500         1.3000         2.4600       0.530000
       6054.50        82.5300         1.3500         2.4500       0.530000
       6055.00        85.7600         1.3900         2.4200       0.520000
       6055.50        85.9000         1.3600         2.3900       0.500000
       6056.00        88.0000         1.3500         2.3700       0.480000
       6056.50        89.9000         1.3500         2.3500       0.450000
       6057.00        91.3700         1.4800         2.3400       0.430000
       6057.50        89.9500         1.5300         2.3500       0.410000
       6058.00        82.5400         1.4000         2.3600       0.420000
       6058.50        80.3700         1.4000         2.3800       0.450000
       6059.00        76.9200         1.4000         2.4100       0.500000
       6059.50        74.7900         1.5000         2.4300       0.510000
       6060.00        75.4600         1.5100         2.4400       0.510000
       6060.50        71.5700         1.5100         2.4500       0.470000
       6061.00        71.7100         1.5200         2.4600       0.430000
       6061.50        64.4800         1.5900         2.4600       0.390000
       6062.00        66.1000         1.6000         2.4700       0.370000
       6062.50        66.2500         1.6100         2.5100       0.370000
       6063.00        71.3100         1.6600         2.5500       0.370000
       6063.50        70.4100         1.6700         2.5300       0.370000
       6064.00        71.2900         1.6300         2.4600       0.360000
       6064.50        66.0100         1.5900         2.4100       0.350000
       6065.00        66.0600         1.5800         2.4200       0.350000
       6065.50        63.7500         1.6000         2.4300       0.350000
       6066.00        66.1200         1.6300         2.4400       0.360000
       6066.50        66.4600         1.6300         2.4500       0.340000
       6067.00        67.1900         1.7300         2.4600       0.350000
       6067.50        71.9700         1.6800         2.4500       0.370000
       6068.00        73.7900         1.6700         2.4500       0.420000
       6068.50        75.1800         1.6600         2.4600       0.440000
       6069.00        71.8500         1.7500         2.4700       0.430000
       6069.50        70.6900         1.6400         2.4800       0.420000
       6070.00        72.4200         1.6100         2.5000       0.420000
       6070.50        70.8100         1.6300         2.5000       0.430000
       6071.00        69.0800         1.6300         2.4800       0.420000
       6071.50        66.6600         1.6400         2.4500       0.400000
       6072.00        66.2900         1.6200         2.4400       0.380000
       6072.50        62.5800         1.6400         2.4300       0.380000
       6073.00        61.9200         1.6200         2.4200       0.380000
       6073.50        65.9600         1.6200         2.4200       0.380000
       6074.00        71.4600         1.5900         2.4400       0.370000
       6074.50        72.7100         1.6600         2.4500       0.390000
       6075.00        71.6100         1.6300         2.4600       0.390000
       6075.50        69.3300         1.6000         2.4500       0.390000
       6076.00        68.7800         1.5800         2.4500       0.370000
       6076.50        67.1600         1.6000         2.4400       0.390000
       6077.00        71.2000         1.5800         2.4300       0.420000
       6077.50        73.0700         1.5700         2.4300       0.450000
       6078.00        73.0000         1.5700         2.4400       0.450000
       6078.50        70.2900         1.5700         2.4400       0.440000
       6079.00        68.7400         1.5100         2.4300       0.430000
       6079.50        70.2900         1.5300         2.4300       0.440000
       6080.00        72.6400         1.5300         2.4300       0.440000
       6080.50        73.4500         1.4800         2.4100       0.430000
       6081.00        73.7400         1.5000         2.3700       0.430000
       6081.50        76.1600         1.4800         2.3500       0.450000
       6082.00        75.7200         1.4900         2.3700       0.480000
       6082.50        78.1400         1.4700         2.3800       0.500000
       6083.00        71.1700         1.5000         2.4000       0.490000
       6083.50        70.2400         1.4800         2.4200       0.470000
       6084.00        65.9800         1.4500         2.4300       0.460000
       6084.50        71.4900         1.4300         2.4200       0.440000
       6085.00        72.4200         1.4200         2.4200       0.430000
       6085.50        76.2000         1.4200         2.4300       0.420000
       6086.00        76.3400         1.4000         2.4200       0.440000
       6086.50        76.2000         1.4300         2.4000       0.460000
       6087.00        77.0400         1.4300         2.4200       0.480000
       6087.50        73.2700         1.4200         2.4300       0.460000
       6088.00        72.9000         1.4200         2.4200       0.450000
       6088.50        70.6900         1.4100         2.4000       0.460000
       6089.00        71.9700         1.4300         2.3900       0.480000
       6089.50        72.7100         1.3800         2.3800       0.510000
       6090.00        72.6400         1.3800         2.4000       0.510000
       6090.50        74.9900         1.4300         2.4100       0.500000
