~Version Information Block
VERS .                  2.0:  CWLS LOG ASCII STANDARD - VERSION 2.0
WRAP .                   NO:  One line per depth step
~Well Information Block
#MNEM.UNIT        Data Type   Information
#---------- ----------------  -----------
STRT .FT            3121.50:  START DEPTH
STOP .FT            8357.50:  STOP DEPTH
STEP .FT               0.50:  STEP
NULL .              -999.25:  NULL VALUE
COMP .                     :  COMPANY
WELL .                SA-21:  WELL
FLD  .                     :  FIELD
LOC  .                     :  LOCATION
CTRY .                     :  COUNTRY
STAT .                     :  STATE
CNTY .                     :  COUNTY
SRVC .                     :  SERVICE COMPANY
DATE .                     :  DATE
API  .                     :  API NUMBER
UWI  .                     :  UNIQUE WELL ID
~Curve Information Block
#MNEM.UNIT         API CODE   Curve Description
#---------- ----------------  -----------------
DEPTH.FT                   :  DEPTH
GR   .GAPI                 :  Gamma Ray
RT   .OHMM                 :  Deep resistivity
RHOB .G/C3                 :  Bulk density
NPHI .V/V                  :  Neutron porosity
DT   .US/F                 :  Sonic
~Parameter Information Block
#MNEM.UNIT            Value   Description
#---------- ----------------  -----------
PROJECT.            SERANG_FE:  
~Other Information Block
# 
~A       DEPTH             GR             RT           RHOB           NPHI             DT 
# ...
       6236.50        26.9219         1.5500         2.1000       0.233900       147.3137
       6237.00        25.8438         1.5400         2.1100       0.239600       149.1870
       6237.50        28.2031         1.5300         2.1200       0.263500       150.3110
       6238.00        30.8594         1.5200         2.1200       0.260200       150.4983
       6238.50        30.1875         1.5200         2.1000       0.244300       152.9337
       6239.00        29.6250         1.5200         2.0900       0.223200       155.3690
       6239.50        25.2969         1.5200         2.0900       0.223900       157.8043
       6240.00        23.8906         1.5200         2.0800       0.214000       156.3056
       6240.50        21.6406         1.5200         2.0800       0.224700       154.0576
       6241.00        23.4375         1.5300         2.0900       0.224300       154.8070
       6241.50        25.2656         1.5400         2.0900       0.243200       151.0603
       6242.00        26.0156         1.5500         2.1000       0.239300       152.3092
       6242.50        25.3281         1.5500         2.1300       0.239300       151.8097
       6243.00        26.4375         1.5600         2.1600       0.232600       154.0576
       6243.50        24.5156         1.5600         2.1800       0.236700       156.3056
       6244.00        24.3438         1.5700         2.1700       0.237300       158.5536
       6244.50        22.2031         1.5800         2.1700       0.254800       158.5536
       6245.00        24.2344         1.5900         2.1700       0.252900       157.8043
       6245.50        24.1875         1.6000         2.1700       0.255800       157.0550
       6246.00        23.7500         1.6000         2.1700       0.241700       156.3056
       6246.50        23.6406         1.6100         2.1600       0.260200       154.0576
       6247.00        25.0156         1.6100         2.1400       0.270900       152.7463
       6247.50        28.9844         1.6100         2.1100       0.288600       151.4350
       6248.00        31.6875         1.6100         2.1000       0.274200       150.1237
       6248.50        33.3750         1.6100         2.1000       0.279000       148.8123
       6249.00        33.4688         1.6100         2.1200       0.274900       143.9000
       6249.50        35.4062         1.6100         2.1200       0.291500       137.5000
       6250.00        35.9688         1.6200         2.1300       0.299900       128.1000
       6250.50        38.4375         1.6400         2.1900       0.313100       123.4000
       6251.00        42.1875         1.6600         2.2500       0.313100       113.1000
       6251.50        47.7500         1.7100         2.3200       0.317000       108.4000
       6252.00        57.9062         1.7800         2.3100       0.326100       111.5000
       6252.50        63.7500         1.8700         2.2200       0.348600       114.0000
       6253.00        69.6250         1.9700         2.1500       0.408700       117.2000
       6253.50        70.3125         2.0600         2.1500       0.447900       117.6000
       6254.00        78.6250         2.1300         2.2300       0.439100       116.4000
       6254.50        92.0625         2.2000         2.3200       0.397500       113.6000
       6255.00        99.5000         2.2600         2.3100       0.369600       111.9000
       6255.50        98.5625         2.3000         2.2900       0.381300       113.7000
       6256.00        93.3750         2.3100         2.2900       0.401300       113.2000
       6256.50        95.6250         2.3000         2.3300       0.390300       112.4000
       6257.00        96.2500         2.2800         2.3800       0.389900       107.0000
       6257.50        96.2500         2.2600         2.4100       0.343700       104.1000
       6258.00        86.8125         2.2500         2.4300       0.338700       102.9000
       6258.50        81.6250         2.2400         2.4200       0.321900       103.4000
       6259.00        76.2500         2.2100         2.4000       0.338200       104.7000
       6259.50        73.6875         2.1800         2.3800       0.334900       105.5000
       6260.00        74.4375         2.1500         2.3800       0.315300       105.8000
       6260.50        72.3750         2.1300         2.3900       0.307700       105.5000
       6261.00        77.0625         2.1200         2.4000       0.316100       107.1000
       6261.50        75.0000         2.1100         2.3900       0.327100       107.4000
       6262.00        77.0000         2.1000         2.4100       0.334900       109.1000
       6262.50        76.4375         2.0900         2.4100       0.323000       108.7000
       6263.00        76.2500         2.0800         2.3900       0.327500       108.5000
       6263.50        77.3125         2.0600         2.4000       0.331800       110.0000
       6264.00        78.0000         2.0400         2.3800       0.356200       110.8000
       6264.50        79.3125         2.0300         2.3600       0.362800       112.9000
       6265.00        76.4375         2.0100         2.3300       0.342100       112.0000
       6265.50        70.0000         1.9800         2.3300       0.328700       110.7000
       6266.00        69.0000         1.9700         2.3200       0.321900       109.6000
       6266.50        67.0625         1.9500         2.3500       0.336600       107.2000
       6267.00        72.8750         1.9300         2.3800       0.326400       105.3000
       6267.50        73.1250         1.9100         2.4400       0.331800       104.8000
       6268.00        77.5000         1.8900         2.4500       0.319300       103.3000
       6268.50        79.7500         1.8700         2.4500       0.312900       103.4000
       6269.00        84.5000         1.8500         2.4400       0.308500       103.8000
       6269.50        90.1875         1.8300         2.4400       0.323300       104.2000
       6270.00        88.5000         1.8200         2.4500       0.329800       104.6000
       6270.50        87.6875         1.8000         2.4400       0.328500       105.8000
       6271.00        86.6250         1.7800         2.4300       0.315000       107.0000
       6271.50        89.1250         1.7600         2.4300       0.348000       108.5000
       6272.00        88.6250         1.7400         2.4300       0.356200       109.7000
       6272.50        87.0625         1.7200         2.4300       0.360900       110.3000
       6273.00        87.1250         1.7000         2.4300       0.334600       111.4000
       6273.50        90.0000         1.6800         2.4200       0.326300       111.7000
       6274.00        91.0000         1.6600         2.4300       0.337700       112.3000
       6274.50        92.8125         1.6400         2.4400       0.339300       112.5000
       6275.00        93.7500         1.6300         2.4400       0.372400       113.1000
       6275.50        95.1875         1.6200         2.4400       0.378500       113.0000
       6276.00        94.9375         1.6000         2.4300       0.402700       113.4000
       6276.50        95.7500         1.5800         2.4200       0.420600       112.8000
       6277.00        96.9375         1.5700         2.4100       0.414600       113.1000
       6277.50        99.5625         1.5700         2.4100       0.407100       113.8000
       6278.00        99.5000         1.5600         2.4000       0.389100       114.6000
       6278.50        99.0000         1.5600         2.4100       0.401100       115.7000
       6279.00        94.6875         1.5500         2.4200       0.391600       116.1000
       6279.50        94.1875         1.5500         2.4000       0.399000       115.9000
       6280.00        90.6875         1.5400         2.3900       0.375200       116.5000
       6280.50        93.4375         1.5400         2.4000       0.376800       115.6000
