~Version Information Block
VERS .                  2.0:  CWLS LOG ASCII STANDARD - VERSION 2.0
WRAP .                   NO:  One line per depth step
~Well Information Block
#MNEM.UNIT        Data Type   Information
#---------- ----------------  -----------
STRT .FT            3121.50:  START DEPTH
STOP .FT            8357.50:  STOP DEPTH
STEP .FT               0.50:  STEP
NULL .              -999.25:  NULL VALUE
COMP .                     :  COMPANY
WELL .                SA-21:  WELL
FLD  .                     :  FIELD
LOC  .                     :  LOCATION
CTRY .                     :  COUNTRY
STAT .                     :  STATE
CNTY .                     :  COUNTY
SRVC .                     :  SERVICE COMPANY
DATE .                     :  DATE
API  .                     :  API NUMBER
UWI  .                     :  UNIQUE WELL ID
~Curve Information Block
#MNEM.UNIT         API CODE   Curve Description
#---------- ----------------  -----------------
DEPTH.FT                   :  DEPTH
GR   .GAPI                 :  Gamma Ray
RT   .OHMM                 :  Deep resistivity
RHOB .G/C3                 :  Bulk density
NPHI .V/V                  :  Neutron porosity
DT   .US/F                 :  Sonic
~Parameter Information Block
#MNEM.UNIT            Value   Description
#---------- ----------------  -----------
PROJECT.            SERANG_FE:  
~Other Information Block
# 
~A       DEPTH             GR             RT           RHOB           NPHI             DT 
       3121.50        43.6562        32.0300         1.7900       0.561200       338.8000
       3122.00        42.3750        34.8100         1.7700       0.613400       341.4000
       3122.50        42.4375        35.2800         1.7400       0.597900       340.4000
       3123.00        38.4375        34.5900         1.7200       0.592500       352.9000
       3123.50        38.9375        34.8800         1.7000       0.551100       352.8000
       3124.00        40.6875        35.2800         1.7100       0.578600       376.1000
       3124.50        42.6562        36.8400         1.7100       0.545000       374.4000
       3125.00        41.8750        39.7500         1.7300       0.556000       372.9000
       3125.50        40.3438        38.9700         1.7000       0.557100       311.5000
       3126.00        38.5625        38.4100         1.7100       0.633800       313.7000
       3126.50        38.5625        40.1600         1.6800       0.612800       309.3000
       3127.00        39.8438        39.7200         1.7100       0.582200       338.0000
       3127.50        41.2500        40.9400         1.7200       0.570000       337.8000
       3128.00        42.2812        39.6200         1.7600       0.586000       337.7000
       3128.50        42.1562        37.2800         1.8100       0.568200       314.8000
       3129.00        42.4688        38.0900         1.7800       0.564000       302.9000
       3129.50        40.4375        35.9700         1.7500       0.593800       302.0000
       3130.00        39.2812        35.2500         1.7700       0.626300       300.3000
       3130.50        39.5938        34.9700         1.7700       0.577500       302.4000
       3131.00        40.5938        33.0000         1.8100       0.550600       302.5000
       3131.50        39.5625        32.6600         1.8500       0.539400       300.1000
       3132.00        38.2812        31.7800         1.9100       0.525600       294.6000
       3132.50        38.3750        30.3000         1.9800       0.507500       294.2000
       3133.00        39.2812        30.9700         2.0000       0.546300       287.0000
       3133.50        37.5938        30.0300         2.0400       0.563900       285.7000
       3134.00        37.7812        28.9400         2.0400       0.574800       192.1000
       3134.50        38.9688        29.7000         2.0400       0.490400       193.7000
       3135.00        40.2500        29.1400         1.9700       0.495900       193.9000
       3135.50        40.2812        29.9700         1.9000       0.484900       203.7000
       3136.00        37.5625        32.1600         1.8700       0.544500       203.2000
       3136.50        37.4062        31.8800         1.8600       0.536700       203.5000
       3137.00        36.4688        32.8800         1.8800       0.554600       186.6000
       3137.50        36.3438        34.2500         1.8900       0.497200        98.4000
       3138.00        34.5938        35.3100         1.9000       0.460100        98.1000
       3138.50        32.0312        39.2800         1.9000       0.413900        98.2000
       3139.00        31.5000        44.9700         1.8700       0.466600        72.3000
       3139.50        31.8281        55.2800         1.8600       0.515300        89.1000
       3140.00        35.6875        69.5000         1.8300       0.507700        88.8000
       3140.50        40.0000        96.7500         1.8400       0.493000        88.5000
       3141.00        46.0625       116.6200         1.8600       0.489000        89.3000
       3141.50        45.2500       183.7500         1.8400       0.519900        89.1000
       3142.00        46.6250       379.2500         1.8100       0.520100        76.9000
       3142.50        47.6562      1950.0000         1.8100       0.514400        76.5000
       3143.00        51.7188      1950.0000         1.8100       0.493100        75.4000
       3143.50        53.9062      1950.0000         1.8300       0.483900        49.6000
       3144.00        51.3438      1950.0000         1.8200       0.489700        54.4000
       3144.50        50.9688      1950.0000         1.8000       0.502200        89.8000
       3145.00        53.0938      1950.0000         1.7700       0.508300        89.8000
       3145.50        58.2812      1950.0000         1.7800       0.502100        90.6000
       3146.00        61.0000      1950.0000         1.8200       0.497500       152.9000
       3146.50        58.8750      1950.0000         1.8900       0.461000       152.9000
       3147.00        55.3750      1950.0000         1.9800       0.435700       155.6000
       3147.50        50.9375      1950.0000         2.1600       0.445100       158.3000
       3148.00        43.1875      1950.0000         2.1500       0.498000       179.0000
       3148.50        41.1562      1950.0000         2.0900       0.556300       179.8000
       3149.00        43.2188        27.2300         1.9600       0.546700       141.3000
       3149.50        51.2500         9.8800         1.9800       0.461800       140.3000
       3150.00        56.1250         6.7900         2.0600       0.375600       140.4000
       3150.50        56.1562      1950.0000         2.2100       0.363400       138.9000
       3151.00        53.5625         6.3700         2.1900       0.381300       136.7000
       3151.50        50.5938         0.3600         2.1900       0.397800       131.0000
       3152.00        48.2188         0.4100         2.1900       0.371700       134.4000
       3152.50        48.8438         0.4700         2.1900       0.337100       135.8000
       3153.00        45.8750         0.5500         2.1400       0.304700       134.4000
       3153.50        46.0000         0.9400         2.0600       0.339000       143.6000
       3154.00        51.0938         1.4500         1.9900       0.412700       146.6000
       3154.50        57.7188         1.4900         1.9900       0.447400       149.0000
       3155.00        62.7812         1.5500         2.0400       0.435600       153.8000
       3155.50        62.2500         1.5500         2.0800       0.464600       153.6000
       3156.00        65.7500         1.4900         2.0900       0.445300       153.5000
       3156.50        66.3750         1.3900         2.1000       0.442100       151.2000
       3157.00        67.0000         1.2500         2.1200       0.412800       150.7000
       3157.50        65.8125         1.1600         2.1500       0.431200       146.2000
       3158.00        66.6875         1.1200         2.1700       0.448800       146.8000
       3158.50        70.7500         1.1100         2.1900       0.433200       147.3000
       3159.00        72.1250         1.0800         2.1900       0.447000       146.4000
       3159.50        75.4375         1.1000         2.1900       0.439800       151.3000
       3160.00        77.7500         1.1300         2.1800       0.432100       152.0000
       3160.50        83.2500         1.1500         2.1800       0.409500       152.5000
       3161.00        84.2500         1.1500         2.1800       0.439600       151.9000
       3161.50        83.1250         1.1300         2.1800       0.424000       151.4000
       3162.00        77.6250         1.1100         2.1900       0.447400       150.6000
       3162.50        80.2500         1.1000         2.2000       0.437200       150.7000
       3163.00        79.9375         1.1000         2.2000       0.431000       150.4000
       3163.50        83.6875         1.1100         2.2000       0.445600       149.4000
       3164.00        81.6250         1.1200         2.2000       0.433900       149.5000
       3164.50        83.3125         1.1400         2.2100       0.464400       149.4000
       3165.00        81.3125         1.1600         2.2200       0.448500       148.4000
       3165.50        81.6875         1.1700         2.2300       0.423200       148.4000
