~Version Information Block
VERS .                  2.0:  CWLS LOG ASCII STANDARD - VERSION 2.0
WRAP .                   NO:  One line per depth step
~Well Information Block
#MNEM.UNIT        Data Type   Information
#---------- ----------------  -----------
STRT .FT            3121.50:  START DEPTH
STOP .FT            8357.50:  STOP DEPTH
STEP .FT               0.50:  STEP
NULL .              -999.25:  NULL VALUE
COMP .                     :  COMPANY
WELL .                SA-21:  WELL
FLD  .                     :  FIELD
LOC  .                     :  LOCATION
CTRY .                     :  COUNTRY
STAT .                     :  STATE
CNTY .                     :  COUNTY
SRVC .                     :  SERVICE COMPANY
DATE .                     :  DATE
API  .                     :  API NUMBER
UWI  .                     :  UNIQUE WELL ID
~Curve Information Block
#MNEM.UNIT         API CODE   Curve Description
#---------- ----------------  -----------------
DEPTH.FT                   :  DEPTH
GR   .GAPI                 :  Gamma Ray
RT   .OHMM                 :  Deep resistivity
RHOB .G/C3                 :  Bulk density
NPHI .V/V                  :  Neutron porosity
DT   .US/F                 :  Sonic
~Parameter Information Block
#MNEM.UNIT            Value   Description
#---------- ----------------  -----------
PROJECT.            SERANG_FE:  
~Other Information Block
# 
~A       DEPTH             GR             RT           RHOB           NPHI             DT 
# ...
       7304.50        81.3125         2.8800         2.3200       0.338300       104.6000
       7305.00        85.2500         2.6900         2.2000       0.415200       111.0000
       7305.50        86.0000         2.5000         2.1400       0.469000       114.8000
       7306.00        78.6875         2.3100         2.1900       0.428700       114.2000
       7306.50        71.6250         2.2000         2.3100       0.367000       109.9000
       7307.00        64.7500         2.1900         2.3800       0.290500       104.5000
       7307.50        59.2812         2.2100         2.4000       0.243900        96.8000
       7308.00        58.6250         2.2100         2.3900       0.209100        98.7000
       7308.50        58.2812         2.1400         2.3800       0.203900       100.3000
       7309.00        57.4688         2.0200         2.3700       0.198200        98.5000
       7309.50        58.8125         1.9500         2.3700       0.207000        98.7000
       7310.00        59.4375         1.9300         2.3700       0.213200       100.7000
       7310.50        64.2500         1.9200         2.3700       0.213100       100.3000
       7311.00        61.4062         1.9200         2.3900       0.206700        98.8000
       7311.50        56.4062         1.9000         2.4300       0.209100        99.2000
       7312.00        55.4375         1.8600         2.4300       0.226300        95.5000
       7312.50        53.6250         1.8300         2.4000       0.237000        96.1000
       7313.00        57.0000         1.8000         2.3700       0.223500        97.3000
       7313.50        57.5938         1.7600         2.3800       0.236200        97.0000
       7314.00        61.6250         1.7100         2.4000       0.251200        97.1000
       7314.50        67.5625         1.6500         2.4100       0.266000        98.9000
       7315.00        69.7500         1.5900         2.4200       0.253900        99.1000
       7315.50        71.6250         1.5500         2.4100       0.255200        97.5000
       7316.00        70.9375         1.5200         2.4200       0.256300        98.5000
       7316.50        71.3125         1.4900         2.4500       0.268600        98.8000
       7317.00        73.3750         1.4600         2.4800       0.267400        96.4000
       7317.50        76.9375         1.4500         2.4700       0.280200        96.7000
       7318.00        77.6250         1.4400         2.4600       0.274700        96.9000
       7318.50        79.6875         1.4500         2.4700       0.271400        96.3000
       7319.00        77.0625         1.4500         2.4800       0.272400        96.9000
       7319.50        78.5625         1.4600         2.4600       0.278500        97.3000
       7320.00        77.6250         1.4800         2.4500       0.280700        95.2000
       7320.50        81.3750         1.4900         2.4800       0.277400        95.8000
       7321.00        81.2500         1.5100         2.5000       0.274800        96.8000
       7321.50        84.7500         1.5200         2.5100       0.274200        96.8000
       7322.00        85.6250         1.5400         2.4900       0.289600        97.5000
       7322.50        92.7500         1.5600         2.4700       0.290300        98.0000
       7323.00        90.8125         1.5900         2.4700       0.322900        97.6000
       7323.50        88.0000         1.6600         2.4700       0.333800        98.7000
       7324.00        79.9375         1.7700         2.4800       0.314300        98.6000
       7324.50        72.3125         1.8900         2.4800       0.257500        97.6000
       7325.00        59.7812         2.0400         2.4400       0.206100        99.4000
       7325.50        46.7188         2.2400         2.3800       0.198900       100.3000
       7326.00        38.3750         2.4700         2.3300       0.198900       102.2000
       7326.50        35.2500         2.7400         2.3100       0.189000       104.9000
       7327.00        36.5938         3.0600         2.3000       0.171100       105.1000
       7327.50        35.9062         3.3900         2.3100       0.167500       104.5000
       7328.00        36.2812         3.6700         2.3200       0.171400       103.4000
       7328.50        34.4688         3.8700         2.3100       0.183000       104.9000
       7329.00        35.6250         3.9700         2.3000       0.180100       101.9000
       7329.50        36.1562         3.9900         2.2900       0.187100       102.6000
       7330.00        36.9688         4.0100         2.2900       0.185100       102.6000
       7330.50        34.8125         4.0200         2.2900       0.186100       100.1000
       7331.00        33.1250         4.0100         2.2900       0.162100        96.2000
       7331.50        32.2188         4.0000         2.3200       0.147600        92.0000
       7332.00        34.5000         3.9600         2.3400       0.145900        91.3000
       7332.50        35.4688         3.8800         2.3600       0.162800        92.6000
       7333.00        35.5000         3.8000         2.3500       0.173700        96.7000
       7333.50        36.2812         3.7400         2.3300       0.192500       102.0000
       7334.00        36.8750         3.7100         2.3100       0.202300       102.8000
       7334.50        40.4688         3.6800         2.2900       0.207700       103.8000
       7335.00        39.9375         3.6300         2.2900       0.191700       103.8000
       7335.50        39.4062         3.5900         2.2900       0.186200       103.8000
       7336.00        37.3438         3.5800         2.3100       0.188700       104.8000
       7336.50        35.9062         3.5900         2.3200       0.180900       102.5000
       7337.00        33.7188         3.6500         2.3300       0.168400       102.5000
       7337.50        32.7500         3.6900         2.3300       0.157300       101.2000
       7338.00        33.6875         3.6800         2.3300       0.162600       100.3000
       7338.50        35.5625         3.6100         2.3500       0.179700        99.6000
       7339.00        36.2188         3.4600         2.3500       0.204600        99.8000
       7339.50        37.8438         3.2700         2.3400       0.230600        99.4000
       7340.00        40.5938         3.0500         2.3400       0.231400        99.9000
       7340.50        46.7188         2.7300         2.3700       0.235100        99.8000
       7341.00        55.3438         2.3400         2.4200       0.240100        96.6000
       7341.50        66.0625         2.0700         2.4300       0.248700        94.9000
       7342.00        70.0625         1.8800         2.4300       0.242500        94.4000
       7342.50        71.3750         1.7200         2.4100       0.237500        94.2000
       7343.00        70.3750         1.5900         2.4200       0.232700        94.8000
       7343.50        70.6875         1.4800         2.4200       0.238700        96.0000
       7344.00        72.0625         1.3800         2.4100       0.240000        96.4000
       7344.50        74.0625         1.3000         2.4000       0.253800        96.5000
       7345.00        76.6875         1.2500         2.3900       0.252200        97.1000
       7345.50        74.6875         1.2100         2.4000       0.246900        97.8000
       7346.00        71.6250         1.1600         2.4100       0.238500        97.3000
       7346.50        73.5000         1.1200         2.4200       0.260800        97.7000
       7347.00        75.3125         1.1000         2.4200       0.268200        98.2000
       7347.50        77.5000         1.0800         2.4200       0.284600        98.7000
       7348.00        75.9375         1.0600         2.4200       0.277200        99.1000
       7348.50        74.5000         1.0400         2.4200       0.273800        99.0000
