~Version Information Block
VERS .                  2.0:  CWLS LOG ASCII STANDARD - VERSION 2.0
WRAP .                   NO:  One line per depth step
~Well Information Block
#MNEM.UNIT        Data Type   Information
#---------- ----------------  -----------
STRT .FT            2200.00:  START DEPTH
STOP .FT            8176.50:  STOP DEPTH
STEP .FT               0.50:  STEP
NULL .              -999.25:  NULL VALUE
COMP .                     :  COMPANY
WELL .             SA-25RD1:  WELL
FLD  .                     :  FIELD
LOC  .                     :  LOCATION
CTRY .                     :  COUNTRY
STAT .                     :  STATE
CNTY .                     :  COUNTY
SRVC .                     :  SERVICE COMPANY
DATE .                     :  DATE
API  .                     :  API NUMBER
UWI  .                     :  UNIQUE WELL ID
~Curve Information Block
#MNEM.UNIT         API CODE   Curve Description
#---------- ----------------  -----------------
DEPTH.FT                   :  Bit Depth 2hz
GR   .GAPI                 :  ECO Gamma Ray
RT   .OHMM                 :  ECO Non-BHCorr Phase-Shift Resistivity 40-in. at 2 MHz
RHOB .G/C3                 :  Bulk Density  Bottom
NPHI .V/V                  :  Thermal Neutron Porosity (Ratio Method) in Selected Lithology
~Parameter Information Block
#MNEM.UNIT            Value   Description
#---------- ----------------  -----------
PROJECT.            SERANG_FE:  
~Other Information Block
# 
~A       DEPTH             GR             RT           RHOB           NPHI 
       2200.00      -999.2500      5000.0000      -999.2500      -999.2500
       2200.50      -999.2500      5000.0000      -999.2500      -999.2500
       2201.00      -999.2500      5000.0000      -999.2500      -999.2500
       2201.50      -999.2500        85.1307      -999.2500      -999.2500
       2202.00      -999.2500        37.9375      -999.2500      -999.2500
       2202.50      -999.2500         0.1126         1.7836      -999.2500
       2203.00      -999.2500         0.1000         1.9286      -999.2500
       2203.50      -999.2500         0.1000         2.0298      -999.2500
       2204.00      -999.2500         0.1905         2.0468      -999.2500
       2204.50      -999.2500         0.1000         1.9983      -999.2500
       2205.00      -999.2500         0.4571         1.9764      -999.2500
       2205.50      -999.2500         0.9439         1.9483      -999.2500
       2206.00        50.8331         0.5018         1.9366         0.6464
       2206.50        46.9265      5000.0000         1.8720         0.6286
       2207.00        49.5905      5000.0000         1.8800         0.6321
       2207.50        50.7977         0.1000         1.8539         0.6780
       2208.00        52.8174         5.8519         1.9250         0.6597
       2208.50        53.3814        17.3012         1.9616         0.5611
       2209.00        52.3851         5.4458         1.9883         0.5172
       2209.50        53.0283         8.9372         2.0129         0.5930
       2210.00        50.7876         9.1562         2.0239         0.5539
       2210.50        49.2918         3.1496         2.1130         0.5773
       2211.00        48.9048         5.3575         2.1357         0.5698
       2211.50        47.4055         5.8134         2.1398         0.5853
       2212.00        47.7471         5.1552         2.0855         0.5549
       2212.50        47.1125         3.5785         2.0730         0.5723
       2213.00        48.0080         2.1954         2.0814         0.5580
       2213.50        48.7016         2.9515         2.0873         0.5633
       2214.00        48.7571         3.3609         2.1049         0.4795
       2214.50        48.0445         2.4828         2.0970         0.5753
       2215.00        47.1305         1.8305         2.1035         0.6523
       2215.50        47.1025         1.8117         2.0966         0.6195
       2216.00        46.5818         1.5619         2.1000         0.5123
       2216.50        47.7855         1.6077         2.1075         0.5213
       2217.00        48.0238         1.9071         2.1104         0.5177
       2217.50        49.2382         1.6814         2.1124         0.4858
       2218.00        47.6860         1.2287         2.1035         0.4730
       2218.50        46.3942         0.8870         2.0868         0.5293
       2219.00        44.4725         0.7993         2.0824         0.4908
       2219.50        44.8919         1.1191         2.0967         0.4567
       2220.00        46.7131         1.2109         2.1120         0.4810
       2220.50        48.1256         1.0671         2.0976         0.4110
       2221.00        47.7058         1.0820         2.0838         0.4531
       2221.50        46.3727         0.9998         2.1025         0.4295
       2222.00        47.1844      5000.0000         2.1737         0.3405
       2222.50        48.7974         1.3893         2.2513         0.3818
       2223.00        49.2133         0.8741         2.2936         0.3236
       2223.50        48.3598         1.4038         2.2593         0.3266
       2224.00        45.2260         1.3114         2.2157         0.3363
       2224.50        46.3992         1.4182         2.1011         0.4326
       2225.00        38.1516         2.7953         2.1128         0.3974
       2225.50        41.6437         0.8268         2.4070         0.3446
       2226.00        43.0543         1.0084         2.4207         0.3642
       2226.50        43.7415         1.2319         2.4393         0.4743
       2227.00        44.5245         1.1202         2.2866         0.4495
       2227.50        43.9834         1.1409         2.1848         0.4910
       2228.00        44.2425         1.1314         2.1639         0.5723
       2228.50        44.4405         1.1396         2.3919         0.4834
       2229.00        45.3560         1.1260         2.3954         0.5030
       2229.50        46.1466         1.1219         2.4026         0.4859
       2230.00        46.6723         1.1164         2.3901         0.4515
       2230.50        48.2321         1.1003         2.3946         0.4806
       2231.00        49.1286         1.0799         2.3504         0.4671
       2231.50        51.4566         1.0844         2.2366         0.5187
       2232.00        51.8421         1.0685         2.1221         0.4935
       2232.50        52.7132         1.0883         2.0678         0.6074
       2233.00        52.0833         1.1061         2.0487         0.5692
       2233.50        52.4428         1.1059         2.0412         0.5443
       2234.00        52.1891         1.1006         2.0235         0.5679
       2234.50        51.9618         1.1245         2.0184         0.5652
       2235.00        51.1469         1.1752         2.0161         0.5630
       2235.50        52.0251         1.1646         2.0112         0.5505
       2236.00        53.8392         1.1460         2.0151         0.5584
       2236.50        56.3318         1.1438         2.0194         0.4949
       2237.00        55.6895         1.1673         2.0389         0.5284
       2237.50        55.1656         1.1821         2.0500         0.5289
       2238.00        56.3252         1.1934         2.0556         0.5483
       2238.50        58.3697         1.2125         2.0520         0.5926
       2239.00        60.3204         1.2173         2.0412         0.5061
       2239.50        60.0938         1.2314         2.0321         0.5851
       2240.00        59.6520         1.2379         2.0485         0.5530
       2240.50        58.9093         1.2528         2.0654         0.5094
       2241.00        58.4193         1.2665         2.0710         0.5299
       2241.50        57.7856         1.2633         2.0687         0.4471
       2242.00        57.5768         1.2735         2.0621         0.4779
       2242.50        58.3373         1.2795         2.0778         0.5154
       2243.00        59.3535         1.2703         2.0933         0.4816
       2243.50        60.8944         1.2719         2.1092         0.4656
       2244.00        60.5002         1.2288         2.1349         0.5151
       2244.50        61.4900         1.2433         2.1150         0.4721
       2245.00        60.9324         1.2601         2.1096         0.4981
       2245.50        62.6665         1.2516         2.0834         0.4910
       2246.00        62.1022         1.2389         2.0797         0.5431
       2246.50        62.1085         1.2397         2.0718         0.5118
       2247.00        62.3738         1.2516         2.0902         0.5328
       2247.50        65.0845         1.2247         2.1118         0.4939
       2248.00        66.9932         1.2051         2.1253         0.5463
       2248.50        67.0462         1.1998         2.1221         0.5122
       2249.00        67.0117         1.2130         2.1191         0.4904
       2249.50        67.7276         1.2119         2.1192         0.5362
       2250.00        68.8740         1.2058         2.1182         0.4913
       2250.50        69.7609         1.2149         2.1109         0.5031
       2251.00        69.0842         1.2237         2.1046         0.4921
       2251.50        68.9499         1.2413         2.1066         0.4943
       2252.00        69.7834         1.2447         2.1155         0.5044
       2252.50        70.9833         1.2242         2.1246         0.5137
       2253.00        71.1167         1.2159         2.1069         0.5211
