~Version Information Block
VERS .                  2.0:  CWLS LOG ASCII STANDARD - VERSION 2.0
WRAP .                   NO:  One line per depth step
~Well Information Block
#MNEM.UNIT        Data Type   Information
#---------- ----------------  -----------
STRT .FT            3121.50:  START DEPTH
STOP .FT            8357.50:  STOP DEPTH
STEP .FT               0.50:  STEP
NULL .              -999.25:  NULL VALUE
COMP .                     :  COMPANY
WELL .                SA-21:  WELL
FLD  .                     :  FIELD
LOC  .                     :  LOCATION
CTRY .                     :  COUNTRY
STAT .                     :  STATE
CNTY .                     :  COUNTY
SRVC .                     :  SERVICE COMPANY
DATE .                     :  DATE
API  .                     :  API NUMBER
UWI  .                     :  UNIQUE WELL ID
~Curve Information Block
#MNEM.UNIT         API CODE   Curve Description
#---------- ----------------  -----------------
DEPTH.FT                   :  DEPTH
GR   .GAPI                 :  Gamma Ray
RT   .OHMM                 :  Deep resistivity
RHOB .G/C3                 :  Bulk density
NPHI .V/V                  :  Neutron porosity
DT   .US/F                 :  Sonic
~Parameter Information Block
#MNEM.UNIT            Value   Description
#---------- ----------------  -----------
PROJECT.            SERANG_FE:  
~Other Information Block
# 
~A       DEPTH             GR             RT           RHOB           NPHI             DT 
# ...
       5880.50        22.8281         1.0100         2.0500       0.303700       125.0000
       5881.00        22.8281         0.9900         2.0500       0.306200       125.4000
       5881.50        19.9688         0.9800         2.0600       0.295100       125.0000
       5882.00        19.8594         0.9800         2.0700       0.294100       124.7000
       5882.50        20.8906         0.9700         2.0900       0.290100       120.6000
       5883.00        24.7656         0.9700         2.1500       0.298400       116.3000
       5883.50        32.3750         0.9800         2.2400       0.276800       112.4000
       5884.00        41.6250         0.9900         2.2900       0.269000       113.3000
       5884.50        49.3125         0.9900         2.2900       0.275700       115.3000
       5885.00        48.0000         0.9900         2.2300       0.294400       119.9000
       5885.50        46.1875         0.9900         2.1600       0.315500       124.6000
       5886.00        36.4375         0.9900         2.1100       0.323400       128.6000
       5886.50        31.5000         0.9900         2.0800       0.325500       132.0000
       5887.00        23.2500         0.9800         2.0700       0.315700       130.6000
       5887.50        21.1719         0.9800         2.0600       0.286500       127.2000
       5888.00        20.5000         1.0000         2.0700       0.280900       125.8000
       5888.50        20.6875         1.0100         2.1000       0.274400       124.9000
       5889.00        22.0156         1.0300         2.1300       0.278000       122.3000
       5889.50        23.9531         1.0700         2.1800       0.269700       118.3000
       5890.00        30.9531         1.1300         2.2400       0.279800       113.8000
       5890.50        44.6250         1.2000         2.3100       0.283200       111.0000
       5891.00        61.6875         1.2800         2.3500       0.282900       111.8000
       5891.50        79.1875         1.3500         2.3500       0.306300       112.1000
       5892.00        87.0000         1.4300         2.3500       0.343800       113.4000
       5892.50        93.0000         1.5300         2.3300       0.390300       116.2000
       5893.00        97.7500         1.6000         2.3200       0.412300       118.3000
       5893.50       110.0625         1.6500         2.3200       0.407700       124.8000
       5894.00       114.5000         1.6900         2.2800       0.410900       130.9000
       5894.50       118.6250         1.7500         2.1100       0.410600       135.1000
       5895.00       113.1875         1.8100         1.8300       0.490100       142.5000
       5895.50       114.1250         1.8900         1.6400       0.549500       146.8000
       5896.00       119.0625         1.9700         1.5800       0.583800       146.1000
       5896.50       134.1250         2.0100         1.6400       0.571400       142.5000
       5897.00       150.2500         2.0500         1.7500       0.528200       139.5000
       5897.50       167.2500         2.1400         1.8700       0.531300       138.8000
       5898.00       187.6250         2.2500         1.9100       0.476100       139.4000
       5898.50       193.8750         2.3200         1.8500       0.485800       141.1000
       5899.00       187.5000         2.3600         1.7300       0.481100       142.9000
       5899.50       170.2500         2.3700         1.6600       0.532300       142.1000
       5900.00       163.3750         2.3800         1.6600       0.563700       140.8000
       5900.50       157.8750         2.3600         1.7500       0.553900       138.0000
       5901.00       149.1250         2.3200         1.9200       0.493100       135.9000
       5901.50       147.3750         2.2500         2.1000       0.449000       133.8000
       5902.00       148.8750         2.1200         2.2000       0.430900       132.2000
       5902.50       156.0000         1.9900         2.1900       0.429400       132.7000
       5903.00       152.6250         1.9100         2.1500       0.448900       133.7000
       5903.50       157.5000         1.8400         2.1100       0.478200       134.1000
       5904.00       163.1250         1.7800         2.1000       0.500800       134.3000
       5904.50       177.3750         1.7700         2.1100       0.487200       133.6000
       5905.00       183.8750         1.7800         2.1300       0.451300       132.3000
       5905.50       189.2500         1.7800         2.1400       0.430400       133.0000
       5906.00       185.5000         1.7600         2.1400       0.392300       131.8000
       5906.50       186.8750         1.7300         2.1700       0.393000       130.3000
       5907.00       183.3750         1.7000         2.2000       0.398200       132.0000
       5907.50       193.6250         1.7000         2.1600       0.430500       132.3000
       5908.00       193.6250         1.7300         2.0500       0.460600       134.7000
       5908.50       202.3750         1.7600         1.9800       0.473300       135.8000
       5909.00       196.8750         1.7600         1.9600       0.463800       134.7000
       5909.50       200.2500         1.7600         2.0200       0.438000       133.8000
       5910.00       204.0000         1.7900         2.0700       0.456400       134.1000
       5910.50       209.5000         1.8600         2.0500       0.496300       134.9000
       5911.00       207.5000         1.9000         2.0100       0.507900       135.2000
       5911.50       200.1250         1.8800         2.0200       0.528700       133.4000
       5912.00       196.5000         1.8400         2.0800       0.511100       131.8000
       5912.50       189.0000         1.8400         2.1700       0.487800       129.4000
       5913.00       184.3750         1.8500         2.2100       0.466100       128.3000
       5913.50       184.3750         1.8500         2.2000       0.467300       128.3000
       5914.00       184.3750         1.8200         2.1800       0.458500       127.3000
       5914.50       180.8750         1.7800         2.1900       0.445500       127.6000
       5915.00       168.7500         1.7400         2.2100       0.430700       127.6000
       5915.50       161.5000         1.7100         2.2300       0.449600       127.2000
       5916.00       155.6250         1.6700         2.2600       0.442100       127.3000
       5916.50       150.5000         1.6400         2.3000       0.428100       125.8000
       5917.00       141.2500         1.6000         2.3400       0.416600       123.8000
       5917.50       132.5000         1.5600         2.3600       0.418300       122.6000
       5918.00       123.8750         1.5300         2.3800       0.407700       122.0000
       5918.50       122.9375         1.5000         2.3900       0.387300       121.1000
       5919.00       115.6250         1.4800         2.4000       0.377800       120.8000
       5919.50       110.0000         1.4800         2.3900       0.367600       119.8000
       5920.00       106.3750         1.4700         2.3800       0.378900       118.1000
       5920.50       109.1875         1.4400         2.3800       0.369600       117.7000
       5921.00       110.7500         1.4400         2.3800       0.388100       119.2000
       5921.50       112.9375         1.4600         2.3500       0.380500       120.7000
       5922.00       114.0625         1.4800         2.3100       0.400000       123.8000
       5922.50       117.6250         1.4800         2.2900       0.410600       125.9000
       5923.00       121.1250         1.4800         2.3000       0.433200       126.9000
       5923.50       125.9375         1.4900         2.2800       0.444200       129.2000
       5924.00       128.7500         1.5000         2.2700       0.435600       127.9000
       5924.50       132.8750         1.4900         2.2700       0.441300       127.2000
