~Version Information Block
VERS .                  2.0:  CWLS LOG ASCII STANDARD - VERSION 2.0
WRAP .                   NO:  One line per depth step
~Well Information Block
#MNEM.UNIT        Data Type   Information
#---------- ----------------  -----------
STRT .FT            2200.00:  START DEPTH
STOP .FT            8176.50:  STOP DEPTH
STEP .FT               0.50:  STEP
NULL .              -999.25:  NULL VALUE
COMP .                     :  COMPANY
WELL .             SA-25RD1:  WELL
FLD  .                     :  FIELD
LOC  .                     :  LOCATION
CTRY .                     :  COUNTRY
STAT .                     :  STATE
CNTY .                     :  COUNTY
SRVC .                     :  SERVICE COMPANY
DATE .                     :  DATE
API  .                     :  API NUMBER
UWI  .                     :  UNIQUE WELL ID
~Curve Information Block
#MNEM.UNIT         API CODE   Curve Description
#---------- ----------------  -----------------
DEPTH.FT                   :  Bit Depth 2hz
GR   .GAPI                 :  ECO Gamma Ray
RT   .OHMM                 :  ECO Non-BHCorr Phase-Shift Resistivity 40-in. at 2 MHz
RHOB .G/C3                 :  Bulk Density  Bottom
NPHI .V/V                  :  Thermal Neutron Porosity (Ratio Method) in Selected Lithology
~Parameter Information Block
#MNEM.UNIT            Value   Description
#---------- ----------------  -----------
PROJECT.            SERANG_FE:  
~Other Information Block
# 
~A       DEPTH             GR             RT           RHOB           NPHI 
# ...
       4179.50        91.9746         1.7966         2.2748         0.4895
       4180.00        90.5784         1.8385         2.2715         0.4961
       4180.50        88.2259         1.8107         2.2646         0.5133
       4181.00        88.6783         1.8488         2.2786         0.5059
       4181.50        86.3085         1.7976         2.2814         0.4793
       4182.00        80.6604         1.8386         2.2765         0.4791
       4182.50        70.9957         1.9799         2.2698         0.5259
       4183.00        67.5395         2.0191         2.2596         0.4900
       4183.50        63.6249         2.0444         2.2598         0.4481
       4184.00        63.3733         2.0788         2.2490         0.4745
       4184.50        60.2085         2.0640         2.2436         0.4341
       4185.00        59.0340         2.0712         2.2416         0.4151
       4185.50        55.4762         2.0827         2.2375         0.4201
       4186.00        53.7065         2.0889         2.2293         0.4046
       4186.50        52.4904         2.1040         2.2156         0.4007
       4187.00        50.5066         2.1115         2.2155         0.4016
       4187.50        49.3648         2.1074         2.2161         0.4345
       4188.00        49.5149         2.1082         2.2375         0.4463
       4188.50        50.8883         2.1313         2.2625         0.3875
       4189.00        53.8639         2.1084         2.2958         0.3670
       4189.50        56.6866         2.1148         2.3135         0.4106
       4190.00        63.3217         2.0901         2.3245         0.3582
       4190.50        68.9659         2.0370         2.3246         0.4097
       4191.00        73.6220         2.0388         2.3250         0.3689
       4191.50        73.2815         1.9985         2.3119         0.3618
       4192.00        71.4491         1.9811         2.3101         0.4224
       4192.50        70.5710         1.8667         2.3177         0.3501
       4193.00        70.8734         1.8845         2.3266         0.3591
       4193.50        69.0943         1.8536         2.3332         0.3648
       4194.00        66.9976         1.8537         2.3230         0.3564
       4194.50        65.4350         1.8708         2.3137         0.3599
       4195.00        65.9964         1.8667         2.3047         0.3226
       4195.50        66.6196         1.8709         2.3125         0.3412
       4196.00        64.9384         1.8890         2.3157         0.3483
       4196.50        61.9374         1.9052         2.3184         0.3257
       4197.00        59.7079         1.8767         2.2926         0.3197
       4197.50        58.3861         1.8814         2.2614         0.3170
       4198.00        57.0000         1.8577         2.2141         0.2949
       4198.50        53.6455         1.8681         2.2033         0.2812
       4199.00        53.5575         1.8563         2.2254         0.3222
       4199.50        56.2238         1.8774         2.2616         0.3003
       4200.00        59.2454         1.8708         2.2870         0.3248
       4200.50        62.6032         1.8893         2.2881         0.2788
       4201.00        64.3816         1.8579         2.3037         0.3449
       4201.50        68.4523         1.7362         2.3104         0.3471
       4202.00        71.0331         1.7195         2.3281         0.3205
       4202.50        75.2068         1.6565         2.3193         0.3943
       4203.00        80.2453         1.6366         2.3240         0.4300
       4203.50        83.8461         1.5071         2.2898         0.4334
       4204.00        85.5343         1.5975         2.2609         0.4885
       4204.50        85.8214         1.5048         2.2420         0.4260
       4205.00        86.1266         1.4909         2.2574         0.4380
       4205.50        86.2195         1.5879         2.2856         0.4656
       4206.00        82.4213         1.5866         2.2831         0.4489
       4206.50        77.5764         1.6269         2.2928         0.4428
       4207.00        74.9941         1.6475         2.3064         0.4255
       4207.50        75.2991         1.5966         2.3268         0.3821
       4208.00        77.1512         1.5274         2.3422         0.3694
       4208.50        76.3154         1.4464         2.3550         0.3769
       4209.00        76.9655         1.3921         2.3562         0.3691
       4209.50        77.3608         1.3614         2.3418         0.3527
       4210.00        79.4971         1.3552         2.3163         0.3751
       4210.50        83.0978         1.3368         2.3190         0.3804
       4211.00        83.4191         1.3689         2.3524         0.4036
       4211.50        81.6246         1.4050         2.3862         0.4307
       4212.00        76.1776         1.4344         2.3694         0.4379
       4212.50        72.7696         1.4464         2.3176         0.4664
       4213.00        69.7320         1.4682         2.2784         0.4979
       4213.50        66.7691         1.4934         2.2772         0.5078
       4214.00        64.4788         1.5300         2.2918         0.4743
       4214.50        61.6786         1.5829         2.2924         0.4562
       4215.00        59.6066         1.6530         2.2947         0.4762
       4215.50        59.7606         1.7201         2.2780         0.4446
       4216.00        58.6937         1.7627         2.2723         0.4446
       4216.50        56.3815         1.7822         2.2654         0.4435
       4217.00        55.1962         1.7975         2.2748         0.4333
       4217.50        52.5271         1.8202         2.2806         0.4215
       4218.00        51.5859         1.8355         2.3004         0.4200
       4218.50        48.5988         1.8692         2.3101         0.4314
       4219.00        50.7393         1.8822         2.2919         0.3880
       4219.50        51.0210         1.8892         2.2544         0.4101
       4220.00        49.5800         1.9160         2.2237         0.4370
       4220.50        45.2830         1.9836         2.2221         0.4113
       4221.00        41.0064         1.9415         2.2356         0.4378
       4221.50        37.5267         1.8824         2.2510         0.3982
       4222.00        36.2495         1.9387         2.2729         0.3954
       4222.50        36.1646         1.9919         2.2768         0.3655
       4223.00        35.9489         2.0373         2.2797         0.3890
       4223.50        34.8139         2.0690         2.2748         0.3800
       4224.00        34.8046         2.1127         2.2711         0.3738
       4224.50        35.4694         2.1352         2.2653         0.3639
       4225.00        36.1469         2.1643         2.2646         0.4012
       4225.50        35.9130         2.1992         2.2628         0.3937
       4226.00        36.3838         2.2141         2.2659         0.3651
       4226.50        35.8425         2.2323         2.2687         0.3912
       4227.00        35.3241         2.2528         2.2708         0.3941
       4227.50        34.9377         2.2703         2.2780         0.3648
       4228.00        34.4215         2.2863         2.2802         0.3767
       4228.50        34.9399         2.2642         2.2906         0.4267
       4229.00        36.0208         2.2168         2.2941         0.3682
       4229.50        37.0098         2.2010         2.2911         0.3701
       4230.00        38.9642         2.1798         2.2987         0.3659
       4230.50        38.7172         2.1584         2.2967         0.3715
       4231.00        42.1423         2.1283         2.3029         0.3830
       4231.50        42.0409         2.0759         2.2966         0.3634
       4232.00        43.3999         1.9847         2.2955         0.4238
       4232.50        44.0604         1.9203         2.2928         0.4121
