~Version Information Block
VERS .                  2.0:  CWLS LOG ASCII STANDARD - VERSION 2.0
WRAP .                   NO:  One line per depth step
~Well Information Block
#MNEM.UNIT        Data Type   Information
#---------- ----------------  -----------
STRT .FT            2200.00:  START DEPTH
STOP .FT            8176.50:  STOP DEPTH
STEP .FT               0.50:  STEP
NULL .              -999.25:  NULL VALUE
COMP .                     :  COMPANY
WELL .             SA-25RD1:  WELL
FLD  .                     :  FIELD
LOC  .                     :  LOCATION
CTRY .                     :  COUNTRY
STAT .                     :  STATE
CNTY .                     :  COUNTY
SRVC .                     :  SERVICE COMPANY
DATE .                     :  DATE
API  .                     :  API NUMBER
UWI  .                     :  UNIQUE WELL ID
~Curve Information Block
#MNEM.UNIT         API CODE   Curve Description
#---------- ----------------  -----------------
DEPTH.FT                   :  Bit Depth 2hz
GR   .GAPI                 :  ECO Gamma Ray
RT   .OHMM                 :  ECO Non-BHCorr Phase-Shift Resistivity 40-in. at 2 MHz
RHOB .G/C3                 :  Bulk Density  Bottom
NPHI .V/V                  :  Thermal Neutron Porosity (Ratio Method) in Selected Lithology
~Parameter Information Block
#MNEM.UNIT            Value   Description
#---------- ----------------  -----------
PROJECT.            SERANG_FE:  
~Other Information Block
# 
~A       DEPTH             GR             RT           RHOB           NPHI 
# ...
       7336.00        57.7321         2.2830         2.3995         0.1921
       7336.50        59.2835         2.2815         2.3894         0.1967
       7337.00        59.5102         2.2739         2.3908         0.2133
       7337.50        58.7445         2.2444         2.3535         0.2173
       7338.00        56.7353         2.2378         2.3423         0.2437
       7338.50        56.2035         2.2286         2.3122         0.2293
       7339.00        51.2468         2.2075         2.2885         0.2272
       7339.50        52.7205         2.1832         2.2684         0.2705
       7340.00        49.8975         2.1530         2.2767         0.2608
       7340.50        49.5668         2.1361         2.2769         0.2653
       7341.00        45.2900         2.0992         2.2642         0.2334
       7341.50        43.6115         2.0924         2.2587         0.2411
       7342.00        42.1872         2.0962         2.2570         0.2436
       7342.50        42.3426         2.1106         2.2768         0.2349
       7343.00        46.4627         2.1032         2.2803         0.2485
       7343.50        48.9020         2.1088         2.3115         0.2277
       7344.00        50.8362         2.1338         2.3379         0.2182
       7344.50        51.2177         2.1157         2.3586         0.2342
       7345.00        51.1676         2.0574         2.3680         0.2168
       7345.50        51.5231         2.0100         2.3418         0.2575
       7346.00        49.6919         1.9465         2.2874         0.2519
       7346.50        48.0148         1.8848         2.2330         0.2789
       7347.00        43.1338         1.7576         2.1887         0.2520
       7347.50        35.6041         1.5852         2.1760         0.2862
       7348.00        32.1961         1.4004         2.1924         0.2649
       7348.50        32.8551         1.3652         2.2336         0.2537
       7349.00        36.7734         1.4263         2.2660         0.2519
       7349.50        38.1467         1.6183         2.2615         0.2598
       7350.00        38.9618         1.6822         2.2508         0.2405
       7350.50        39.2161         1.6810         2.2527         0.2233
       7351.00        39.4704         1.6643         2.2425         0.2271
       7351.50        38.5548         1.6270         2.2434         0.2494
       7352.00        37.1805         1.5984         2.2032         0.2628
       7352.50        38.4509         1.5500         2.2569         0.2531
       7353.00        41.6044         1.5307         2.2799         0.2371
       7353.50        47.3230         1.6058         2.3690         0.3222
       7354.00        52.9548         1.5558         2.3733         0.2783
       7354.50        62.5695         1.6777         2.4008         0.2702
       7355.00        68.5986         1.7443         2.4097         0.2722
       7355.50        72.3751         1.7790         2.4143         0.3433
       7356.00        72.4768         1.8160         2.4112         0.3994
       7356.50        71.5604         1.8422         2.4108         0.3395
       7357.00        72.7313         1.8547         2.4190         0.3344
       7357.50        72.4236         1.8613         2.4105         0.3603
       7358.00        75.8841         1.8239         2.3906         0.3695
       7358.50        77.9667         1.8226         2.3992         0.3481
       7359.00        77.6617         1.8239         2.4126         0.3631
       7359.50        78.6791         1.8267         2.4291         0.3672
       7360.00        75.5050         1.8149         2.4102         0.3775
       7360.50        74.5407         1.8182         2.4019         0.3615
       7361.00        73.2678         1.8389         2.4104         0.3639
       7361.50        74.1071         1.8422         2.4178         0.3651
       7362.00        73.2028         1.8572         2.4346         0.3702
       7362.50        72.2400         1.8323         2.4294         0.3262
       7363.00        71.4262         1.8891         2.4207         0.3738
       7363.50        72.0234         1.9056         2.4027         0.3483
       7364.00        73.3459         1.9095         2.4013         0.3495
       7364.50        74.5158         1.9436         2.4102         0.3366
       7365.00        75.1026         1.9660         2.4193         0.3498
       7365.50        71.8443         1.9484         2.4120         0.3506
       7366.00        71.0274         1.9371         2.4113         0.3168
       7366.50        71.1482         1.9791         2.3963         0.3313
       7367.00        72.3322         1.9538         2.4109         0.2993
       7367.50        72.3289         1.9667         2.4070         0.3302
       7368.00        72.3861         1.9927         2.4258         0.3516
       7368.50        73.4111         1.9601         2.4129         0.3063
       7369.00        75.2486         1.9591         2.4140         0.3079
       7369.50        74.8401         1.9231         2.4093         0.3750
       7370.00        72.3229         1.9235         2.4069         0.3738
       7370.50        70.8987         1.9137         2.3987         0.3444
       7371.00        72.3468         1.9242         2.3777         0.3642
       7371.50        75.4777         1.9446         2.3854         0.3529
       7372.00        75.9354         1.9043         2.3987         0.3791
       7372.50        76.0148         1.8736         2.4124         0.4069
       7373.00        75.0990         1.8841         2.4065         0.3311
       7373.50        73.6239         1.9452         2.4045         0.3889
       7374.00        71.9392         1.9049         2.4110         0.3599
       7374.50        73.5450         1.8978         2.4093         0.3642
       7375.00        75.3762         1.9176         2.4045         0.3752
       7375.50        75.6084         1.8742         2.3955         0.3372
       7376.00        74.5335         1.9070         2.3937         0.4047
       7376.50        74.7347         1.9010         2.3899         0.3795
       7377.00        75.4243         1.8753         2.3818         0.3622
       7377.50        76.9570         1.8533         2.3816         0.3759
       7378.00        75.5858         1.8613         2.3784         0.3697
       7378.50        77.8748         1.8747         2.3804         0.4074
       7379.00        73.1443         1.8476         2.3779         0.3691
       7379.50        75.5350         1.8239         2.3768         0.3601
       7380.00        75.3247         1.7853         2.3955         0.3986
       7380.50        78.9339         1.7632         2.3953         0.3687
       7381.00        79.3846         1.8028         2.3973         0.3722
       7381.50        79.1348         1.7580         2.3737         0.3853
       7382.00        82.6213         1.7612         2.3737         0.3573
       7382.50        81.1024         1.7530         2.3758         0.4003
       7383.00        81.0284         1.7763         2.3830         0.3422
       7383.50        77.9465         1.7804         2.3908         0.3263
       7384.00        79.2182         1.7877         2.3880         0.3460
       7384.50        80.8930         1.7964         2.3937         0.4428
       7385.00        81.9840         1.7548         2.3960         0.4016
       7385.50        82.6961         1.7175         2.4029         0.3876
       7386.00        81.6317         1.7625         2.3990         0.3835
       7386.50        79.6272         1.7726         2.3884         0.3693
       7387.00        77.7197         1.7494         2.3874         0.3898
       7387.50        77.8689         1.7310         2.3726         0.3848
       7388.00        81.3762         1.6768         2.3608         0.3643
       7388.50        80.6863         1.6975         2.3627         0.4652
       7389.00        79.5938         1.7143         2.3958         0.4242
