~Version Information Block
VERS .                  2.0:  CWLS LOG ASCII STANDARD - VERSION 2.0
WRAP .                   NO:  One line per depth step
~Well Information Block
#MNEM.UNIT        Data Type   Information
#---------- ----------------  -----------
STRT .FT            3121.50:  START DEPTH
STOP .FT            8357.50:  STOP DEPTH
STEP .FT               0.50:  STEP
NULL .              -999.25:  NULL VALUE
COMP .                     :  COMPANY
WELL .                SA-21:  WELL
FLD  .                     :  FIELD
LOC  .                     :  LOCATION
CTRY .                     :  COUNTRY
STAT .                     :  STATE
CNTY .                     :  COUNTY
SRVC .                     :  SERVICE COMPANY
DATE .                     :  DATE
API  .                     :  API NUMBER
UWI  .                     :  UNIQUE WELL ID
~Curve Information Block
#MNEM.UNIT         API CODE   Curve Description
#---------- ----------------  -----------------
DEPTH.FT                   :  DEPTH
GR   .GAPI                 :  Gamma Ray
RT   .OHMM                 :  Deep resistivity
RHOB .G/C3                 :  Bulk density
NPHI .V/V                  :  Neutron porosity
DT   .US/F                 :  Sonic
~Parameter Information Block
#MNEM.UNIT            Value   Description
#---------- ----------------  -----------
PROJECT.            SERANG_FE:  
~Other Information Block
# 
~A       DEPTH             GR             RT           RHOB           NPHI             DT 
# ...
       7616.00        34.7188        67.9400         2.0300       0.050100       105.1000
       7616.50        31.4688        74.0600         2.0300       0.044300       104.1000
       7617.00        30.0469        75.6200         2.0500       0.051600       103.7000
       7617.50        33.4062        74.3800         2.0500       0.061200       102.6000
       7618.00        36.7188        71.0000         2.0600       0.066800       105.1000
       7618.50        37.0938        65.5600         2.0600       0.062100       105.2000
       7619.00        36.4375        58.2800         2.0500       0.055000       105.5000
       7619.50        35.5625        49.9100         2.0300       0.055300       105.4000
       7620.00        36.3438        42.1900         2.0400       0.068000       104.8000
       7620.50        37.3438        39.2800         2.1100       0.093700       100.0000
       7621.00        38.2500        38.3800         2.2000       0.117400       100.2000
       7621.50        43.6250        37.1200         2.2200       0.132700        98.7000
       7622.00        46.0000        35.4100         2.1600       0.118100        99.8000
       7622.50        45.5625        35.0000         2.0800       0.090000       105.6000
       7623.00        38.6875        37.5300         2.0400       0.063200       107.3000
       7623.50        35.3125        43.1600         2.0400       0.055700       107.5000
       7624.00        29.7656        50.9100         2.0500       0.064500       107.3000
       7624.50        30.8750        58.1600         2.0600       0.076900       106.7000
       7625.00        28.7656        63.0600         2.0600       0.083400       106.7000
       7625.50        29.8125        65.3100         2.0600       0.080400       107.5000
       7626.00        28.7031        67.5000         2.0500       0.070900       107.8000
       7626.50        28.8906        68.2500         2.0400       0.065900       109.3000
       7627.00        29.7656        68.6200         2.0200       0.060400       109.1000
       7627.50        27.2656        67.8800         2.0300       0.065100       109.2000
       7628.00        26.2344        66.0000         2.0400       0.072000       109.0000
       7628.50        27.1719        63.6200         2.0600       0.087100       110.4000
       7629.00        29.2969        59.6900         2.0700       0.092300       111.5000
       7629.50        29.9375        54.1900         2.0800       0.098500       110.0000
       7630.00        29.4844        48.5300         2.0800       0.097000       111.4000
       7630.50        29.6719        44.3100         2.0800       0.100300       108.4000
       7631.00        30.3750        39.5300         2.0900       0.104800       107.2000
       7631.50        30.6875        34.1900         2.1100       0.111300       106.9000
       7632.00        31.2188        31.8300         2.1400       0.113300       104.1000
       7632.50        33.2500        30.7500         2.1900       0.127800       102.2000
       7633.00        34.9688        30.0600         2.2200       0.148600       104.2000
       7633.50        37.6250        29.5200         2.2300       0.163700       105.8000
       7634.00        37.8750        28.9500         2.2100       0.164300       103.9000
       7634.50        37.2812        29.3300         2.1900       0.151900       103.7000
       7635.00        34.6250        31.5600         2.1900       0.150200       101.4000
       7635.50        31.2344        34.5000         2.2200       0.144100        89.4000
       7636.00        30.9062        37.5000         2.2800       0.131500        91.8000
       7636.50        30.4219        41.0300         2.2300       0.115500        97.5000
       7637.00        30.7031        44.6600         2.1200       0.102500       101.8000
       7637.50        28.5156        49.5300         2.0200       0.103200       112.4000
       7638.00        26.7969        54.9100         2.0100       0.101300       110.9000
       7638.50        28.2188        57.9400         2.0400       0.113100        98.9000
       7639.00        28.5938        63.6900         2.1300       0.132800        78.1000
       7639.50        29.2188        71.6900         2.2700       0.152000        74.1000
       7640.00        24.5156        77.3100         2.4100       0.125700        70.6000
       7640.50        22.0469        80.8100         2.3700       0.071800        75.9000
       7641.00        20.0156        90.8800         2.1800       0.032000        90.0000
       7641.50        19.2969       111.8100         2.0200       0.024900       101.6000
       7642.00        17.2812       129.7500         1.9500       0.028700       104.7000
       7642.50        17.6406       136.8800         1.9500       0.032200       105.3000
       7643.00        19.9219       140.5000         1.9700       0.036000       106.3000
       7643.50        22.1094       138.5000         2.0000       0.043600       105.1000
       7644.00        20.9375       130.8800         2.0100       0.045300       102.4000
       7644.50        20.2188       117.8100         1.9900       0.050800       107.2000
       7645.00        19.6562       103.9400         1.9900       0.054600       105.2000
       7645.50        20.2031        93.6200         1.9900       0.066400       105.9000
       7646.00        19.5938        77.2500         2.0100       0.071200       104.8000
       7646.50        20.3750        53.1200         2.0100       0.069400       103.4000
       7647.00        25.5625        39.7800         2.0200       0.072400        95.5000
       7647.50        29.2656        38.8800         2.1200       0.087000        86.0000
       7648.00        34.9375        37.2800         2.2900       0.081500        83.8000
       7648.50        31.4688        33.0300         2.3400       0.062400        87.9000
       7649.00        29.6562        25.2700         2.1900       0.050200        93.3000
       7649.50        24.9375        20.7000         2.1000       0.065400       103.2000
       7650.00        28.3281        18.9100         2.1100       0.085100       102.6000
       7650.50        32.0625        16.4200         2.1700       0.109500       101.6000
       7651.00        40.8125        13.2000         2.2000       0.144500        97.6000
       7651.50        49.1250        10.8600         2.2900       0.176300        96.0000
       7652.00        58.1875         9.0700         2.3600       0.210800        95.4000
       7652.50        61.3125         7.6300         2.3800       0.221000        92.7000
       7653.00        61.6875         6.9100         2.3900       0.235900        91.6000
       7653.50        62.6562         6.7100         2.4300       0.220900        93.8000
       7654.00        65.9375         7.0200         2.4300       0.208300        93.5000
       7654.50        63.5000         7.3200         2.3900       0.191800        96.3000
       7655.00        57.5625         7.6400         2.3400       0.184200        98.5000
       7655.50        50.0625         8.2400         2.3000       0.177700        98.9000
       7656.00        48.0000         9.2300         2.2800       0.179000        99.2000
       7656.50        44.3750        10.4400         2.2400       0.175000       100.0000
       7657.00        41.8750        11.3500         2.2200       0.170100       102.1000
       7657.50        40.4688        12.1400         2.2000       0.157900        98.7000
       7658.00        43.2500        12.4800         2.2100       0.163300        96.9000
       7658.50        44.6875        12.4100         2.2600       0.167500        95.2000
       7659.00        46.2188        11.8200         2.3100       0.171300        94.1000
       7659.50        46.3125        11.0500         2.3200       0.156100        96.5000
       7660.00        50.5312        10.0500         2.2900       0.160200        96.7000
