~Version Information Block
VERS .                  2.0:  CWLS LOG ASCII STANDARD - VERSION 2.0
WRAP .                   NO:  One line per depth step
~Well Information Block
#MNEM.UNIT        Data Type   Information
#---------- ----------------  -----------
STRT .FT            2200.00:  START DEPTH
STOP .FT            8176.50:  STOP DEPTH
STEP .FT               0.50:  STEP
NULL .              -999.25:  NULL VALUE
COMP .                     :  COMPANY
WELL .             SA-25RD1:  WELL
FLD  .                     :  FIELD
LOC  .                     :  LOCATION
CTRY .                     :  COUNTRY
STAT .                     :  STATE
CNTY .                     :  COUNTY
SRVC .                     :  SERVICE COMPANY
DATE .                     :  DATE
API  .                     :  API NUMBER
UWI  .                     :  UNIQUE WELL ID
~Curve Information Block
#MNEM.UNIT         API CODE   Curve Description
#---------- ----------------  -----------------
DEPTH.FT                   :  Bit Depth 2hz
GR   .GAPI                 :  ECO Gamma Ray
RT   .OHMM                 :  ECO Non-BHCorr Phase-Shift Resistivity 40-in. at 2 MHz
RHOB .G/C3                 :  Bulk Density  Bottom
NPHI .V/V                  :  Thermal Neutron Porosity (Ratio Method) in Selected Lithology
~Parameter Information Block
#MNEM.UNIT            Value   Description
#---------- ----------------  -----------
PROJECT.            SERANG_FE:  
~Other Information Block
# 
~A       DEPTH             GR             RT           RHOB           NPHI 
# ...
       4982.00        76.7812         1.7863         2.3656         0.3590
       4982.50        76.5523         1.8129         2.3742         0.4151
       4983.00        76.9046         1.7688         2.3529         0.3374
       4983.50        78.1254         1.7460         2.3412         0.3874
       4984.00        76.0653         1.7718         2.3324         0.4361
       4984.50        73.1697         1.8161         2.3541         0.3699
       4985.00        71.5675         1.8223         2.3692         0.3658
       4985.50        73.7038         1.8211         2.3619         0.3914
       4986.00        76.3675         1.8295         2.3558         0.3737
       4986.50        76.9016         1.8800         2.3367         0.3513
       4987.00        76.6727         1.9005         2.3459         0.3567
       4987.50        76.1418         1.8304         2.3437         0.4250
       4988.00        76.4370         1.7802         2.3462         0.3183
       4988.50        74.3740         1.7292         2.3396         0.3288
       4989.00        74.3013         1.7227         2.3380         0.3500
       4989.50        72.7791         1.7250         2.3476         0.4191
       4990.00        76.5936         1.7962         2.3610         0.4050
       4990.50        78.7299         1.8087         2.3656         0.3800
       4991.00        79.3466         1.8092         2.3612         0.3396
       4991.50        76.6495         1.7524         2.3533         0.3861
       4992.00        76.4206         1.7145         2.3551         0.4057
       4992.50        79.5414         1.6841         2.3613         0.3668
       4993.00        78.5795         1.7112         2.3480         0.4397
       4993.50        76.6720         1.7502         2.3243         0.4212
       4994.00        75.3501         1.7520         2.3129         0.4216
       4994.50        76.1130         1.7034         2.3128         0.4397
       4995.00        77.3338         1.6996         2.3192         0.4318
       4995.50        78.8120         1.7554         2.3118         0.4158
       4996.00        79.4224         1.7144         2.3176         0.4726
       4996.50        80.7957         1.7301         2.3377         0.4916
       4997.00        79.7822         1.6701         2.3412         0.4143
       4997.50        83.0630         1.6914         2.3451         0.3979
       4998.00        85.3520         1.7254         2.3291         0.4205
       4998.50        86.1368         1.7317         2.3288         0.4887
       4999.00        83.9242         1.7358         2.3285         0.4163
       4999.50        80.0838         1.7231         2.3232         0.3776
       5000.00        78.8667         1.7046         2.3238         0.4157
       5000.50        80.6978         1.7657         2.3361         0.4300
       5001.00        79.9815         1.7788         2.3586         0.4151
       5001.50        78.9133         1.8222         2.3700         0.3409
       5002.00        72.8075         1.9187         2.3667         0.4216
       5002.50        67.8269         2.0335         2.3478         0.3192
       5003.00        64.6194         2.0594         2.3338         0.3728
       5003.50        62.3833         2.0606         2.3316         0.3509
       5004.00        65.7404         2.1060         2.3448         0.3386
       5004.50        65.7434         2.1048         2.3594         0.3259
       5005.00        68.9988         2.0697         2.3567         0.3239
       5005.50        69.9144         2.0100         2.3577         0.3618
       5006.00        73.9582         1.9019         2.3562         0.3943
       5006.50        75.3061         1.7116         2.3532         0.4719
       5007.00        76.1454         1.6539         2.3520         0.4185
       5007.50        78.4828         1.6276         2.3412         0.4312
       5008.00        80.8481         1.6232         2.3374         0.3670
       5008.50        82.2178         1.5948         2.3357         0.4063
       5009.00        80.2618         1.6043         2.3382         0.4029
       5009.50        80.1092         1.6619         2.3366         0.4127
       5010.00        77.2135         1.6597         2.3313         0.4678
       5010.50        77.3661         1.6664         2.3356         0.4608
       5011.00        78.0251         1.6029         2.3505         0.4198
       5011.50        81.3059         1.6262         2.3364         0.3825
       5012.00        82.5267         1.6627         2.3309         0.4023
       5012.50        81.1810         1.6690         2.3051         0.4095
       5013.00        83.0122         1.6311         2.3124         0.4189
       5013.50        82.7324         1.6012         2.3120         0.4533
       5014.00        85.0977         1.5914         2.3324         0.3885
       5014.50        81.9949         1.6037         2.3325         0.5033
       5015.00        83.2109         1.6092         2.3396         0.4465
       5015.50        80.3845         1.6401         2.3371         0.4510
       5016.00        82.9251         1.6982         2.3499         0.4612
       5016.50        82.2940         1.7783         2.3592         0.3675
       5017.00        84.1031         1.7975         2.3480         0.4733
       5017.50        81.3082         1.8119         2.3346         0.4522
       5018.00        78.7141         1.8862         2.3004         0.3589
       5018.50        76.9338         1.9979         2.2871         0.4281
       5019.00        74.4892         2.1243         2.2827         0.3778
       5019.50        74.0546         2.1072         2.2991         0.3772
       5020.00        73.5714         1.9871         2.3201         0.3997
       5020.50        74.8687         1.9592         2.3287         0.3779
       5021.00        78.7342         1.9337         2.3452         0.3810
       5021.50        79.3446         1.8997         2.3402         0.3963
       5022.00        83.4421         1.8338         2.3393         0.4148
       5022.50        78.9430         1.7801         2.3306         0.4565
       5023.00        82.2212         1.7768         2.3259         0.4297
       5023.50        78.7369         1.7459         2.3344         0.3776
       5024.00        81.0259         1.7320         2.3351         0.4185
       5024.50        81.0767         1.7064         2.3456         0.3837
       5025.00        85.2731         1.7198         2.3415         0.4110
       5025.50        83.0604         1.7374         2.3449         0.4409
       5026.00        81.5371         1.6907         2.3486         0.4259
       5026.50        79.6296         1.6578         2.3373         0.4337
       5027.00        82.5290         1.6819         2.3335         0.4457
       5027.50        81.4608         1.6917         2.3313         0.3944
       5028.00        80.3926         1.6588         2.3471         0.4259
       5028.50        82.0674         1.6726         2.3494         0.4706
       5029.00        84.2038         1.6943         2.3403         0.4301
       5029.50        83.5171         1.6519         2.3520         0.4771
       5030.00        80.2367         1.6465         2.3460         0.4474
       5030.50        77.4391         1.6255         2.3476         0.3914
       5031.00        79.8757         1.6687         2.3288         0.4371
       5031.50        83.4576         1.6430         2.3189         0.4611
       5032.00        85.5177         1.6311         2.3260         0.3972
       5032.50        86.3798         1.7318         2.3248         0.4186
       5033.00        83.5643         1.7310         2.3378         0.5020
       5033.50        84.0933         1.6990         2.3304         0.3942
       5034.00        83.4649         1.6944         2.3345         0.4023
       5034.50        83.9990         1.6733         2.3220         0.4427
       5035.00        83.5971         1.6949         2.3216         0.4418
