~Version Information Block
VERS .                  2.0:  CWLS LOG ASCII STANDARD - VERSION 2.0
WRAP .                   NO:  One line per depth step
~Well Information Block
#MNEM.UNIT        Data Type   Information
#---------- ----------------  -----------
STRT .FT            2200.00:  START DEPTH
STOP .FT            8176.50:  STOP DEPTH
STEP .FT               0.50:  STEP
NULL .              -999.25:  NULL VALUE
COMP .                     :  COMPANY
WELL .             SA-25RD1:  WELL
FLD  .                     :  FIELD
LOC  .                     :  LOCATION
CTRY .                     :  COUNTRY
STAT .                     :  STATE
CNTY .                     :  COUNTY
SRVC .                     :  SERVICE COMPANY
DATE .                     :  DATE
API  .                     :  API NUMBER
UWI  .                     :  UNIQUE WELL ID
~Curve Information Block
#MNEM.UNIT         API CODE   Curve Description
#---------- ----------------  -----------------
DEPTH.FT                   :  Bit Depth 2hz
GR   .GAPI                 :  ECO Gamma Ray
RT   .OHMM                 :  ECO Non-BHCorr Phase-Shift Resistivity 40-in. at 2 MHz
RHOB .G/C3                 :  Bulk Density  Bottom
NPHI .V/V                  :  Thermal Neutron Porosity (Ratio Method) in Selected Lithology
~Parameter Information Block
#MNEM.UNIT            Value   Description
#---------- ----------------  -----------
PROJECT.            SERANG_FE:  
~Other Information Block
# 
~A       DEPTH             GR             RT           RHOB           NPHI 
# ...
       5356.50        79.9603         1.7578         2.3547         0.4365
       5357.00        77.0609         1.7018         2.3500         0.4409
       5357.50        78.8122         1.7875         2.3428         0.3912
       5358.00        81.2466         1.7276         2.3393         0.3919
       5358.50        83.6804         1.7070         2.3448         0.3994
       5359.00        82.6159         1.6728         2.3539         0.3391
       5359.50        81.4022         1.6737         2.3649         0.4638
       5360.00        81.7151         1.7270         2.3661         0.3953
       5360.50        81.4099         1.7560         2.3632         0.4545
       5361.00        81.1047         1.7617         2.3676         0.5066
       5361.50        78.5106         1.8145         2.3676         0.3647
       5362.00        76.8320         1.8626         2.3851         0.3754
       5362.50        75.9928         1.9476         2.3688         0.4020
       5363.00        75.8331         1.8791         2.3633         0.4538
       5363.50        77.5812         1.9193         2.3639         0.4205
       5364.00        74.6819         1.8314         2.3928         0.4326
       5364.50        70.8741         1.9539         2.4044         0.4168
       5365.00        72.1779         2.0715         2.3918         0.4242
       5365.50        73.8564         1.9903         2.3727         0.3795
       5366.00        77.9002         1.9781         2.3637         0.3982
       5366.50        76.5239         1.9111         2.3676         0.4501
       5367.00        81.8648         1.8737         2.3555         0.4159
       5367.50        79.4995         1.8296         2.3478         0.4546
       5368.00        84.8433         1.8054         2.3491         0.4502
       5368.50        78.2817         1.7244         2.3602         0.4539
       5369.00        76.9083         1.7074         2.3635         0.4930
       5369.50        74.0853         1.7017         2.3585         0.4151
       5370.00        78.8087         1.7493         2.3495         0.3881
       5370.50        81.3957         1.7771         2.3454         0.4224
       5371.00        78.5726         1.7581         2.3239         0.4235
       5371.50        77.8167         1.7377         2.3083         0.5052
       5372.00        76.3743         1.7700         2.3058         0.4798
       5372.50        76.9846         1.7486         2.3281         0.4271
       5373.00        77.5155         1.7541         2.3452         0.3689
       5373.50        79.1178         1.7671         2.3568         0.4448
       5374.00        81.1015         1.6847         2.3537         0.4937
       5374.50        80.3417         1.6875         2.3608         0.3987
       5375.00        78.2054         1.7006         2.3435         0.3963
       5375.50        75.6047         1.7158         2.3426         0.3841
       5376.00        75.8301         1.6493         2.3337         0.4377
       5376.50        77.8139         1.6560         2.3296         0.4915
       5377.00        78.6564         1.6175         2.3252         0.3982
       5377.50        77.7376         1.6686         2.3140         0.3866
       5378.00        78.1954         1.7245         2.3260         0.4470
       5378.50        79.5685         1.6968         2.3231         0.4385
       5379.00        80.7451         1.6314         2.3325         0.5199
       5379.50        81.3022         1.6561         2.3241         0.4404
       5380.00        79.7000         1.6652         2.3323         0.3919
       5380.50        79.5935         1.6590         2.3315         0.4327
       5381.00        79.4942         1.7085         2.3263         0.4229
       5381.50        79.9024         1.7083         2.3134         0.4128
       5382.00        81.4258         1.7589         2.3168         0.4340
       5382.50        81.0443         1.8096         2.3258         0.4664
       5383.00        79.4189         1.8239         2.3324         0.4831
       5383.50        75.3824         1.8499         2.3344         0.4464
       5384.00        74.2379         1.8672         2.3374         0.4037
       5384.50        77.5393         1.8943         2.3344         0.3717
       5385.00        79.7519         1.8304         2.3388         0.4828
       5385.50        81.8858         1.8586         2.3477         0.4877
       5386.00        78.8896         1.9253         2.3454         0.4458
       5386.50        80.7208         1.9347         2.3434         0.4235
       5387.00        81.3336         1.8914         2.3332         0.4499
       5387.50        82.3996         1.9426         2.3326         0.4040
       5388.00        82.3996         1.8869         2.3303         0.4719
       5388.50        79.8543         1.8894         2.3305         0.4714
       5389.00        81.8403         1.9423         2.3367         0.4837
       5389.50        81.0773         1.9761         2.3353         0.4527
       5390.00        80.7962         1.9637         2.3401         0.4652
       5390.50        78.5581         1.9884         2.3407         0.4723
       5391.00        78.4055         2.0701         2.3456         0.4385
       5391.50        78.0274         1.9952         2.3363         0.4083
       5392.00        79.0447         2.0759         2.3345         0.4874
       5392.50        76.5014         2.0756         2.3344         0.5018
       5393.00        77.4170         2.1415         2.3531         0.4765
       5393.50        77.8192         2.1201         2.3502         0.4545
       5394.00        80.1300         2.0253         2.3542         0.4125
       5394.50        79.2907         2.0505         2.3386         0.4548
       5395.00        79.2701         2.0651         2.3336         0.4258
       5395.50        78.5106         2.1086         2.3308         0.4050
       5396.00        77.8973         2.0627         2.3301         0.3963
       5396.50        78.3517         1.9923         2.3526         0.4636
       5397.00        79.0383         1.9596         2.3549         0.4226
       5397.50        79.3673         1.9408         2.3662         0.4260
       5398.00        79.4470         1.9304         2.3685         0.4398
       5398.50        80.5661         1.9099         2.3721         0.4307
       5399.00        81.6134         1.9492         2.3769         0.3744
       5399.50        78.8632         1.9184         2.3687         0.3869
       5400.00        74.8449         1.9808         2.3598         0.4520
       5400.50        72.4796         1.9764         2.3416         0.4281
       5401.00        71.5643         1.9793         2.3321         0.3904
       5401.50        66.5999         2.0455         2.3042         0.4137
       5402.00        61.4879         2.0580         2.3027         0.4144
       5402.50        55.3364         2.0528         2.2983         0.4679
       5403.00        53.7392         1.9988         2.2998         0.4009
       5403.50        54.6766         1.9561         2.3187         0.4697
       5404.00        57.9320         1.9412         2.3261         0.3483
       5404.50        62.5608         1.9521         2.3599         0.3666
       5405.00        68.1849         1.9605         2.3523         0.3399
       5405.50        73.8310         1.8903         2.3850         0.3525
       5406.00        77.8205         1.9028         2.3938         0.3601
       5406.50        76.6730         1.8972         2.4056         0.3675
       5407.00        78.9111         1.8748         2.3998         0.3601
       5407.50        78.3781         1.8594         2.4101         0.3446
       5408.00        80.4344         1.8788         2.4203         0.3565
       5408.50        76.9756         1.8422         2.4141         0.3252
       5409.00        81.2455         1.7788         2.3888         0.2986
       5409.50        88.9539         1.7855         2.3570         0.3585
