~Version Information Block
VERS .                  2.0:  CWLS LOG ASCII STANDARD - VERSION 2.0
WRAP .                   NO:  One line per depth step
~Well Information Block
#MNEM.UNIT        Data Type   Information
#---------- ----------------  -----------
STRT .FT            2988.00:  START DEPTH
STOP .FT            9585.50:  STOP DEPTH
STEP .FT               0.50:  STEP
NULL .              -999.25:  NULL VALUE
COMP .                     :  COMPANY
WELL .              SA-24HZ:  WELL
FLD  .                     :  FIELD
LOC  .                     :  LOCATION
CTRY .                     :  COUNTRY
STAT .                     :  STATE
CNTY .                     :  COUNTY
SRVC .                     :  SERVICE COMPANY
DATE .                     :  DATE
API  .                     :  API NUMBER
UWI  .                     :  UNIQUE WELL ID
~Curve Information Block
#MNEM.UNIT         API CODE   Curve Description
#---------- ----------------  -----------------
DEPTH.FT                   :  DEPTH
GR   .GAPI                 :  Gamma Ray
RT   .OHMM                 :  Deep resistivity
RHOB .G/C3                 :  Bulk density
NPHI .V/V                  :  Neutron porosity
~Parameter Information Block
#MNEM.UNIT            Value   Description
#---------- ----------------  -----------
PROJECT.            SERANG_FE:  
~Other Information Block
# 
~A       DEPTH             GR             RT           RHOB           NPHI 
# ...
       4753.50        63.8300         1.3300         2.3600       0.410000
       4754.00        62.4900         1.3300         2.3500       0.410000
       4754.50        66.6700         1.3800         2.3300       0.430000
       4755.00        70.7800         1.3800         2.3300       0.450000
       4755.50        74.6000         1.3800         2.3400       0.470000
       4756.00        70.7500         1.3800         2.3500       0.490000
       4756.50        66.9500         1.3300         2.3600       0.500000
       4757.00        65.0600         1.3000         2.3700       0.500000
       4757.50        65.9700         1.3000         2.3700       0.490000
       4758.00        71.9500         1.3100         2.3700       0.490000
       4758.50        77.6600         1.3500         2.3700       0.480000
       4759.00        79.3500         1.3800         2.3600       0.480000
       4759.50        74.9400         1.4000         2.3600       0.480000
       4760.00        68.7000         1.4200         2.3600       0.490000
       4760.50        66.7400         1.4200         2.3600       0.500000
       4761.00        67.1500         1.4000         2.3600       0.500000
       4761.50        69.2800         1.3700         2.3700       0.510000
       4762.00        71.0900         1.3400         2.3800       0.510000
       4762.50        72.6400         1.3400         2.3800       0.500000
       4763.00        73.1400         1.3600         2.3800       0.490000
       4763.50        72.3400         1.3600         2.3800       0.470000
       4764.00        70.8700         1.3900         2.3800       0.460000
       4764.50        69.3300         1.4000         2.3800       0.450000
       4765.00        68.9600         1.4000         2.3800       0.440000
       4765.50        68.6600         1.4000         2.3700       0.440000
       4766.00        67.8800         1.4100         2.3700       0.440000
       4766.50        66.6300         1.3700         2.3700       0.450000
       4767.00        66.5900         1.3600         2.3800       0.450000
       4767.50        67.2300         1.3700         2.3800       0.460000
       4768.00        66.5000         1.3800         2.3900       0.460000
       4768.50        66.2400         1.4000         2.4000       0.470000
       4769.00        66.8600         1.4100         2.3900       0.470000
       4769.50        69.0600         1.4000         2.3800       0.480000
       4770.00        69.4400         1.4000         2.3700       0.480000
       4770.50        68.3500         1.3700         2.3600       0.480000
       4771.00        66.8800         1.4100         2.3500       0.470000
       4771.50        64.3000         1.4300         2.3500       0.470000
       4772.00        60.7600         1.4600         2.3700       0.470000
       4772.50        57.3200         1.4600         2.3900       0.470000
       4773.00        57.0400         1.4300         2.4100       0.490000
       4773.50        58.7100         1.4100         2.4200       0.500000
       4774.00        62.5700         1.4100         2.4300       0.510000
       4774.50        65.9300         1.4100         2.4200       0.520000
       4775.00        67.0900         1.4100         2.4200       0.540000
       4775.50        65.0600         1.4200         2.4100       0.550000
       4776.00        61.8400         1.4200         2.4000       0.560000
       4776.50        65.1900         1.3400         2.3900       0.570000
       4777.00        70.6100         1.3300         2.3900       0.570000
       4777.50        77.1400         1.3100         2.3900       0.580000
       4778.00        79.0200         1.3100         2.3900       0.560000
       4778.50        77.4100         1.3400         2.4100       0.530000
       4779.00        73.8100         1.3500         2.4100       0.510000
       4779.50        70.5000         1.3800         2.3800       0.520000
       4780.00        70.1300         1.4000         2.3600       0.530000
       4780.50        71.9900         1.4100         2.3400       0.550000
       4781.00        74.2300         1.4100         2.3200       0.550000
       4781.50        76.2200         1.4400         2.3000       0.550000
       4782.00        72.9700         1.5300         2.2900       0.540000
       4782.50        67.4200         1.5800         2.2900       0.530000
       4783.00        58.5700         1.5300         2.3000       0.520000
       4783.50        52.7700         1.5000         2.3100       0.520000
       4784.00        50.9600         1.4900         2.3200       0.510000
       4784.50        53.4300         1.4600         2.3400       0.510000
       4785.00        55.4400         1.4500         2.3900       0.450000
       4785.50        53.6700         1.4400         2.4200       0.390000
       4786.00        50.5100         1.4300         2.4200       0.340000
       4786.50        49.5800         1.4300         2.4100       0.310000
       4787.00        50.0100         1.4300         2.3900       0.290000
       4787.50        50.6400         1.4300         2.3800       0.270000
       4788.00        50.6600         1.4400         2.3900       0.270000
       4788.50        50.5100         1.4400         2.4100       0.290000
       4789.00        50.4700         1.4300         2.4300       0.310000
       4789.50        52.8200         1.4300         2.4200       0.330000
       4790.00        55.7600         1.4500         2.4100       0.340000
       4790.50        51.8700         1.4600         2.4700       0.340000
       4791.00        48.4500         1.4700         2.5100       0.330000
       4791.50        47.0500         1.4800         2.4600       0.310000
       4792.00        52.7700         1.4800         2.4500       0.330000
       4792.50        54.9200         1.4700         2.4400       0.350000
       4793.00        54.3400         1.4700         2.4200       0.370000
       4793.50        55.0000         1.4600         2.4200       0.340000
       4794.00        56.7100         1.4500         2.4200       0.330000
       4794.50        57.4300         1.4800         2.4300       0.340000
       4795.00        56.4000         1.4900         2.4500       0.340000
       4795.50        54.2700         1.5000         2.4900       0.350000
       4796.00        53.1100         1.5000         2.4900       0.360000
       4796.50        55.1200         1.5200         2.4500       0.370000
       4797.00        58.8700         1.5400         2.4300       0.360000
       4797.50        63.4400         1.5400         2.4300       0.370000
       4798.00        65.4600         1.5400         2.4200       0.370000
       4798.50        65.4800         1.5400         2.4400       0.380000
       4799.00        63.8100         1.5600         2.5100       0.370000
       4799.50        61.6100         1.5700         2.5000       0.380000
       4800.00        58.3500         1.5600         2.4000       0.390000
       4800.50        55.8100         1.5600         2.3500       0.410000
       4801.00        53.3900         1.5500         2.3800       0.420000
       4801.50        53.1100         1.5500         2.4300       0.420000
       4802.00        59.7200         1.5900         2.4700       0.430000
       4802.50        64.3400         1.5900         2.4600       0.440000
       4803.00        68.5600         1.5800         2.4400       0.440000
       4803.50        66.0600         1.5800         2.4300       0.430000
       4804.00        63.5000         1.5500         2.4200       0.430000
       4804.50        65.5200         1.5400         2.4100       0.450000
       4805.00        66.6900         1.5100         2.4000       0.470000
       4805.50        69.6200         1.5100         2.4000       0.490000
       4806.00        67.1200         1.4900         2.4600       0.490000
       4806.50        66.6900         1.4900         2.4800       0.480000
