~Version Information Block
VERS .                  2.0:  CWLS LOG ASCII STANDARD - VERSION 2.0
WRAP .                   NO:  One line per depth step
~Well Information Block
#MNEM.UNIT        Data Type   Information
#---------- ----------------  -----------
STRT .FT            2988.00:  START DEPTH
STOP .FT            9585.50:  STOP DEPTH
STEP .FT               0.50:  STEP
NULL .              -999.25:  NULL VALUE
COMP .                     :  COMPANY
WELL .              SA-24HZ:  WELL
FLD  .                     :  FIELD
LOC  .                     :  LOCATION
CTRY .                     :  COUNTRY
STAT .                     :  STATE
CNTY .                     :  COUNTY
SRVC .                     :  SERVICE COMPANY
DATE .                     :  DATE
API  .                     :  API NUMBER
UWI  .                     :  UNIQUE WELL ID
~Curve Information Block
#MNEM.UNIT         API CODE   Curve Description
#---------- ----------------  -----------------
DEPTH.FT                   :  DEPTH
GR   .GAPI                 :  Gamma Ray
RT   .OHMM                 :  Deep resistivity
RHOB .G/C3                 :  Bulk density
NPHI .V/V                  :  Neutron porosity
~Parameter Information Block
#MNEM.UNIT            Value   Description
#---------- ----------------  -----------
PROJECT.            SERANG_FE:  
~Other Information Block
# 
~A       DEPTH             GR             RT           RHOB           NPHI 
# ...
       8231.00        77.9600         1.9500         2.5600       0.350000
       8231.50        77.3700         1.9600         2.5400       0.360000
       8232.00        76.7900         1.7800         2.5200       0.370000
       8232.50        75.6800         1.8500         2.5200       0.370000
       8233.00        75.3900         1.9600         2.5400       0.370000
       8233.50        76.8600         1.8100         2.5500       0.400000
       8234.00        79.2100         1.9000         2.5700       0.430000
       8234.50        79.5700         1.9500         2.5600       0.440000
       8235.00        74.2100         1.9000         2.5300       0.410000
       8235.50        71.9400         1.8700         2.5000       0.380000
       8236.00        71.3500         1.8100         2.5100       0.370000
       8236.50        76.3500         1.7900         2.5400       0.380000
       8237.00        74.8800         1.8000         2.5600       0.390000
       8237.50        74.6500         1.9000         2.5600       0.390000
       8238.00        74.9400         1.9200         2.5500       0.410000
       8238.50        76.4000         1.9700         2.5400       0.420000
       8239.00        75.7400         1.8200         2.5400       0.420000
       8239.50        74.1000         1.8300         2.5500       0.410000
       8240.00        74.6600         1.9900         2.5600       0.420000
       8240.50        75.5500         1.8600         2.5500       0.440000
       8241.00        77.0200         1.8400         2.5400       0.450000
       8241.50        77.9400         1.9000         2.5300       0.450000
       8242.00        78.4100         1.9300         2.5300       0.440000
       8242.50        79.3900         1.9900         2.5300       0.440000
       8243.00        79.0200         1.9300         2.5300       0.450000
       8243.50        79.1700         1.7800         2.5300       0.470000
       8244.00        78.7300         1.8300         2.5300       0.470000
       8244.50        77.4800         1.8800         2.5400       0.470000
       8245.00        79.2000         1.9700         2.5500       0.450000
       8245.50        79.5000         1.9300         2.5500       0.420000
       8246.00        82.3200         1.7900         2.5400       0.400000
       8246.50        83.7500         1.8600         2.5700       0.390000
       8247.00        81.3300         1.8700         2.6000       0.390000
       8247.50        79.4300         1.8400         2.5900       0.410000
       8248.00        78.0400         1.7400         2.5700       0.430000
       8248.50        84.2700         1.7500         2.5500       0.450000
       8249.00        88.2300         1.7400         2.5300       0.460000
       8249.50        89.9900         1.8200         2.5400       0.460000
       8250.00        88.3800         1.8700         2.5700       0.480000
       8250.50        86.7700         1.7400         2.6000       0.500000
       8251.00        84.0100         1.7500         2.5900       0.490000
       8251.50        81.0000         1.8400         2.5800       0.480000
       8252.00        79.8200         1.7400         2.5900       0.480000
       8252.50        80.8100         1.7200         2.6200       0.500000
       8253.00        80.6700         1.7500         2.6300       0.500000
       8253.50        80.1600         1.9300         2.6300       0.480000
       8254.00        81.8900         2.0300         2.6300       0.460000
       8254.50        82.9800         2.0000         2.6100       0.440000
       8255.00        83.6000         2.0800         2.6000       0.430000
       8255.50        82.5800         2.3800         2.5900       0.420000
       8256.00        82.8000         2.3000         2.5900       0.400000
       8256.50        79.5400         2.5300         2.5900       0.380000
       8257.00        75.3500         2.4500         2.5700       0.390000
       8257.50        67.4300         2.5700         2.5600       0.390000
       8258.00        63.5000         2.6200         2.5600       0.400000
       8258.50        55.7900         2.6500         2.5600       0.370000
       8259.00        52.0800         2.4000         2.5400       0.330000
       8259.50        45.8100         2.5000         2.5200       0.310000
       8260.00        43.3100         2.5300         2.4600       0.270000
       8260.50        42.8400         2.6900         2.4100       0.240000
       8261.00        42.8400         2.4500         2.3800       0.220000
       8261.50        47.1700         2.6500         2.3400       0.210000
       8262.00        48.2000         2.3500         2.2900       0.210000
       8262.50        51.9000         2.5500         2.2700       0.210000
       8263.00        54.3500         2.4900         2.2900       0.200000
       8263.50        60.4300         2.7200         2.3000       0.220000
       8264.00        70.6700         2.4000         2.3100       0.240000
       8264.50        82.7600         2.1800         2.3300       0.280000
       8265.00        91.0600         2.3700         2.3800       0.300000
       8265.50        93.2600         2.0700         2.4400       0.310000
       8266.00        92.8900         2.0300         2.4900       0.310000
       8266.50        90.4700         1.7700         2.5200       0.320000
       8267.00        92.0100         1.6700         2.5200       0.330000
       8267.50        90.6900         1.6000         2.5100       0.340000
       8268.00        88.1200         1.6500         2.5200       0.340000
       8268.50        87.3100         1.5200         2.5300       0.350000
       8269.00        81.0700         1.5200         2.5300       0.350000
       8269.50        81.2900         1.6200         2.5200       0.360000
       8270.00        75.6800         1.6400         2.5000       0.370000
       8270.50        76.5600         1.7200         2.4900       0.410000
       8271.00        77.2300         1.8900         2.5000       0.430000
       8271.50        75.9400         1.8600         2.5100       0.400000
       8272.00        73.3700         1.9900         2.5200       0.350000
       8272.50        67.2000         1.8900         2.5300       0.340000
       8273.00        64.5600         2.0100         2.5000       0.350000
       8273.50        60.2300         1.9900         2.4600       0.340000
       8274.00        56.4900         2.0900         2.4300       0.310000
       8274.50        56.8900         2.1800         2.4100       0.280000
       8275.00        51.3900         2.2200         2.3700       0.270000
       8275.50        52.0500         2.3200         2.3700       0.250000
       8276.00        49.4400         2.4200         2.3900       0.240000
       8276.50        53.6300         2.5700         2.4300       0.230000
       8277.00        54.4000         2.5800         2.4700       0.240000
       8277.50        55.2000         2.6200         2.4500       0.250000
       8278.00        55.7900         2.6000         2.4000       0.250000
       8278.50        53.8400         2.7500         2.3800       0.250000
       8279.00        53.4400         2.8100         2.4200       0.260000
       8279.50        54.5400         2.7600         2.4500       0.270000
       8280.00        57.2500         2.7600         2.4600       0.270000
       8280.50        56.8500         2.8200         2.4600       0.260000
       8281.00        57.4400         2.8300         2.4600       0.280000
       8281.50        57.0900         2.6700         2.4300       0.280000
       8282.00        55.8400         2.8100         2.4100       0.270000
       8282.50        54.5200         2.8100         2.3900       0.260000
       8283.00        53.8500         2.8600         2.3600       0.260000
       8283.50        57.3700         2.8600         2.3400       0.250000
       8284.00        58.3900         3.0600         2.3600       0.250000
