~Version Information Block
VERS .                  2.0:  CWLS LOG ASCII STANDARD - VERSION 2.0
WRAP .                   NO:  One line per depth step
~Well Information Block
#MNEM.UNIT        Data Type   Information
#---------- ----------------  -----------
STRT .FT            2071.50:  START DEPTH
STOP .FT           10484.50:  STOP DEPTH
STEP .FT               0.50:  STEP
NULL .              -999.25:  NULL VALUE
COMP .                     :  COMPANY
WELL .          SA-25RD1BP1:  WELL
FLD  .                     :  FIELD
LOC  .                     :  LOCATION
CTRY .                     :  COUNTRY
STAT .                     :  STATE
CNTY .                     :  COUNTY
SRVC .                     :  SERVICE COMPANY
DATE .                     :  DATE
API  .                     :  API NUMBER
UWI  .                     :  UNIQUE WELL ID
~Curve Information Block
#MNEM.UNIT         API CODE   Curve Description
#---------- ----------------  -----------------
DEPTH.FT                   :  Bit Depth 2hz
GR   .GAPI                 :  Merged WIRE.GR_1 and WIRE_6125.GR_1 at 8490.50
RT   .OHMM                 :  Merged WIRE.RT_1 and WIRE_6125.RT_1 at 8497.50
RHOB .G/C3                 :  Merged WIRE.RHOB_1 and WIRE_6125.RHOB_1 at 8490.00
NPHI .V/V                  :  Merged WIRE.NPHI_1 and WIRE_6125.NPHI_1 at 8490.50
~Parameter Information Block
#MNEM.UNIT            Value   Description
#---------- ----------------  -----------
PROJECT.            SERANG_FE:  
~Other Information Block
# 
~A       DEPTH             GR             RT           RHOB           NPHI 
# ...
       5388.50        75.9350         1.5185         2.3388       0.449780
       5389.00        73.8723         1.4831         2.3345       0.459550
       5389.50        74.4030         1.5036         2.3377       0.465910
       5390.00        71.7806         1.5192         2.3406       0.455340
       5390.50        73.4618         1.4961         2.3442       0.445550
       5391.00        74.8350         1.4974         2.3483       0.456450
       5391.50        75.9860         1.5134         2.3441       0.452470
       5392.00        77.1267         1.5138         2.3429       0.449310
       5392.50        77.5117         1.5148         2.3293       0.458260
       5393.00        77.3591         1.4979         2.3263       0.464480
       5393.50        78.8889         1.5001         2.3256       0.469630
       5394.00        77.6681         1.5035         2.3351       0.464830
       5394.50        79.0378         1.4912         2.3365       0.457190
       5395.00        75.1433         1.4937         2.3446       0.460140
       5395.50        77.5050         1.5143         2.3404       0.462610
       5396.00        77.8609         1.4829         2.3457       0.454930
       5396.50        78.2429         1.4847         2.3283       0.452320
       5397.00        78.5483         1.5196         2.3326       0.452460
       5397.50        75.7577         1.5009         2.3314       0.440660
       5398.00        76.9783         1.5045         2.3415       0.432580
       5398.50        77.0547         1.4813         2.3439       0.424910
       5399.00        78.9588         1.4686         2.3492       0.428770
       5399.50        78.1989         1.4729         2.3535       0.436200
       5400.00        77.2070         1.4727         2.3522       0.433530
       5400.50        74.8421         1.4463         2.3494       0.423760
       5401.00        76.5649         1.4803         2.3425       0.425210
       5401.50        76.5426         1.4290         2.3344       0.432600
       5402.00        78.7549         1.4559         2.3326       0.442010
       5402.50        79.0158         1.4803         2.3349       0.446380
       5403.00        78.5508         1.4733         2.3365       0.446080
       5403.50        80.4617         1.4393         2.3365       0.455110
       5404.00        80.1056         1.4390         2.3324       0.455440
       5404.50        78.8412         1.4119         2.3300       0.452470
       5405.00        74.8705         1.4275         2.3184       0.453840
       5405.50        72.8845         1.4113         2.3152       0.468870
       5406.00        68.9933         1.4318         2.3172       0.461430
       5406.50        67.9283         1.3894         2.3196       0.461630
       5407.00        67.9284         1.3866         2.3300       0.453810
       5407.50        72.3537         1.4147         2.3228       0.449470
       5408.00        76.6228         1.4341         2.3264       0.451920
       5408.50        78.7105         1.3910         2.3240       0.441840
       5409.00        75.9638         1.4206         2.3250       0.436610
       5409.50        76.5777         1.4031         2.3359       0.431710
       5410.00        73.8756         1.4030         2.3316       0.433970
       5410.50        77.6110         1.3744         2.3365       0.424200
       5411.00        74.2476         1.3872         2.3214       0.436780
       5411.50        78.3231         1.3881         2.3268       0.434920
       5412.00        77.3310         1.4037         2.3292       0.434480
       5412.50        80.0044         1.3609         2.3405       0.445990
       5413.00        78.3190         1.3808         2.3400       0.447100
       5413.50        79.7721         1.3536         2.3473       0.452150
       5414.00        78.3257         1.3919         2.3442       0.458350
       5414.50        78.7395         1.4133         2.3490       0.455520
       5415.00        77.2112         1.3782         2.3448       0.447420
       5415.50        75.4534         1.3773         2.3419       0.451960
       5416.00        75.5527         1.3911         2.3424       0.443160
       5416.50        76.2418         1.3948         2.3415       0.439710
       5417.00        79.9033         1.3594         2.3498       0.438940
       5417.50        77.7694         1.3251         2.3557       0.433140
       5418.00        78.6087         1.3623         2.3586       0.434260
       5418.50        78.7395         1.4008         2.3552       0.430280
       5419.00        81.9913         1.4549         2.3496       0.423200
       5419.50        79.5962         1.5021         2.3599       0.430600
       5420.00        73.8230         1.4953         2.3686       0.432050
       5420.50        67.5701         1.5974         2.3611       0.419070
       5421.00        61.1720         1.8884         2.3422       0.420290
       5421.50        62.6217         2.1966         2.3200       0.410370
       5422.00        58.5732         2.2424         2.3205       0.405520
       5422.50        60.1403         2.1816         2.3369       0.404040
       5423.00        60.0640         2.0356         2.3529       0.394960
       5423.50        67.9274         1.9318         2.3367       0.395430
       5424.00        78.8158         1.8890         2.3050       0.399100
       5424.50        87.8952         1.8114         2.2686       0.394700
       5425.00        96.8221         1.6311         2.2598       0.394000
       5425.50       100.1029         1.5413         2.2511       0.399580
       5426.00       100.2555         1.4326         2.2732       0.402960
       5426.50        90.5657         1.4230         2.3094       0.404860
       5427.00        83.7752         1.4073         2.3534       0.400130
       5427.50        79.0342         1.4441         2.3763       0.395840
       5428.00        84.5276         1.4718         2.3787       0.393550
       5428.50        84.6802         1.4501         2.3918       0.388270
       5429.00        83.3869         1.4849         2.3999       0.379890
       5429.50        77.2799         1.5079         2.4087       0.374240
       5430.00        71.3287         1.4995         2.4022       0.371680
       5430.50        71.7170         1.5149         2.4048       0.369460
       5431.00        74.1616         1.5369         2.4014       0.365880
       5431.50        80.3417         1.5169         2.3971       0.369330
       5432.00        80.7963         1.4877         2.4016       0.379690
       5432.50        78.8062         1.4548         2.4088       0.379690
       5433.00        76.8224         1.5213         2.3902       0.376530
       5433.50        81.3230         1.5593         2.3405       0.371680
       5434.00        86.5177         1.4872         2.2975       0.367890
       5434.50        95.1394         1.5933         2.2787       0.365390
       5435.00        94.3003         1.6546         2.3015       0.371650
       5435.50        94.9106         1.5568         2.3423       0.375030
       5436.00        90.3251         1.5478         2.3955       0.364160
       5436.50        90.0239         1.6065         2.4497       0.354340
       5437.00        87.8875         1.5923         2.4785       0.339810
       5437.50        87.2812         1.6104         2.4718       0.332330
       5438.00        84.6871         1.7105         2.4551       0.330020
       5438.50        83.6952         1.7986         2.4368       0.328810
       5439.00        82.7760         1.8431         2.4324       0.335340
       5439.50        79.7240         1.8461         2.4065       0.334350
       5440.00        77.1265         1.7697         2.3882       0.335660
       5440.50        71.8661         1.7375         2.3769       0.339630
       5441.00        75.1469         1.7023         2.3706       0.348460
       5441.50        73.5420         1.4945         2.3637       0.360520
