~Version Information Block
VERS .                  2.0:  CWLS LOG ASCII STANDARD - VERSION 2.0
WRAP .                   NO:  One line per depth step
~Well Information Block
#MNEM.UNIT        Data Type   Information
#---------- ----------------  -----------
STRT .FT            2988.00:  START DEPTH
STOP .FT            9585.50:  STOP DEPTH
STEP .FT               0.50:  STEP
NULL .              -999.25:  NULL VALUE
COMP .                     :  COMPANY
WELL .              SA-24HZ:  WELL
FLD  .                     :  FIELD
LOC  .                     :  LOCATION
CTRY .                     :  COUNTRY
STAT .                     :  STATE
CNTY .                     :  COUNTY
SRVC .                     :  SERVICE COMPANY
DATE .                     :  DATE
API  .                     :  API NUMBER
UWI  .                     :  UNIQUE WELL ID
~Curve Information Block
#MNEM.UNIT         API CODE   Curve Description
#---------- ----------------  -----------------
DEPTH.FT                   :  DEPTH
GR   .GAPI                 :  Gamma Ray
RT   .OHMM                 :  Deep resistivity
RHOB .G/C3                 :  Bulk density
NPHI .V/V                  :  Neutron porosity
~Parameter Information Block
#MNEM.UNIT            Value   Description
#---------- ----------------  -----------
PROJECT.            SERANG_FE:  
~Other Information Block
# 
~A       DEPTH             GR             RT           RHOB           NPHI 
# ...
       7321.50        73.2200         1.5200         2.4900       0.390000
       7322.00        77.1200         1.5200         2.5000       0.390000
       7322.50        78.8000         1.5200         2.5100       0.390000
       7323.00        80.1900         1.5100         2.5200       0.400000
       7323.50        78.9400         1.5100         2.5200       0.410000
       7324.00        73.5900         1.5400         2.5300       0.410000
       7324.50        73.4500         1.5300         2.5400       0.410000
       7325.00        73.8100         1.5200         2.5500       0.420000
       7325.50        78.8000         1.5300         2.5500       0.420000
       7326.00        78.0600         1.5500         2.5400       0.420000
       7326.50        81.7300         1.5400         2.5300       0.420000
       7327.00        84.4500         1.5300         2.5200       0.420000
       7327.50        87.2700         1.5500         2.5100       0.420000
       7328.00        85.5800         1.5500         2.5000       0.420000
       7328.50        84.3600         1.5600         2.4800       0.430000
       7329.00        83.6000         1.5600         2.4800       0.430000
       7329.50        81.4000         1.5400         2.4700       0.430000
       7330.00        81.3700         1.5300         2.4700       0.420000
       7330.50        81.0200         1.5300         2.4700       0.400000
       7331.00        82.2700         1.5100         2.4600       0.390000
       7331.50        78.1600         1.5500         2.4700       0.380000
       7332.00        78.5100         1.5100         2.4700       0.400000
       7332.50        76.7500         1.5400         2.4800       0.430000
       7333.00        79.5800         1.5500         2.4900       0.480000
       7333.50        78.6300         1.5800         2.5000       0.480000
       7334.00        81.7800         1.6300         2.5200       0.470000
       7334.50        84.1600         1.7000         2.5300       0.450000
       7335.00        82.3200         1.7300         2.5400       0.420000
       7335.50        75.5000         1.7500         2.5400       0.400000
       7336.00        67.9400         1.7200         2.5300       0.380000
       7336.50        61.6800         1.6500         2.5400       0.360000
       7337.00        58.0200         1.6500         2.5200       0.330000
       7337.50        56.0000         1.6900         2.4700       0.310000
       7338.00        56.7500         1.7600         2.4400       0.290000
       7338.50        59.1400         1.7100         2.4400       0.290000
       7339.00        60.6400         1.7300         2.4300       0.300000
       7339.50        68.2100         1.7300         2.4100       0.300000
       7340.00        74.7800         1.7400         2.4000       0.310000
       7340.50        82.4000         1.7400         2.4200       0.310000
       7341.00        83.7800         1.7600         2.4600       0.320000
       7341.50        85.3900         1.7800         2.4800       0.340000
       7342.00        85.0900         1.7800         2.5000       0.340000
       7342.50        84.5800         1.7800         2.5100       0.340000
       7343.00        85.0200         1.8300         2.5200       0.330000
       7343.50        91.9300         1.8600         2.5100       0.330000
       7344.00       101.6200         1.8800         2.4800       0.340000
       7344.50       112.1900         1.9500         2.4700       0.370000
       7345.00       115.7700         1.9800         2.4600       0.400000
       7345.50       115.7700         2.1100         2.4100       0.470000
       7346.00       112.6100         2.1200         2.3600       0.520000
       7346.50       110.3500         2.0700         2.3400       0.500000
       7347.00       107.0500         1.9700         2.3200       0.450000
       7347.50       101.8900         1.9500         2.2600       0.400000
       7348.00        95.4300         1.9400         2.2500       0.420000
       7348.50        84.6500         1.9400         2.3000       0.400000
       7349.00        76.2400         1.8200         2.3700       0.340000
       7349.50        69.3400         1.8000         2.4600       0.290000
       7350.00        71.0200         1.6400         2.5700       0.270000
       7350.50        72.0500         1.6200         2.5900       0.280000
       7351.00        73.6200         1.5900         2.5800       0.270000
       7351.50        73.2500         1.5900         2.5400       0.260000
       7352.00        73.0900         1.4700         2.4900       0.260000
       7352.50        72.4000         1.4700         2.4800       0.270000
       7353.00        71.9600         1.4500         2.5400       0.280000
       7353.50        67.3100         1.3700         2.5800       0.280000
       7354.00        61.5800         1.3500         2.5600       0.280000
       7354.50        57.9200         1.3400         2.5200       0.270000
       7355.00        60.8100         1.3400         2.4900       0.260000
       7355.50        64.8500         1.3500         2.5100       0.260000
       7356.00        65.8000         1.3600         2.5200       0.270000
       7356.50        67.8700         1.3900         2.5100       0.290000
       7357.00        69.1900         1.4100         2.4500       0.300000
       7357.50        71.2500         1.4100         2.4000       0.320000
       7358.00        71.0300         1.4100         2.3600       0.340000
       7358.50        73.3600         1.4100         2.3300       0.380000
       7359.00        76.0800         1.3600         2.3400       0.410000
       7359.50        79.6000         1.3400         2.4400       0.430000
       7360.00        79.0100         1.3200         2.5000       0.400000
       7360.50        77.1800         1.3500         2.4800       0.380000
       7361.00        70.2100         1.3600         2.4800       0.390000
       7361.50        71.2400         1.4000         2.5200       0.400000
       7362.00        73.2100         1.4400         2.5500       0.400000
       7362.50        74.8300         1.4400         2.5600       0.400000
       7363.00        69.3300         1.4500         2.5600       0.370000
       7363.50        60.1200         1.4900         2.5600       0.350000
       7364.00        54.2600         1.5000         2.5600       0.330000
       7364.50        49.6400         1.5200         2.5700       0.320000
       7365.00        50.6000         1.5700         2.5400       0.310000
       7365.50        51.5400         1.5900         2.5600       0.310000
       7366.00        54.6100         1.6400         2.5800       0.310000
       7366.50        55.7500         1.6800         2.5600       0.310000
       7367.00        55.3800         1.6800         2.5400       0.320000
       7367.50        55.4600         1.7000         2.5400       0.330000
       7368.00        57.6200         1.6500         2.5300       0.350000
       7368.50        58.5000         1.6600         2.4800       0.340000
       7369.00        61.7400         1.6600         2.4700       0.350000
       7369.50        61.4800         1.6400         2.5300       0.330000
       7370.00        67.9400         1.6400         2.5600       0.340000
       7370.50        68.0400         1.6400         2.5500       0.340000
       7371.00        68.8500         1.6900         2.5500       0.360000
       7371.50        69.9600         1.6900         2.5300       0.380000
       7372.00        69.0100         1.6900         2.4900       0.380000
       7372.50        69.9600         1.7000         2.5000       0.370000
       7373.00        65.7000         1.6600         2.5400       0.370000
       7373.50        62.3600         1.6300         2.5600       0.340000
       7374.00        53.5500         1.5800         2.5600       0.310000
       7374.50        48.0400         1.5400         2.5600       0.290000
