~Version Information Block
VERS .                  2.0:  CWLS LOG ASCII STANDARD - VERSION 2.0
WRAP .                   NO:  One line per depth step
~Well Information Block
#MNEM.UNIT        Data Type   Information
#---------- ----------------  -----------
STRT .FT            2071.50:  START DEPTH
STOP .FT           10484.50:  STOP DEPTH
STEP .FT               0.50:  STEP
NULL .              -999.25:  NULL VALUE
COMP .                     :  COMPANY
WELL .          SA-25RD1BP1:  WELL
FLD  .                     :  FIELD
LOC  .                     :  LOCATION
CTRY .                     :  COUNTRY
STAT .                     :  STATE
CNTY .                     :  COUNTY
SRVC .                     :  SERVICE COMPANY
DATE .                     :  DATE
API  .                     :  API NUMBER
UWI  .                     :  UNIQUE WELL ID
~Curve Information Block
#MNEM.UNIT         API CODE   Curve Description
#---------- ----------------  -----------------
DEPTH.FT                   :  Bit Depth 2hz
GR   .GAPI                 :  Merged WIRE.GR_1 and WIRE_6125.GR_1 at 8490.50
RT   .OHMM                 :  Merged WIRE.RT_1 and WIRE_6125.RT_1 at 8497.50
RHOB .G/C3                 :  Merged WIRE.RHOB_1 and WIRE_6125.RHOB_1 at 8490.00
NPHI .V/V                  :  Merged WIRE.NPHI_1 and WIRE_6125.NPHI_1 at 8490.50
~Parameter Information Block
#MNEM.UNIT            Value   Description
#---------- ----------------  -----------
PROJECT.            SERANG_FE:  
~Other Information Block
# 
~A       DEPTH             GR             RT           RHOB           NPHI 
# ...
       3195.00        33.5600         5.3433         2.4514       0.235600
       3195.50        34.7350         4.4229         2.4549       0.237690
       3196.00        37.2778         3.5841         2.4564       0.241400
       3196.50        36.8709         4.7939         2.4561       0.244960
       3197.00        36.5485         4.4846         2.4489       0.248210
       3197.50        35.7097         4.1060         2.4571       0.246940
       3198.00        35.2305         4.3862         2.4593       0.246110
       3198.50        35.5513         4.2164         2.4635       0.249430
       3199.00        35.0173         4.4779         2.4740       0.257810
       3199.50        34.4048         4.5049         2.4829       0.261370
       3200.00        33.6420         4.7345         2.4865       0.268010
       3200.50        33.2591         4.4077         2.4746       0.276950
       3201.00        33.3100         4.2205         2.4646       0.283340
       3201.50        35.0663         4.2041         2.4551       0.292670
       3202.00        35.6774         4.1862         2.4488       0.303360
       3202.50        35.6266         3.9000         2.4397       0.317870
       3203.00        36.4639         3.4534         2.4372       0.329200
       3203.50        36.7452         3.2532         2.4372       0.337960
       3204.00        36.6456         3.4307         2.4379       0.347750
       3204.50        34.9673         3.4512         2.4164       0.354650
       3205.00        36.3661         3.3687         2.3821       0.362010
       3205.50        36.4180         3.2735         2.3493       0.364900
       3206.00        37.3351         2.5714         2.3270       0.367060
       3206.50        36.0367         2.3799         2.3065       0.370180
       3207.00        36.0876         2.4454         2.2966       0.366290
       3207.50        33.4935         2.4226         2.3026       0.363420
       3208.00        30.2878         2.1331         2.3208       0.365470
       3208.50        28.7603         2.6100         2.3258       0.362750
       3209.00        27.4633         3.0752         2.3494       0.359020
       3209.50        30.9721         3.1835         2.3463       0.347740
       3210.00        31.9640         3.2299         2.3530       0.338620
       3210.50        33.5633         3.2349         2.3541       0.340020
       3211.00        32.7274         3.3003         2.3757       0.342940
       3211.50        33.8733         3.2457         2.3918       0.339470
       3212.00        36.3921         3.4609         2.4201       0.344170
       3212.50        37.4603         3.4968         2.4307       0.348950
       3213.00        36.0107         3.6075         2.4456       0.346540
       3213.50        36.1131         3.4763         2.4352       0.345980
       3214.00        36.5692         3.2193         2.4382       0.340760
       3214.50        39.0362         3.1247         2.4391       0.345990
       3215.00        38.6814         3.2708         2.4199       0.349580
       3215.50        37.9964         3.4004         2.4225       0.347680
       3216.00        38.4287         3.1606         2.4139       0.344510
       3216.50        36.0381         3.3423         2.4343       0.345950
       3217.00        35.3736         3.4710         2.4369       0.337890
       3217.50        33.8731         3.4855         2.4370       0.328470
       3218.00        34.7999         3.5361         2.4390       0.323310
       3218.50        33.7842         3.4608         2.4363       0.321480
       3219.00        33.8826         3.4548         2.4430       0.316450
       3219.50        31.5316         3.6912         2.4504       0.307660
       3220.00        30.6665         3.8533         2.4590       0.297230
       3220.50        27.4120         3.9524         2.4657       0.288350
       3221.00        27.8189         4.0442         2.4659       0.280970
       3221.50        26.3203         4.1002         2.4646       0.271270
       3222.00        26.5492         4.2547         2.4691       0.268210
       3222.50        27.3884         4.4104         2.4705       0.265510
       3223.00        27.3873         4.4736         2.4792       0.262470
       3223.50        26.7031         4.6493         2.4675       0.261530
       3224.00        24.7181         4.7727         2.4561       0.263030
       3224.50        26.7001         4.4761         2.4414       0.265580
       3225.00        28.5313         4.7057         2.4521       0.268880
       3225.50        32.0408         4.7028         2.4544       0.271250
       3226.00        32.5748         4.3950         2.4615       0.277270
       3226.50        34.3281         4.2290         2.4442       0.283130
       3227.00        33.1851         4.0317         2.4361       0.290180
       3227.50        35.7786         3.7350         2.4226       0.286020
       3228.00        33.9475         3.9250         2.4283       0.284320
       3228.50        32.8780         4.1775         2.4406       0.281960
       3229.00        31.9626         3.8989         2.4471       0.278860
       3229.50        34.6329         3.8091         2.4419       0.275480
       3230.00        34.1739         3.8326         2.4340       0.279850
       3230.50        32.1921         3.8373         2.4349       0.285570
       3231.00        30.5152         3.7014         2.4282       0.289350
       3231.50        30.0600         3.5021         2.4289       0.291890
       3232.00        28.9906         3.4452         2.4434       0.295000
       3232.50        26.8534         3.3945         2.4557       0.304480
       3233.00        28.4932         3.3378         2.4619       0.313930
       3233.50        30.2874         3.2127         2.4462       0.319190
       3234.00        33.2871         3.1075         2.4204       0.327160
       3234.50        34.5458         2.9633         2.4089       0.342580
       3235.00        33.3618         2.8644         2.4144       0.353320
       3235.50        31.7363         2.7718         2.4263       0.361540
       3236.00        31.5846         2.6143         2.4177       0.367560
       3236.50        31.2795         2.5470         2.4017       0.377380
       3237.00        33.4144         2.4242         2.4026       0.387400
       3237.50        31.4280         2.3289         2.4037       0.395190
       3238.00        32.8040         2.4055         2.4039       0.400710
       3238.50        34.9418         2.3760         2.4099       0.415630
       3239.00        41.5824         2.1971         2.4052       0.429610
       3239.50        46.1603         2.0682         2.3989       0.437090
       3240.00        46.3129         1.9889         2.3896       0.439900
       3240.50        43.8676         1.8629         2.3945       0.448080
       3241.00        42.4942         1.8317         2.4000       0.453000
       3241.50        41.9602         1.8708         2.3754       0.452950
       3242.00        45.0876         1.8793         2.3484       0.456720
       3242.50        47.8343         1.8103         2.3210       0.460040
       3243.00        50.4284         1.7205         2.2999       0.459920
       3243.50        50.1189         1.6828         2.2952       0.455100
       3244.00        50.3432         1.7034         2.2907       0.447140
       3244.50        52.8610         1.7433         2.3020       0.447930
       3245.00        58.8211         1.7284         2.3108       0.443600
       3245.50        60.0440         1.6413         2.3240       0.438820
       3246.00        58.1345         1.5724         2.3290       0.433820
       3246.50        53.2514         1.6084         2.3170       0.431380
       3247.00        51.7259         1.6729         2.2979       0.423900
       3247.50        55.0850         1.6992         2.2856       0.424190
       3248.00        55.1588         1.7391         2.2899       0.425330
