~Version Information Block
VERS .                  2.0:  CWLS LOG ASCII STANDARD - VERSION 2.0
WRAP .                   NO:  One line per depth step
~Well Information Block
#MNEM.UNIT        Data Type   Information
#---------- ----------------  -----------
STRT .FT            2200.00:  START DEPTH
STOP .FT            8176.50:  STOP DEPTH
STEP .FT               0.50:  STEP
NULL .              -999.25:  NULL VALUE
COMP .                     :  COMPANY
WELL .             SA-25RD1:  WELL
FLD  .                     :  FIELD
LOC  .                     :  LOCATION
CTRY .                     :  COUNTRY
STAT .                     :  STATE
CNTY .                     :  COUNTY
SRVC .                     :  SERVICE COMPANY
DATE .                     :  DATE
API  .                     :  API NUMBER
UWI  .                     :  UNIQUE WELL ID
~Curve Information Block
#MNEM.UNIT         API CODE   Curve Description
#---------- ----------------  -----------------
DEPTH.FT                   :  Bit Depth 2hz
GR   .GAPI                 :  ECO Gamma Ray
RT   .OHMM                 :  ECO Non-BHCorr Phase-Shift Resistivity 40-in. at 2 MHz
RHOB .G/C3                 :  Bulk Density  Bottom
NPHI .V/V                  :  Thermal Neutron Porosity (Ratio Method) in Selected Lithology
~Parameter Information Block
#MNEM.UNIT            Value   Description
#---------- ----------------  -----------
PROJECT.            SERANG_FE:  
~Other Information Block
# 
~A       DEPTH             GR             RT           RHOB           NPHI 
# ...
       4554.00        66.3434         2.1453         2.3074         0.4339
       4554.50        70.5433         2.0091         2.3070         0.4636
       4555.00        72.8562         1.7601         2.3084         0.4553
       4555.50        72.4005         1.8049         2.3011         0.5546
       4556.00        74.1547         1.7715         2.2997         0.4710
       4556.50        73.7090         2.0819         2.3022         0.4837
       4557.00        77.1125         2.1949         2.3069         0.5142
       4557.50        73.5013         2.2649         2.3066         0.5232
       4558.00        73.3411         2.2884         2.3111         0.5250
       4558.50        73.9288         2.2111         2.3187         0.4469
       4559.00        76.2156         2.1612         2.3152         0.4281
       4559.50        77.7900         2.0842         2.3124         0.4344
       4560.00        77.3340         2.0559         2.3147         0.5285
       4560.50        80.3394         2.1332         2.3132         0.5636
       4561.00        79.6296         2.1188         2.3014         0.5478
       4561.50        77.6205         2.1519         2.3196         0.5135
       4562.00        73.5767         2.1513         2.3391         0.4468
       4562.50        73.1697         2.2379         2.3531         0.4798
       4563.00        74.7160         2.1859         2.3222         0.4693
       4563.50        75.8582         2.2133         2.3163         0.4360
       4564.00        74.2305         2.3002         2.3096         0.4226
       4564.50        72.8211         2.2482         2.3140         0.3943
       4565.00        74.0440         2.1628         2.3194         0.4251
       4565.50        75.8628         2.0486         2.3282         0.4675
       4566.00        81.8475         1.9436         2.3274         0.5125
       4566.50        83.8313         1.8467         2.3181         0.4764
       4567.00        86.5904         1.8426         2.3236         0.5247
       4567.50        85.9841         1.7930         2.3352         0.4570
       4568.00        88.1887         1.7588         2.3364         0.4524
       4568.50        87.3495         1.7164         2.3532         0.4624
       4569.00        83.4589         1.6655         2.3573         0.4536
       4569.50        81.7084         1.7436         2.3498         0.4963
       4570.00        81.0980         1.7443         2.3317         0.5010
       4570.50        84.6108         1.7086         2.3174         0.5064
       4571.00        83.4627         1.7103         2.3150         0.5475
       4571.50        83.5355         1.7747         2.2946         0.5250
       4572.00        81.3228         1.8058         2.2847         0.5529
       4572.50        80.0261         1.8681         2.2855         0.5275
       4573.00        80.8654         1.8856         2.2887         0.5056
       4573.50        78.3475         1.9447         2.2950         0.4681
       4574.00        77.4389         2.0129         2.2966         0.4258
       4574.50        74.7654         2.1058         2.2936         0.4183
       4575.00        76.9747         2.1594         2.2890         0.5400
       4575.50        74.3042         2.1293         2.2784         0.4612
       4576.00        72.7787         2.0171         2.2815         0.5322
       4576.50        70.7220         2.0908         2.2807         0.4240
       4577.00        72.2846         2.2015         2.2871         0.4804
       4577.50        69.6939         2.2070         2.2919         0.4851
       4578.00        70.9113         2.2081         2.3080         0.4575
       4578.50        72.7058         2.0424         2.3196         0.4575
       4579.00        82.6273         1.9134         2.3274         0.4717
       4579.50        83.9208         1.7377         2.3279         0.4886
       4580.00        83.3104         1.6762         2.3392         0.4821
       4580.50        78.3473         1.6934         2.3360         0.5016
       4581.00        79.3389         1.7685         2.3327         0.4888
       4581.50        81.8568         1.8013         2.3104         0.4850
       4582.00        82.3910         1.8991         2.2996         0.4171
       4582.50        78.8059         1.9889         2.2827         0.4605
       4583.00        71.7102         2.1267         2.2580         0.3930
       4583.50        62.9372         2.4038         2.2443         0.4739
       4584.00        57.7527         2.4911         2.2373         0.4549
       4584.50        55.9927         2.4993         2.2689         0.4724
       4585.00        57.3683         2.4398         2.2833         0.4954
       4585.50        62.4829         2.3056         2.2984         0.4664
       4586.00        69.9614         1.7807         2.2881         0.4619
       4586.50        76.7486         1.7499         2.2929         0.4941
       4587.00        79.1105         1.8278         2.2966         0.4153
       4587.50        79.1109         1.8542         2.3108         0.4761
       4588.00        79.6483         1.8467         2.3094         0.4921
       4588.50        80.0331         1.6704         2.3052         0.4754
       4589.00        79.6551         1.6618         2.3174         0.4816
       4589.50        83.2411         1.8391         2.3233         0.5137
       4590.00        80.9521         1.8518         2.3147         0.4515
       4590.50        80.7232         1.8423         2.2876         0.5183
       4591.00        75.7639         1.9474         2.2888         0.4758
       4591.50        74.6194         1.8471         2.3198         0.4761
       4592.00        74.3905         1.8567         2.3290         0.5016
       4592.50        73.9234         1.8452         2.3376         0.4922
       4593.00        77.2767         1.8862         2.3223         0.4403
       4593.50        75.1371         1.8945         2.3274         0.4904
       4594.00        74.3738         1.9737         2.3020         0.5038
       4594.50        72.0092         1.9667         2.2984         0.5575
       4595.00        71.1732         1.9229         2.2924         0.4560
       4595.50        67.2917         2.1647         2.2947         0.4902
       4596.00        63.0984         2.3783         2.2885         0.5190
       4596.50        62.4880         2.5994         2.3061         0.4275
       4597.00        65.3843         2.6422         2.3190         0.6309
       4597.50        68.5064         2.7051         2.3331         0.4641
       4598.00        70.7922         2.7060         2.3260         0.4266
       4598.50        70.0292         2.6112         2.3318         0.4543
       4599.00        72.7721         2.5141         2.3142         0.5208
       4599.50        72.9213         2.3685         2.3127         0.4618
       4600.00        73.7636         2.2016         2.3300         0.4859
       4600.50        73.9194         2.0619         2.3463         0.3899
       4601.00        73.3155         1.9499         2.3389         0.4059
       4601.50        75.6807         1.8870         2.3178         0.4554
       4602.00        73.2460         1.8878         2.3059         0.6083
       4602.50        77.2135         1.8023         2.3004         0.4779
       4603.00        74.2351         1.8197         2.3028         0.4559
       4603.50        73.5484         1.8490         2.3079         0.5128
       4604.00        68.7416         1.8834         2.3128         0.5611
       4604.50        68.0578         1.9219         2.3165         0.4600
       4605.00        69.6569         1.8921         2.3283         0.5065
       4605.50        68.9702         1.9125         2.3300         0.4657
       4606.00        68.1254         1.9646         2.3118         0.4593
       4606.50        65.9159         1.9425         2.2702         0.4972
       4607.00        66.5263         2.0260         2.2660         0.5514
