~Version Information Block
VERS .                  2.0:  CWLS LOG ASCII STANDARD - VERSION 2.0
WRAP .                   NO:  One line per depth step
~Well Information Block
#MNEM.UNIT        Data Type   Information
#---------- ----------------  -----------
STRT .FT            2071.50:  START DEPTH
STOP .FT           10484.50:  STOP DEPTH
STEP .FT               0.50:  STEP
NULL .              -999.25:  NULL VALUE
COMP .                     :  COMPANY
WELL .          SA-25RD1BP1:  WELL
FLD  .                     :  FIELD
LOC  .                     :  LOCATION
CTRY .                     :  COUNTRY
STAT .                     :  STATE
CNTY .                     :  COUNTY
SRVC .                     :  SERVICE COMPANY
DATE .                     :  DATE
API  .                     :  API NUMBER
UWI  .                     :  UNIQUE WELL ID
~Curve Information Block
#MNEM.UNIT         API CODE   Curve Description
#---------- ----------------  -----------------
DEPTH.FT                   :  Bit Depth 2hz
GR   .GAPI                 :  Merged WIRE.GR_1 and WIRE_6125.GR_1 at 8490.50
RT   .OHMM                 :  Merged WIRE.RT_1 and WIRE_6125.RT_1 at 8497.50
RHOB .G/C3                 :  Merged WIRE.RHOB_1 and WIRE_6125.RHOB_1 at 8490.00
NPHI .V/V                  :  Merged WIRE.NPHI_1 and WIRE_6125.NPHI_1 at 8490.50
~Parameter Information Block
#MNEM.UNIT            Value   Description
#---------- ----------------  -----------
PROJECT.            SERANG_FE:  
~Other Information Block
# 
~A       DEPTH             GR             RT           RHOB           NPHI 
# ...
       5977.00        45.1048        17.0015         2.3334       0.098800
       5977.50        40.9084        17.1570         2.3750       0.100320
       5978.00        38.4137        16.0862         2.4071       0.101980
       5978.50        37.5871        16.1203         2.4198       0.105910
       5979.00        38.8842        14.6044         2.3914       0.110870
       5979.50        40.8690        13.2682         2.3629       0.116750
       5980.00        39.2144        12.9880         2.3507       0.123910
       5980.50        37.5342        12.7479         2.3507       0.131000
       5981.00        34.4825        13.0339         2.3507       0.136090
       5981.50        33.4921        11.0572         2.3390       0.139130
       5982.00        30.2096        10.4003         2.3222       0.139260
       5982.50        28.3277        11.0197         2.2900       0.138620
       5983.00        26.1150        11.5637         2.2706       0.135270
       5983.50        26.7279        11.7149         2.2474       0.131790
       5984.00        27.1612        11.5845         2.2590       0.128970
       5984.50        28.2540        12.4279         2.2832       0.126880
       5985.00        27.9988        12.5391         2.3309       0.128700
       5985.50        29.9063        11.7745         2.3771       0.127960
       5986.00        30.8735        11.5547         2.4281       0.130570
       5986.50        33.0614        11.7954         2.4591       0.136660
       5987.00        36.9260        11.6790         2.4956       0.146320
       5987.50        40.1305        12.4112         2.5156       0.157710
       5988.00        45.9272         9.1629         2.5284       0.174250
       5988.50        48.2141         8.1885         2.5217       0.188870
       5989.00        50.3998         4.6855         2.5116       0.199990
       5989.50        47.6001         3.7608         2.5061       0.208080
       5990.00        45.6705         6.5661         2.5180       0.218240
       5990.50        48.0612         5.0632         2.5381       0.229860
       5991.00        53.7123         3.6930         2.5525       0.240400
       5991.50        53.8649         3.4324         2.5339       0.247780
       5992.00        53.1022         3.6196         2.5097       0.250100
       5992.50        51.4479         3.8127         2.5032       0.253820
       5993.00        54.0929         3.8511         2.5056       0.254600
       5993.50        53.4837         3.8580         2.5232       0.262830
       5994.00        52.1833         3.6819         2.5311       0.272340
       5994.50        49.7375         3.4805         2.5590       0.286770
       5995.00        49.4323         3.4479         2.5623       0.301660
       5995.50        51.8020         3.9625         2.5997       0.306860
       5996.00        59.5887         3.0736         2.5831       0.323020
       5996.50        73.0934         1.8252         2.5611       0.333900
       5997.00        84.0040         1.5612         2.5191       0.346780
       5997.50        94.3717         1.5101         2.5000       0.356040
       5998.00        97.1908         1.4617         2.4786       0.361270
       5998.50        98.1064         1.3976         2.4759       0.357860
       5999.00        90.9362         1.3790         2.4803       0.362470
       5999.50        87.4304         1.6764         2.4884       0.366780
       6000.00        81.1740         2.0228         2.4851       0.367840
       6000.50        84.3054         1.8829         2.4732       0.374300
       6001.00        88.5780         1.6277         2.4718       0.362980
       6001.50        97.0471         1.5184         2.4648       0.362320
       6002.00        98.7976         1.4418         2.4757       0.360290
       6002.50        93.8272         1.4360         2.4757       0.358300
       6003.00        85.1126         1.5862         2.4603       0.355140
       6003.50        75.6844         2.3059         2.4332       0.354200
       6004.00        67.0737         3.1976         2.4026       0.346500
       6004.50        59.2294         4.0386         2.4006       0.336970
       6005.00        56.4529         3.3116         2.4101       0.318780
       6005.50        55.6874         3.4865         2.4313       0.306330
       6006.00        55.5328         4.2318         2.4445       0.293020
       6006.50        51.5705         4.6463         2.4512       0.271060
       6007.00        49.5893         4.7412         2.4649       0.253090
       6007.50        49.6677         4.4587         2.4684       0.232640
       6008.00        47.8348         5.1702         2.4790       0.216170
       6008.50        42.0362         6.5592         2.4865       0.200560
       6009.00        33.8746         8.6137         2.4880       0.184750
       6009.50        27.4673         9.8692         2.4789       0.167880
       6010.00        24.2603        10.2699         2.4783       0.158370
       6010.50        24.1077        10.2849         2.4706       0.147820
       6011.00        26.6990        10.4639         2.4803       0.143440
       6011.50        28.3024         9.8987         2.4749       0.146110
       6012.00        33.9485         9.9896         2.4970       0.148830
       6012.50        36.2388         9.0126         2.5104       0.152850
       6013.00        39.2920         6.5436         2.5330       0.162340
       6013.50        34.2564         7.6796         2.5106       0.172570
       6014.00        30.6718        11.0258         2.4795       0.183110
       6014.50        29.3747        10.5641         2.4466       0.190570
       6015.00        35.1734        10.0378         2.4182       0.196210
       6015.50        41.1225         9.2097         2.4159       0.199940
       6016.00        45.5455         8.6295         2.4140       0.202010
       6016.50        46.9911         8.2664         2.4410       0.199480
       6017.00        40.8123         7.3962         2.4361       0.195710
       6017.50        33.5649         8.3186         2.4065       0.197080
       6018.00        30.0575         9.4004         2.3588       0.192170
       6018.50        33.1102        11.9108         2.3346       0.188530
       6019.00        36.7722        13.6654         2.3635       0.187990
       6019.50        37.3062        11.7022         2.4115       0.188110
       6020.00        41.6529        10.2256         2.4345       0.190780
       6020.50        48.0856         7.9940         2.4256       0.196000
       6021.00        53.8861         6.8260         2.3923       0.201530
       6021.50        58.1557         5.9945         2.3699       0.211000
       6022.00        59.4307         4.8372         2.3370       0.218990
       6022.50        63.1634         3.6754         2.3299       0.226680
       6023.00        65.3814         2.9850         2.3403       0.238450
       6023.50        67.8993         2.6003         2.3649       0.247660
       6024.00        72.0253         2.3621         2.3775       0.253250
       6024.50        76.8321         2.3115         2.3836       0.265660
       6025.00        82.1655         2.2673         2.4038       0.269270
       6025.50        83.1574         2.0356         2.4223       0.272770
       6026.00        85.8239         1.9050         2.4422       0.277840
       6026.50        86.6666         1.7176         2.4548       0.283130
       6027.00        91.7023         1.6063         2.4756       0.287350
       6027.50        92.0114         1.6509         2.4942       0.291600
       6028.00        92.3968         1.8105         2.4888       0.292930
       6028.50        88.1241         1.8492         2.4819       0.292130
       6029.00        88.9634         1.8781         2.4619       0.297620
       6029.50        88.6582         1.8427         2.4550       0.298300
       6030.00        92.0874         1.8152         2.4535       0.306650
