~Version Information Block
VERS .                  2.0:  CWLS LOG ASCII STANDARD - VERSION 2.0
WRAP .                   NO:  One line per depth step
~Well Information Block
#MNEM.UNIT        Data Type   Information
#---------- ----------------  -----------
STRT .FT            3121.50:  START DEPTH
STOP .FT            8357.50:  STOP DEPTH
STEP .FT               0.50:  STEP
NULL .              -999.25:  NULL VALUE
COMP .                     :  COMPANY
WELL .                SA-21:  WELL
FLD  .                     :  FIELD
LOC  .                     :  LOCATION
CTRY .                     :  COUNTRY
STAT .                     :  STATE
CNTY .                     :  COUNTY
SRVC .                     :  SERVICE COMPANY
DATE .                     :  DATE
API  .                     :  API NUMBER
UWI  .                     :  UNIQUE WELL ID
~Curve Information Block
#MNEM.UNIT         API CODE   Curve Description
#---------- ----------------  -----------------
DEPTH.FT                   :  DEPTH
GR   .GAPI                 :  Gamma Ray
RT   .OHMM                 :  Deep resistivity
RHOB .G/C3                 :  Bulk density
NPHI .V/V                  :  Neutron porosity
DT   .US/F                 :  Sonic
~Parameter Information Block
#MNEM.UNIT            Value   Description
#---------- ----------------  -----------
PROJECT.            SERANG_FE:  
~Other Information Block
# 
~A       DEPTH             GR             RT           RHOB           NPHI             DT 
# ...
       4857.00        81.9375         1.1600         2.3200       0.404000       124.9000
       4857.50        81.3750         1.1400         2.3200       0.393800       124.6000
       4858.00        80.3750         1.1200         2.3200       0.393900       123.9000
       4858.50        80.6250         1.1100         2.3200       0.391100       124.8000
       4859.00        80.0625         1.1100         2.3100       0.377900       125.3000
       4859.50        75.0000         1.0900         2.3100       0.386000       124.9000
       4860.00        73.6875         1.0400         2.3100       0.382200       125.3000
       4860.50        74.6250         1.0200         2.3000       0.386200       125.7000
       4861.00        79.2500         1.0000         2.3100       0.374100       125.7000
       4861.50        81.9375         0.9400         2.3100       0.387700       125.8000
       4862.00        79.7500         0.8400         2.3100       0.401000       125.7000
       4862.50        79.5000         0.8000         2.3000       0.390900       126.8000
       4863.00        81.1250         0.7700         2.2900       0.410000       126.4000
       4863.50        80.5000         0.7200         2.2900       0.383400       127.0000
       4864.00        81.4375         0.6600         2.3000       0.399200       127.2000
       4864.50        76.1250         0.6200         2.3100       0.380200       126.6000
       4865.00        75.4375         0.5700         2.3200       0.403000       127.1000
       4865.50        73.8750         0.5400         2.3200       0.399900       126.6000
       4866.00        74.5000         0.5200         2.3100       0.435700       127.1000
       4866.50        77.9375         0.5400         2.3000       0.436800       127.4000
       4867.00        75.0625         0.5700         2.3100       0.430700       126.7000
       4867.50        80.1250         0.6100         2.3100       0.382000       127.3000
       4868.00        83.2500         0.6500         2.3000       0.386300       127.6000
       4868.50        86.3125         0.7300         2.3000       0.394900       127.1000
       4869.00        83.5000         0.7100         2.3100       0.420900       128.0000
       4869.50        80.5000         0.6600         2.3100       0.426100       127.5000
       4870.00        76.8750         0.6700         2.3100       0.437200       127.0000
       4870.50        77.0000         0.6700         2.3100       0.403900       127.3000
       4871.00        75.0000         0.6700         2.3100       0.399200       126.5000
       4871.50        78.3125         0.6400         2.3100       0.392000       127.2000
       4872.00        74.6875         0.4900         2.3000       0.417500       126.9000
       4872.50        73.5625         0.5600         2.3000       0.415100       127.5000
       4873.00        74.5625         0.6100         2.3000       0.424900       127.3000
       4873.50        78.5625         0.6500         2.3000       0.401500       127.7000
       4874.00        80.6875         0.6700         2.3000       0.392000       128.2000
       4874.50        79.6250         0.6000         2.2900       0.365200       127.5000
       4875.00        77.6875         0.6000         2.2900       0.401200       127.9000
       4875.50        75.7500         0.6400         2.2900       0.397800       128.1000
       4876.00        76.8750         0.6500         2.2900       0.410100       128.2000
       4876.50        76.9375         0.6400         2.2900       0.411600       127.3000
       4877.00        77.1875         0.5400         2.2900       0.397100       127.3000
       4877.50        74.5625         0.5600         2.2900       0.408400       126.6000
       4878.00        75.8125         0.5700         2.3100       0.391700       126.7000
       4878.50        76.6875         0.5700         2.3100       0.404900       126.7000
       4879.00        77.0625         0.6000         2.3100       0.405700       127.3000
       4879.50        77.0000         0.6100         2.3100       0.407700       127.4000
       4880.00        75.0000         0.5900         2.3200       0.413700       127.6000
       4880.50        77.0625         0.6500         2.3000       0.402200       127.4000
       4881.00        74.7500         0.6800         2.2900       0.390200       127.4000
       4881.50        79.0000         0.6600         2.2900       0.390000       127.9000
       4882.00        76.2500         0.6500         2.3100       0.381200       127.5000
       4882.50        80.6250         0.6800         2.3200       0.400400       127.9000
       4883.00        78.3125         0.7300         2.3100       0.382400       127.8000
       4883.50        79.0000         0.7700         2.3100       0.385000       127.8000
       4884.00        77.4375         0.7900         2.3100       0.358400       127.9000
       4884.50        76.6250         0.8200         2.3100       0.363000       128.2000
       4885.00        79.3125         0.8200         2.3000       0.360200       128.8000
       4885.50        74.6875         0.8300         2.2900       0.359300       128.7000
       4886.00        75.9375         0.8400         2.2900       0.365300       128.3000
       4886.50        78.6875         0.8700         2.2900       0.372500       127.9000
       4887.00        81.0000         0.8400         2.3000       0.371200       127.6000
       4887.50        81.8750         0.8000         2.3000       0.371300       127.3000
       4888.00        76.9375         0.8800         2.3100       0.368200       127.8000
       4888.50        78.7500         0.9300         2.3100       0.388600       127.7000
       4889.00        77.7500         0.9700         2.3200       0.386200       127.6000
       4889.50        79.5625         1.0400         2.3100       0.418200       127.5000
       4890.00        76.8125         1.1100         2.3100       0.417600       128.1000
       4890.50        79.0000         1.1600         2.3000       0.413300       128.1000
       4891.00        81.8125         1.2000         2.3000       0.362100       128.3000
       4891.50        84.9375         1.2500         2.2900       0.350300       127.7000
       4892.00        83.3750         1.2700         2.2900       0.354100       127.3000
       4892.50        77.4375         1.2900         2.2900       0.356700       127.0000
       4893.00        73.9375         1.3000         2.3000       0.364000       126.4000
       4893.50        73.4375         1.3100         2.3100       0.365000       126.7000
       4894.00        75.2500         1.3400         2.3100       0.392600       125.9000
       4894.50        79.5000         1.3600         2.3200       0.395000       126.3000
       4895.00        79.1250         1.3700         2.3000       0.404700       126.8000
       4895.50        79.5000         1.3900         2.3000       0.407500       127.6000
       4896.00        75.1250         1.3900         2.2900       0.421200       127.9000
       4896.50        71.6875         1.4000         2.3000       0.425000       127.5000
       4897.00        70.2500         1.4000         2.3100       0.407000       127.5000
       4897.50        70.9375         1.4100         2.3200       0.403800       127.0000
       4898.00        74.5000         1.4200         2.3200       0.379000       127.6000
       4898.50        73.8125         1.4300         2.3100       0.384100       127.4000
       4899.00        77.4375         1.4400         2.3100       0.361700       127.6000
       4899.50        76.1875         1.4500         2.3100       0.374800       127.6000
       4900.00        78.8750         1.4600         2.3200       0.366700       127.3000
       4900.50        77.1875         1.4700         2.3100       0.358100       127.3000
       4901.00        78.5625         1.4700         2.3100       0.358100       126.9000
