~Version Information Block
VERS .                  2.0:  CWLS LOG ASCII STANDARD - VERSION 2.0
WRAP .                   NO:  One line per depth step
~Well Information Block
#MNEM.UNIT        Data Type   Information
#---------- ----------------  -----------
STRT .FT            2988.00:  START DEPTH
STOP .FT            9585.50:  STOP DEPTH
STEP .FT               0.50:  STEP
NULL .              -999.25:  NULL VALUE
COMP .                     :  COMPANY
WELL .              SA-24HZ:  WELL
FLD  .                     :  FIELD
LOC  .                     :  LOCATION
CTRY .                     :  COUNTRY
STAT .                     :  STATE
CNTY .                     :  COUNTY
SRVC .                     :  SERVICE COMPANY
DATE .                     :  DATE
API  .                     :  API NUMBER
UWI  .                     :  UNIQUE WELL ID
~Curve Information Block
#MNEM.UNIT         API CODE   Curve Description
#---------- ----------------  -----------------
DEPTH.FT                   :  DEPTH
GR   .GAPI                 :  Gamma Ray
RT   .OHMM                 :  Deep resistivity
RHOB .G/C3                 :  Bulk density
NPHI .V/V                  :  Neutron porosity
~Parameter Information Block
#MNEM.UNIT            Value   Description
#---------- ----------------  -----------
PROJECT.            SERANG_FE:  
~Other Information Block
# 
~A       DEPTH             GR             RT           RHOB           NPHI 
# ...
       5609.50        75.2100         1.4500         2.3400       0.530000
       5610.00        72.4200         1.4300         2.3300       0.530000
       5610.50        72.9000         1.4200         2.3300       0.510000
       5611.00        70.3300         1.4200         2.3200       0.500000
       5611.50        74.5100         1.4100         2.3200       0.500000
       5612.00        76.1900         1.3900         2.3300       0.510000
       5612.50        77.5900         1.3800         2.3400       0.520000
       5613.00        75.3900         1.3800         2.3400       0.540000
       5613.50        72.2700         1.4100         2.3300       0.550000
       5614.00        71.8100         1.3900         2.3300       0.540000
       5614.50        74.6000         1.3900         2.3200       0.510000
       5615.00        74.2100         1.4100         2.3300       0.460000
       5615.50        70.8500         1.4000         2.3300       0.430000
       5616.00        67.5500         1.3800         2.3300       0.440000
       5616.50        68.1700         1.3700         2.3400       0.460000
       5617.00        69.0500         1.3800         2.3300       0.500000
       5617.50        69.0300         1.4000         2.3200       0.510000
       5618.00        69.3900         1.3900         2.3100       0.520000
       5618.50        69.9800         1.3600         2.3000       0.510000
       5619.00        68.3100         1.3900         2.3000       0.500000
       5619.50        67.5100         1.4300         2.3000       0.500000
       5620.00        67.1400         1.3900         2.3000       0.500000
       5620.50        68.7400         1.4100         2.3000       0.500000
       5621.00        69.4600         1.4100         2.3000       0.510000
       5621.50        67.4800         1.4100         2.3000       0.510000
       5622.00        68.0900         1.4100         2.3000       0.510000
       5622.50        70.0000         1.4100         2.3100       0.500000
       5623.00        71.8000         1.4100         2.3100       0.480000
       5623.50        70.6800         1.4100         2.3000       0.470000
       5624.00        72.0700         1.4100         2.2800       0.470000
       5624.50        75.7100         1.4500         2.2800       0.480000
       5625.00        79.5200         1.4100         2.3000       0.500000
       5625.50        75.9900         1.4000         2.3300       0.510000
       5626.00        72.1800         1.4000         2.3600       0.520000
       5626.50        71.8900         1.4000         2.3900       0.530000
       5627.00        75.5400         1.4000         2.3900       0.520000
       5627.50        79.5700         1.4000         2.3900       0.510000
       5628.00        78.9300         1.3900         2.3900       0.510000
       5628.50        75.5300         1.3800         2.3900       0.510000
       5629.00        72.2300         1.3800         2.3900       0.510000
       5629.50        69.7200         1.3700         2.3800       0.510000
       5630.00        72.7100         1.3700         2.3800       0.510000
       5630.50        72.9300         1.3600         2.3800       0.510000
       5631.00        74.1800         1.3700         2.3800       0.510000
       5631.50        72.4900         1.3800         2.3600       0.500000
       5632.00        70.8000         1.4100         2.3400       0.500000
       5632.50        71.3500         1.4100         2.3100       0.500000
       5633.00        73.3200         1.3800         2.3000       0.510000
       5633.50        75.6400         1.3700         2.3400       0.520000
       5634.00        74.2100         1.3600         2.4000       0.520000
       5634.50        72.9700         1.3600         2.4500       0.500000
       5635.00        73.3200         1.3600         2.4500       0.450000
       5635.50        74.2000         1.3500         2.4200       0.410000
       5636.00        74.3300         1.3500         2.3800       0.400000
       5636.50        75.2000         1.3500         2.3500       0.410000
       5637.00        77.6800         1.3300         2.3400       0.430000
       5637.50        79.1500         1.3300         2.3500       0.450000
       5638.00        78.4200         1.3200         2.3600       0.460000
       5638.50        78.6600         1.3200         2.3700       0.460000
       5639.00        79.1000         1.3200         2.3700       0.450000
       5639.50        77.2700         1.3000         2.3600       0.440000
       5640.00        75.4300         1.2900         2.3400       0.440000
       5640.50        74.1100         1.2600         2.3400       0.440000
       5641.00        78.3400         1.2900         2.3500       0.440000
       5641.50        80.4600         1.3000         2.3500       0.440000
       5642.00        80.6800         1.3200         2.3500       0.460000
       5642.50        77.1500         1.3300         2.3400       0.490000
       5643.00        72.5200         1.3400         2.3500       0.490000
       5643.50        69.3300         1.3400         2.3700       0.470000
       5644.00        68.7800         1.3600         2.4000       0.440000
       5644.50        68.6300         1.3700         2.4100       0.450000
       5645.00        66.1400         1.4600         2.3900       0.470000
       5645.50        63.0500         1.4900         2.3700       0.490000
       5646.00        60.1600         1.5100         2.3500       0.480000
       5646.50        59.2500         1.4900         2.3400       0.440000
       5647.00        56.9700         1.4800         2.3600       0.420000
       5647.50        55.6900         1.4800         2.3700       0.410000
       5648.00        54.5200         1.4800         2.3700       0.430000
       5648.50        56.3500         1.4900         2.3700       0.450000
       5649.00        60.6300         1.4900         2.3800       0.460000
       5649.50        65.6200         1.4600         2.3800       0.460000
       5650.00        67.8000         1.4300         2.3700       0.470000
       5650.50        66.7500         1.4300         2.3600       0.470000
       5651.00        65.2700         1.4200         2.3700       0.470000
       5651.50        66.3000         1.4000         2.3900       0.470000
       5652.00        67.7700         1.3900         2.4100       0.470000
       5652.50        66.6800         1.3700         2.4200       0.460000
       5653.00        64.4200         1.3600         2.4100       0.450000
       5653.50        66.4800         1.3700         2.4000       0.440000
       5654.00        66.7100         1.3700         2.3900       0.430000
       5654.50        66.1200         1.3800         2.3800       0.410000
       5655.00        63.1700         1.4200         2.3800       0.400000
       5655.50        64.4000         1.4300         2.3800       0.420000
       5656.00        66.0900         1.3800         2.3800       0.460000
       5656.50        64.5000         1.4100         2.3700       0.500000
       5657.00        62.6600         1.4200         2.3600       0.480000
       5657.50        65.7400         1.4200         2.3500       0.440000
       5658.00        71.4000         1.4200         2.3400       0.410000
       5658.50        77.2800         1.4700         2.3200       0.400000
       5659.00        74.7100         1.4800         2.3300       0.410000
       5659.50        68.4000         1.4800         2.3700       0.410000
       5660.00        61.4300         1.4900         2.4200       0.410000
       5660.50        62.0200         1.5000         2.4300       0.410000
       5661.00        64.6700         1.5000         2.4200       0.410000
       5661.50        67.8200         1.5100         2.4100       0.410000
       5662.00        69.7900         1.5100         2.4200       0.400000
       5662.50        72.3500         1.4800         2.4300       0.410000
