~Version Information Block
VERS .                  2.0:  CWLS LOG ASCII STANDARD - VERSION 2.0
WRAP .                   NO:  One line per depth step
~Well Information Block
#MNEM.UNIT        Data Type   Information
#---------- ----------------  -----------
STRT .FT            2988.00:  START DEPTH
STOP .FT            9585.50:  STOP DEPTH
STEP .FT               0.50:  STEP
NULL .              -999.25:  NULL VALUE
COMP .                     :  COMPANY
WELL .              SA-24HZ:  WELL
FLD  .                     :  FIELD
LOC  .                     :  LOCATION
CTRY .                     :  COUNTRY
STAT .                     :  STATE
CNTY .                     :  COUNTY
SRVC .                     :  SERVICE COMPANY
DATE .                     :  DATE
API  .                     :  API NUMBER
UWI  .                     :  UNIQUE WELL ID
~Curve Information Block
#MNEM.UNIT         API CODE   Curve Description
#---------- ----------------  -----------------
DEPTH.FT                   :  DEPTH
GR   .GAPI                 :  Gamma Ray
RT   .OHMM                 :  Deep resistivity
RHOB .G/C3                 :  Bulk density
NPHI .V/V                  :  Neutron porosity
~Parameter Information Block
#MNEM.UNIT            Value   Description
#---------- ----------------  -----------
PROJECT.            SERANG_FE:  
~Other Information Block
# 
~A       DEPTH             GR             RT           RHOB           NPHI 
# ...
       6893.50       116.4800         1.7700         2.3000       0.440000
       6894.00       103.3100         1.7800         2.3200       0.440000
       6894.50        95.3900         1.6300         2.3900       0.420000
       6895.00        90.0800         1.6300         2.4600       0.400000
       6895.50        85.7800         1.5100         2.4900       0.400000
       6896.00        82.9100         1.5000         2.4900       0.420000
       6896.50        88.3400         1.3800         2.5000       0.430000
       6897.00        94.3800         1.3100         2.5100       0.420000
       6897.50       101.3500         1.2800         2.5300       0.400000
       6898.00        99.0700         1.3000         2.5200       0.400000
       6898.50        97.6600         1.3300         2.4900       0.400000
       6899.00        94.6500         1.3300         2.4800       0.380000
       6899.50        94.5000         1.2900         2.4700       0.380000
       6900.00        92.4500         1.3100         2.4700       0.370000
       6900.50        92.1600         1.3000         2.4700       0.390000
       6901.00        90.9500         1.3000         2.4700       0.380000
       6901.50        90.2100         1.3000         2.4600       0.370000
       6902.00        87.5700         1.3000         2.4600       0.370000
       6902.50        86.0700         1.2900         2.4600       0.400000
       6903.00        87.6800         1.3300         2.4700       0.430000
       6903.50        88.0400         1.3200         2.4600       0.440000
       6904.00        90.2500         1.2900         2.4500       0.430000
       6904.50        86.9500         1.3600         2.4500       0.420000
       6905.00        89.2200         1.3900         2.4700       0.440000
       6905.50        89.3800         1.4500         2.5100       0.450000
       6906.00        90.9200         1.5900         2.5600       0.450000
       6906.50        97.3000         1.6700         2.5500       0.430000
       6907.00       105.7400         2.0000         2.5100       0.420000
       6907.50       116.7500         2.6400         2.3700       0.430000
       6908.00       120.4200         2.7600         2.2000       0.460000
       6908.50       121.1500         2.9700         2.0500       0.490000
       6909.00       121.5200         3.0100         1.8000       0.510000
       6909.50       118.5800         3.1400         1.7000       0.510000
       6910.00       112.3400         3.7800         1.8500       0.510000
       6910.50       104.2700         3.2300         2.1100       0.540000
       6911.00        96.3500         3.2500         1.9800       0.590000
       6911.50        87.6900         3.0900         1.6800       0.640000
       6912.00        78.5200         3.9900         1.5200       0.600000
       6912.50        74.1900         3.4900         1.4800       0.580000
       6913.00        74.9100         2.7700         1.5200       0.610000
       6913.50        81.1500         2.7200         1.7000       0.610000
       6914.00        87.6400         2.6700         1.8900       0.620000
       6914.50        92.1400         2.6800         1.9700       0.600000
       6915.00        92.5100         2.3000         1.9700       0.610000
       6915.50        89.8300         2.2800         2.0500       0.610000
       6916.00        90.1700         1.9400         2.1200       0.630000
       6916.50        91.7200         1.9200         2.1600       0.600000
       6917.00        86.9500         1.8800         2.2400       0.570000
       6917.50        80.6400         1.9700         2.3600       0.510000
       6918.00        73.1500         1.8700         2.4100       0.490000
       6918.50        68.0200         1.7600         2.4200       0.430000
       6919.00        62.4800         1.6900         2.4500       0.360000
       6919.50        57.7000         1.6900         2.5000       0.300000
       6920.00        53.8100         1.7200         2.5600       0.250000
       6920.50        51.3500         1.7100         2.5800       0.230000
       6921.00        48.1200         1.7700         2.5700       0.220000
       6921.50        51.4300         1.7600         2.5900       0.220000
       6922.00        50.0000         1.8000         2.6100       0.220000
       6922.50        46.9100         1.8900         2.6200       0.210000
       6923.00        42.4100         1.8700         2.6400       0.200000
       6923.50        44.3600         1.8600         2.6600       0.200000
       6924.00        45.9700         1.8300         2.6500       0.200000
       6924.50        46.5400         1.8100         2.6100       0.200000
       6925.00        44.1600         1.7700         2.5800       0.210000
       6925.50        44.0100         1.7600         2.5700       0.210000
       6926.00        42.2900         1.7300         2.5500       0.220000
       6926.50        43.7200         1.7300         2.5100       0.230000
       6927.00        41.8800         1.6600         2.4600       0.230000
       6927.50        41.1500         1.6000         2.3700       0.220000
       6928.00        34.5700         1.6100         2.3200       0.220000
       6928.50        30.4600         1.6000         2.2800       0.220000
       6929.00        26.6800         1.5400         2.2400       0.210000
       6929.50        24.3100         1.5300         2.2100       0.210000
       6930.00        22.9400         1.5100         2.2100       0.210000
       6930.50        21.8100         1.4700         2.2600       0.220000
       6931.00        24.5600         1.3900         2.2800       0.230000
       6931.50        26.2500         1.3700         2.2800       0.230000
       6932.00        26.9800         1.3400         2.3000       0.230000
       6932.50        26.5800         1.2900         2.2900       0.220000
       6933.00        27.2400         1.2500         2.2600       0.210000
       6933.50        28.3100         1.2600         2.2500       0.220000
       6934.00        27.3500         1.2700         2.2800       0.220000
       6934.50        26.7800         1.2700         2.3000       0.220000
       6935.00        26.4300         1.2500         2.2700       0.230000
       6935.50        28.1500         1.2400         2.2300       0.240000
       6936.00        27.1400         1.2800         2.1900       0.240000
       6936.50        26.3600         1.2200         2.1700       0.240000
       6937.00        22.9100         1.1700         2.1800       0.240000
       6937.50        22.7400         1.2300         2.2200       0.230000
       6938.00        22.2300         1.1400         2.2600       0.230000
       6938.50        23.4000         1.1300         2.2700       0.240000
       6939.00        21.7000         1.0900         2.2000       0.260000
       6939.50        19.4600         1.0500         2.1300       0.270000
       6940.00        18.0000         0.9900         2.0900       0.280000
       6940.50        16.5000         0.9700         2.0900       0.300000
       6941.00        15.5000         0.9400         2.1000       0.310000
       6941.50        13.1300         0.9200         2.1000       0.310000
       6942.00        11.9500         0.9200         2.0900       0.310000
       6942.50        11.8900         0.9200         2.0800       0.300000
       6943.00        12.1500         0.8900         2.0700       0.290000
       6943.50        11.2400         0.9000         2.0700       0.280000
       6944.00         9.9900         0.9000         2.0900       0.290000
       6944.50         9.9200         0.8900         2.1200       0.310000
       6945.00        10.4800         0.8800         2.1300       0.310000
       6945.50        10.6300         0.8700         2.1200       0.300000
       6946.00         9.3700         0.8600         2.1200       0.290000
       6946.50         8.0500         0.8500         2.1300       0.290000
