~Version Information Block
VERS .                  2.0:  CWLS LOG ASCII STANDARD - VERSION 2.0
WRAP .                   NO:  One line per depth step
~Well Information Block
#MNEM.UNIT        Data Type   Information
#---------- ----------------  -----------
STRT .FT            2071.50:  START DEPTH
STOP .FT           10484.50:  STOP DEPTH
STEP .FT               0.50:  STEP
NULL .              -999.25:  NULL VALUE
COMP .                     :  COMPANY
WELL .          SA-25RD1BP1:  WELL
FLD  .                     :  FIELD
LOC  .                     :  LOCATION
CTRY .                     :  COUNTRY
STAT .                     :  STATE
CNTY .                     :  COUNTY
SRVC .                     :  SERVICE COMPANY
DATE .                     :  DATE
API  .                     :  API NUMBER
UWI  .                     :  UNIQUE WELL ID
~Curve Information Block
#MNEM.UNIT         API CODE   Curve Description
#---------- ----------------  -----------------
DEPTH.FT                   :  Bit Depth 2hz
GR   .GAPI                 :  Merged WIRE.GR_1 and WIRE_6125.GR_1 at 8490.50
RT   .OHMM                 :  Merged WIRE.RT_1 and WIRE_6125.RT_1 at 8497.50
RHOB .G/C3                 :  Merged WIRE.RHOB_1 and WIRE_6125.RHOB_1 at 8490.00
NPHI .V/V                  :  Merged WIRE.NPHI_1 and WIRE_6125.NPHI_1 at 8490.50
~Parameter Information Block
#MNEM.UNIT            Value   Description
#---------- ----------------  -----------
PROJECT.            SERANG_FE:  
~Other Information Block
# 
~A       DEPTH             GR             RT           RHOB           NPHI 
# ...
      10417.50        22.8620         4.9355         2.4345       0.174800
      10418.00        23.5445         6.2528         2.3740       0.176690
      10418.50        24.9094         6.8805         2.3650       0.178830
      10419.00        26.6155         9.5467         2.3845       0.180930
      10419.50        27.2980         8.0138         2.5390       0.183700
      10420.00        27.6392         8.0138         2.5437       0.186680
      10420.50        27.6392         8.0499         2.5133       0.187350
      10421.00        26.6155         8.4174         2.4522       0.184510
      10421.50        25.2506         8.7014         2.3890       0.178740
      10422.00        23.8857         7.0379         2.2960       0.175920
      10422.50        23.5445         7.3571         2.2477       0.177900
      10423.00        23.8857         7.3571         2.2051       0.181770
      10423.50        24.0563         6.2965         2.2513       0.185720
      10424.00        24.9094         7.0343         2.3009       0.187010
      10424.50        25.0800         7.3844         2.4028       0.186020
      10425.00        23.0327         7.6467         2.4394       0.183580
      10425.50        19.6204         7.9825         2.4871       0.183610
      10426.00        17.4024         6.2497         2.5276       0.183170
      10426.50        18.8242         9.1861         2.3416       0.180150
      10427.00        22.2365        10.4132         2.3530       0.172660
      10427.50        25.0231         9.8994         2.2513       0.165270
      10428.00        27.0705         8.9007         2.4370       0.159230
      10428.50        28.8335        10.3933         2.4275       0.156920
      10429.00        30.3690         5.8141         2.4988       0.159570
      10429.50        31.2220         5.6976         2.5388       0.164380
      10430.00        31.5064         5.6290         2.5848       0.167790
      10430.50        32.3026         5.9261         2.4856       0.167410
      10431.00        34.2362         5.4826         2.4773       0.167660
      10431.50        36.5110         3.5768         2.4504       0.170133
      10432.00        38.5584         2.9177         2.5409       0.176575
      10432.50        40.9469         3.0788         2.4965       0.182171
      10433.00        43.6767         3.7617         2.4753       0.187650
      10433.50        46.4065         4.1983         2.4022       0.190140
      10434.00        48.7951         4.3087         2.4113    -999.250000
      10434.50        50.5012         4.2408         2.4436    -999.250000
      10435.00        52.5486         4.0423         2.4870    -999.250000
      10435.50        54.5959         3.9349         2.4873    -999.250000
      10436.00        56.9845         3.7674         2.4860    -999.250000
      10436.50        58.6906         3.5658         2.4841    -999.250000
      10437.00        60.0555         3.5171      -999.2500    -999.250000
      10437.50        60.7380         3.4583      -999.2500    -999.250000
      10438.00        61.4204         3.5821      -999.2500    -999.250000
      10438.50        60.0555         3.8123      -999.2500    -999.250000
      10439.00        60.0555         4.1195      -999.2500    -999.250000
      10439.50        60.0555         4.0818      -999.2500    -999.250000
      10440.00        56.9845         3.9181      -999.2500    -999.250000
      10440.50        55.9608         3.9181      -999.2500    -999.250000
      10441.00        56.6433         3.8683      -999.2500    -999.250000
      10441.50        59.0318         3.8181      -999.2500    -999.250000
      10442.00        63.8090         3.5545      -999.2500    -999.250000
      10442.50        70.9747         3.5545      -999.2500    -999.250000
      10443.00        73.0220         3.2958      -999.2500    -999.250000
      10443.50        75.0694         2.9432      -999.2500    -999.250000
      10444.00        79.8465         2.6623      -999.2500    -999.250000
      10444.50        84.2824         2.5728      -999.2500    -999.250000
      10445.00        85.9886         2.5728      -999.2500    -999.250000
      10445.50        85.6473         2.4529      -999.2500    -999.250000
      10446.00        85.6473         2.3486      -999.2500    -999.250000
      10446.50        86.3298         2.3486      -999.2500    -999.250000
      10447.00        86.3298         2.3104      -999.2500    -999.250000
      10447.50        85.6473         2.2899      -999.2500    -999.250000
      10448.00        83.2588         2.2525      -999.2500    -999.250000
      10448.50        77.7992         2.2492      -999.2500    -999.250000
      10449.00        73.7045         2.2818      -999.2500    -999.250000
      10449.50        69.6098         2.6016      -999.2500    -999.250000
      10450.00        62.1028         2.8112      -999.2500    -999.250000
      10450.50        55.9608         2.8112      -999.2500    -999.250000
      10451.00        55.2784         2.8740      -999.2500    -999.250000
      10451.50        54.5959         2.9757      -999.2500    -999.250000
      10452.00        57.3257         3.4878      -999.2500    -999.250000
      10452.50        60.7380         3.4828      -999.2500    -999.250000
      10453.00        65.5151         3.2694      -999.2500    -999.250000
      10453.50        65.1739         3.3782      -999.2500    -999.250000
      10454.00        64.8326         3.3366      -999.2500    -999.250000
      10454.50        58.5200         3.3866      -999.2500    -999.250000
      10455.00        53.9135         3.1792      -999.2500    -999.250000
      10455.50        50.1600         2.8234      -999.2500    -999.250000
      10456.00        48.7951         2.8234      -999.2500    -999.250000
      10456.50        50.5012         2.9053      -999.2500    -999.250000
      10457.00        52.2073         3.0507      -999.2500    -999.250000
      10457.50        50.8424         3.6463      -999.2500    -999.250000
      10458.00        46.7477         2.6074      -999.2500    -999.250000
      10458.50        41.9706         2.6074      -999.2500    -999.250000
      10459.00        37.8759         2.3062      -999.2500    -999.250000
      10459.50        35.4873         2.1355      -999.2500    -999.250000
      10460.00        34.8049         2.7833      -999.2500    -999.250000
      10460.50        35.8286         2.9093      -999.2500    -999.250000
      10461.00        38.2171         2.9890      -999.2500    -999.250000
      10461.50        41.1744         2.6082      -999.2500    -999.250000
      10462.00        44.8141         2.3635      -999.2500    -999.250000
      10462.50        49.3638         2.4097      -999.2500    -999.250000
      10463.00        54.5959         2.4439      -999.2500    -999.250000
      10463.50        55.9608         2.9262      -999.2500    -999.250000
      10464.00        57.3257         3.1866      -999.2500    -999.250000
      10464.50        56.6433         3.2820      -999.2500    -999.250000
      10465.00        51.8661         3.0385      -999.2500    -999.250000
      10465.50        45.0416         2.8576      -999.2500    -999.250000
      10466.00        41.6294         2.7396      -999.2500    -999.250000
      10466.50        38.2171         2.4061      -999.2500    -999.250000
      10467.00        31.8476         1.6870      -999.2500    -999.250000
      10467.50        29.9140         1.9397      -999.2500    -999.250000
      10468.00        30.0278         2.1581      -999.2500    -999.250000
      10468.50        30.0278         2.2873      -999.2500    -999.250000
      10469.00        30.0278         2.3789      -999.2500    -999.250000
      10469.50        33.1475         2.5318      -999.2500    -999.250000
      10470.00        33.9275         2.5623      -999.2500    -999.250000
      10470.50        34.7074         2.5623      -999.2500    -999.250000
