~Version Information Block
VERS .                  2.0:  CWLS LOG ASCII STANDARD - VERSION 2.0
WRAP .                   NO:  One line per depth step
~Well Information Block
#MNEM.UNIT        Data Type   Information
#---------- ----------------  -----------
STRT .FT            3121.50:  START DEPTH
STOP .FT            8357.50:  STOP DEPTH
STEP .FT               0.50:  STEP
NULL .              -999.25:  NULL VALUE
COMP .                     :  COMPANY
WELL .                SA-21:  WELL
FLD  .                     :  FIELD
LOC  .                     :  LOCATION
CTRY .                     :  COUNTRY
STAT .                     :  STATE
CNTY .                     :  COUNTY
SRVC .                     :  SERVICE COMPANY
DATE .                     :  DATE
API  .                     :  API NUMBER
UWI  .                     :  UNIQUE WELL ID
~Curve Information Block
#MNEM.UNIT         API CODE   Curve Description
#---------- ----------------  -----------------
DEPTH.FT                   :  DEPTH
GR   .GAPI                 :  Gamma Ray
RT   .OHMM                 :  Deep resistivity
RHOB .G/C3                 :  Bulk density
NPHI .V/V                  :  Neutron porosity
DT   .US/F                 :  Sonic
~Parameter Information Block
#MNEM.UNIT            Value   Description
#---------- ----------------  -----------
PROJECT.            SERANG_FE:  
~Other Information Block
# 
~A       DEPTH             GR             RT           RHOB           NPHI             DT 
# ...
       6948.50        87.0000         1.4100         2.3500       0.325300        99.9000
       6949.00        92.9375         1.4000         2.3700       0.317600        98.5000
       6949.50        97.5000         1.4000         2.4000       0.293400       100.3000
       6950.00       103.0000         1.4000         2.4100       0.294500        98.7000
       6950.50       101.8125         1.4000         2.4100       0.310700        99.5000
       6951.00       101.7500         1.4100         2.4100       0.343100        99.8000
       6951.50       100.3125         1.4300         2.4100       0.345000       100.4000
       6952.00       102.4375         1.4300         2.4300       0.336800        99.7000
       6952.50       101.3750         1.4300         2.4400       0.324900       100.0000
       6953.00        98.0000         1.4300         2.4500       0.322900       101.5000
       6953.50        97.1250         1.4300         2.4600       0.324800       101.0000
       6954.00       100.2500         1.4400         2.4500       0.338700       101.7000
       6954.50       102.3750         1.4500         2.4400       0.336800       102.2000
       6955.00       104.8125         1.4500         2.4300       0.341400       101.7000
       6955.50       105.9375         1.4600         2.4300       0.337700       101.4000
       6956.00       106.9375         1.4600         2.4400       0.341600       102.3000
       6956.50       103.4375         1.4700         2.4400       0.343500       103.4000
       6957.00        98.8125         1.4900         2.4100       0.332300       104.2000
       6957.50       100.3125         1.5100         2.4000       0.346700       104.8000
       6958.00        99.8750         1.5300         2.4200       0.325000       103.9000
       6958.50        95.3750         1.5600         2.4300       0.312700       100.4000
       6959.00        90.8125         1.5800         2.4300       0.287400        98.1000
       6959.50        87.3125         1.6100         2.4400       0.292500        96.2000
       6960.00        87.1875         1.6500         2.4500       0.299800        96.7000
       6960.50        85.8750         1.7000         2.4600       0.309700        97.3000
       6961.00        88.0000         1.7400         2.4700       0.320700        94.7000
       6961.50        87.8750         1.7900         2.4900       0.317500        88.1000
       6962.00        79.5625         1.8500         2.5200       0.270800        78.9000
       6962.50        67.5000         1.9100         2.5900       0.216200        73.3000
       6963.00        59.1562         1.9300         2.6400       0.179600        70.1000
       6963.50        61.0938         1.9300         2.6400       0.187300        69.9000
       6964.00        73.5000         1.9400         2.6100       0.211400        78.3000
       6964.50        83.4375         1.9900         2.5500       0.240100        84.3000
       6965.00        87.3750         2.0000         2.5000       0.269000        89.5000
       6965.50        86.3125         1.9800         2.4800       0.302000        94.7000
       6966.00        87.2500         1.9200         2.4700       0.318600        94.4000
       6966.50        88.0625         1.8800         2.4600       0.305300        94.8000
       6967.00        89.1250         1.8500         2.4500       0.298200        95.9000
       6967.50        89.5000         1.8400         2.4600       0.280800        99.4000
       6968.00        92.0000         1.8300         2.4500       0.305500        98.2000
       6968.50        92.9375         1.8200         2.4500       0.320000        98.5000
       6969.00        94.7500         1.8100         2.4500       0.346500        99.9000
       6969.50        93.6250         1.7900         2.4500       0.346400       101.5000
       6970.00        93.7500         1.7700         2.4400       0.335000       102.1000
       6970.50        89.8750         1.7600         2.4600       0.320300        98.8000
       6971.00        86.6250         1.7500         2.4800       0.301200        98.6000
       6971.50        79.9375         1.7300         2.4900       0.289900        96.1000
       6972.00        82.0000         1.7300         2.4800       0.307300        95.7000
       6972.50        82.8125         1.7200         2.4600       0.331900        99.3000
       6973.00        89.1250         1.7400         2.4500       0.352400        99.1000
       6973.50        88.4375         1.7400         2.4600       0.355600       100.2000
       6974.00        93.8750         1.7200         2.4700       0.347200        99.8000
       6974.50        91.6250         1.7200         2.4800       0.333600       100.3000
       6975.00        90.6250         1.7100         2.4900       0.318400        98.8000
       6975.50        88.4375         1.7000         2.4900       0.311800        97.6000
       6976.00        88.5625         1.7000         2.5000       0.321200        97.7000
       6976.50        87.6250         1.7000         2.5000       0.312900        97.5000
       6977.00        87.4375         1.6800         2.5000       0.333900        97.4000
       6977.50        87.2500         1.6700         2.5000       0.348400        98.2000
       6978.00        89.1250         1.6500         2.5200       0.370400        99.1000
       6978.50        91.8750         1.6200         2.5200       0.343000        99.3000
       6979.00        93.4375         1.6200         2.5200       0.329700        99.7000
       6979.50        95.1250         1.6200         2.5100       0.317100        98.4000
       6980.00        96.5625         1.6200         2.5400       0.325300        98.6000
       6980.50        97.3125         1.6500         2.5400       0.314900        96.6000
       6981.00        99.5625         1.6800         2.5400       0.291400        94.8000
       6981.50        96.3125         1.7300         2.5300       0.268900        92.7000
       6982.00       101.7500         1.7900         2.5300       0.255000        91.9000
       6982.50       103.0625         1.9100         2.5300       0.275600        92.5000
       6983.00       110.6875         2.1200         2.5400       0.322600        93.0000
       6983.50       106.3750         2.4200         2.5500       0.341100        93.8000
       6984.00        92.4375         2.6800         2.5700       0.299300        86.1000
       6984.50        71.8125         2.9500         2.6100       0.218700        78.2000
       6985.00        50.0000         3.3200         2.5900       0.165300        70.1000
       6985.50        38.8750         3.8800         2.5200       0.158900        70.3000
       6986.00        33.9375         4.6800         2.4900       0.156400        71.2000
       6986.50        39.5938         5.5400         2.5000       0.147200        71.4000
       6987.00        45.2500         6.1600         2.4800       0.142100        73.3000
       6987.50        58.0312         6.2300         2.4400       0.161500        78.2000
       6988.00        72.3750         6.0900         2.4200       0.191500        80.8000
       6988.50        88.5000         5.8300         2.4400       0.203800        79.3000
       6989.00        98.6250         5.5500         2.4600       0.206700        78.3000
       6989.50       109.9375         5.3800         2.4900       0.201800        75.7000
       6990.00       115.3125         5.2500         2.5000       0.194900        78.3000
       6990.50       113.5000         5.3400         2.4800       0.192600        78.4000
       6991.00       101.3750         5.7700         2.4400       0.181900        72.9000
       6991.50        93.6875         6.0900         2.4200       0.182400        75.6000
       6992.00        99.5625         6.1800         2.4100       0.177300        82.5000
       6992.50       122.3125         6.2300         2.4000       0.195000        85.3000
