~Version Information Block
VERS .                  2.0:  CWLS LOG ASCII STANDARD - VERSION 2.0
WRAP .                   NO:  One line per depth step
~Well Information Block
#MNEM.UNIT        Data Type   Information
#---------- ----------------  -----------
STRT .FT            2071.50:  START DEPTH
STOP .FT           10484.50:  STOP DEPTH
STEP .FT               0.50:  STEP
NULL .              -999.25:  NULL VALUE
COMP .                     :  COMPANY
WELL .          SA-25RD1BP1:  WELL
FLD  .                     :  FIELD
LOC  .                     :  LOCATION
CTRY .                     :  COUNTRY
STAT .                     :  STATE
CNTY .                     :  COUNTY
SRVC .                     :  SERVICE COMPANY
DATE .                     :  DATE
API  .                     :  API NUMBER
UWI  .                     :  UNIQUE WELL ID
~Curve Information Block
#MNEM.UNIT         API CODE   Curve Description
#---------- ----------------  -----------------
DEPTH.FT                   :  Bit Depth 2hz
GR   .GAPI                 :  Merged WIRE.GR_1 and WIRE_6125.GR_1 at 8490.50
RT   .OHMM                 :  Merged WIRE.RT_1 and WIRE_6125.RT_1 at 8497.50
RHOB .G/C3                 :  Merged WIRE.RHOB_1 and WIRE_6125.RHOB_1 at 8490.00
NPHI .V/V                  :  Merged WIRE.NPHI_1 and WIRE_6125.NPHI_1 at 8490.50
~Parameter Information Block
#MNEM.UNIT            Value   Description
#---------- ----------------  -----------
PROJECT.            SERANG_FE:  
~Other Information Block
# 
~A       DEPTH             GR             RT           RHOB           NPHI 
# ...
       8170.50        21.5615         1.8254         2.1665       0.272140
       8171.00        27.9690         1.8890         2.1668       0.273880
       8171.50        35.9039         1.7895         2.1890       0.274100
       8172.00        36.8717         1.5488         2.2052       0.270950
       8172.50        33.4674         1.5809         2.2031       0.265990
       8173.00        26.6528         1.9140         2.1880       0.260230
       8173.50        25.2787         1.7502         2.1944       0.258910
       8174.00        31.4307         1.6169         2.2348       0.253870
       8174.50        44.3488         1.8427         2.3018       0.252530
       8175.00        58.9629         2.3697         2.3777       0.248350
       8175.50        70.3287         2.7046         2.4691       0.245600
       8176.00        76.3312         2.7030         2.5368       0.246040
       8176.50        78.7058         2.6421         2.5558       0.244290
       8177.00        79.1289         2.7421         2.5525       0.245180
       8177.50        78.4646         2.7377         2.5489       0.249250
       8178.00        81.0095         2.6829         2.5605       0.249310
       8178.50        82.6462         2.6263         2.5620       0.246170
       8179.00        84.3019         2.6045         2.5694       0.243460
       8179.50        81.3495         2.7695         2.5700       0.236570
       8180.00        77.0806         2.9226         2.5753       0.233870
       8180.50        75.1705         2.9967         2.5795       0.228360
       8181.00        72.6279         3.0645         2.5731       0.221400
       8181.50        71.9174         3.1439         2.5655       0.217690
       8182.00        68.2596         3.2126         2.5434       0.218920
       8182.50        65.8935         3.2733         2.5333       0.219170
       8183.00        64.2755         3.2832         2.5235       0.221190
       8183.50        67.0710         3.2853         2.5172       0.223660
       8184.00        69.3352         3.2700         2.5127       0.226550
       8184.50        71.8528         3.1811         2.5161       0.231090
       8185.00        75.0571         3.0822         2.5157       0.235110
       8185.50        80.0383         3.0012         2.5195       0.239050
       8186.00        82.5975         2.9340         2.5226       0.241920
       8186.50        82.6997         2.9119         2.5370       0.242350
       8187.00        80.0347         3.0595         2.5443       0.238740
       8187.50        78.5088         3.0738         2.5414       0.233460
       8188.00        73.8818         3.1312         2.5360       0.228090
       8188.50        72.0462         3.3599         2.5279       0.221620
       8189.00        68.7654         3.5611         2.5237       0.214970
       8189.50        64.5912         3.7229         2.5136       0.209580
       8190.00        61.5044         3.8887         2.4970       0.203760
       8190.50        58.8848         4.0170         2.4786       0.201280
       8191.00        59.7883         4.1718         2.4589       0.199700
       8191.50        56.5469         4.3195         2.4402       0.202040
       8192.00        54.5874         4.4156         2.4270       0.205530
       8192.50        55.0832         4.4511         2.4277       0.210700
       8193.00        60.4241         4.3028         2.4435       0.216380
       8193.50        66.1429         3.7292         2.4547       0.224050
       8194.00        68.8161         3.7294         2.4593       0.231750
       8194.50        71.5996         3.9005         2.4487       0.239060
       8195.00        72.7741         3.7721         2.4495       0.244810
       8195.50        77.5369         3.4974         2.4569       0.245370
       8196.00        80.5521         3.3386         2.4680       0.246160
       8196.50        84.0063         3.2615         2.4731       0.242390
       8197.00        80.8839         3.3349         2.4798       0.240900
       8197.50        75.7445         3.4201         2.4810       0.237880
       8198.00        68.6407         3.5656         2.4814       0.234780
       8198.50        63.2236         3.6843         2.4778       0.227810
       8199.00        61.7505         3.7670         2.4768       0.222940
       8199.50        63.5053         3.8256         2.4826       0.217150
       8200.00        67.4834         3.8627         2.4737       0.214050
       8200.50        68.3338         3.8261         2.4762       0.215560
       8201.00        68.3955         3.8062         2.4760       0.217500
       8201.50        67.9357         3.8266         2.4762       0.222730
       8202.00        68.5054         3.7769         2.4729       0.226510
       8202.50        69.5246         3.6779         2.4669       0.229540
       8203.00        73.2376         3.6511         2.4693       0.234190
       8203.50        74.8673         3.4194         2.4807       0.239620
       8204.00        78.4278         3.3682         2.4861       0.238640
       8204.50        77.6692         3.4298         2.4971       0.237050
       8205.00        79.7059         3.4717         2.5001       0.235470
       8205.50        78.6330         3.4253         2.5116       0.232110
       8206.00        75.9862         3.2626         2.5221       0.227030
       8206.50        73.6591         3.2327         2.5285       0.221580
       8207.00        69.7432         3.3271         2.5359       0.214240
       8207.50        68.5711         3.3987         2.5256       0.212160
       8208.00        65.8081         3.4188         2.5211       0.206060
       8208.50        66.4694         3.4490         2.5044       0.200400
       8209.00        66.5213         3.4489         2.5136       0.196700
       8209.50        66.1689         3.4351         2.5138       0.198820
       8210.00        67.6988         3.4374         2.5117       0.198220
       8210.50        69.0242         3.4127         2.5114       0.198690
       8211.00        70.9525         3.3643         2.5218       0.204940
       8211.50        73.1861         3.3284         2.5414       0.208550
       8212.00        74.7605         3.3037         2.5480       0.214910
       8212.50        76.3904         3.2576         2.5408       0.218670
       8213.00        74.9682         3.1911         2.5413       0.223670
       8213.50        77.5626         3.0994         2.5438       0.227410
       8214.00        81.8885         2.9002         2.5579       0.230130
       8214.50        88.4526         2.9301         2.5682       0.229710
       8215.00        91.9136         2.8391         2.5752       0.232680
       8215.50        88.2513         2.7853         2.5783       0.231460
       8216.00        80.7698         2.9312         2.5765       0.225320
       8216.50        71.8666         3.1639         2.5714       0.221670
       8217.00        67.1834         3.3280         2.5550       0.214640
       8217.50        61.4399         3.3969         2.5316       0.207160
       8218.00        62.0013         3.4563         2.5157       0.200630
       8218.50        62.0557         3.5172         2.5164       0.199070
       8219.00        65.9723         3.6062         2.5148       0.199120
       8219.50        65.0567         3.6706         2.5151       0.196770
       8220.00        66.9725         3.6864         2.5143       0.197070
       8220.50        68.2908         3.6892         2.5264       0.198770
       8221.00        69.4530         3.6473         2.5312       0.204700
       8221.50        71.4473         3.5953         2.5329       0.211490
       8222.00        73.0284         3.5262         2.5303       0.221240
       8222.50        76.5920         3.4078         2.5346       0.230280
       8223.00        78.7857         3.2099         2.5374       0.240510
       8223.50        82.6463         3.0635         2.5449       0.244940
