~Version Information Block
VERS .                  2.0:  CWLS LOG ASCII STANDARD - VERSION 2.0
WRAP .                   NO:  One line per depth step
~Well Information Block
#MNEM.UNIT        Data Type   Information
#---------- ----------------  -----------
STRT .FT            2988.00:  START DEPTH
STOP .FT            9585.50:  STOP DEPTH
STEP .FT               0.50:  STEP
NULL .              -999.25:  NULL VALUE
COMP .                     :  COMPANY
WELL .              SA-24HZ:  WELL
FLD  .                     :  FIELD
LOC  .                     :  LOCATION
CTRY .                     :  COUNTRY
STAT .                     :  STATE
CNTY .                     :  COUNTY
SRVC .                     :  SERVICE COMPANY
DATE .                     :  DATE
API  .                     :  API NUMBER
UWI  .                     :  UNIQUE WELL ID
~Curve Information Block
#MNEM.UNIT         API CODE   Curve Description
#---------- ----------------  -----------------
DEPTH.FT                   :  DEPTH
GR   .GAPI                 :  Gamma Ray
RT   .OHMM                 :  Deep resistivity
RHOB .G/C3                 :  Bulk density
NPHI .V/V                  :  Neutron porosity
~Parameter Information Block
#MNEM.UNIT            Value   Description
#---------- ----------------  -----------
PROJECT.            SERANG_FE:  
~Other Information Block
# 
~A       DEPTH             GR             RT           RHOB           NPHI 
# ...
       4272.00        55.2400         1.9800         2.4100       0.370000
       4272.50        53.1000         1.9800         2.4100       0.370000
       4273.00        54.9200         1.8900         2.4200       0.380000
       4273.50        59.3800         1.8700         2.4200       0.380000
       4274.00        63.7400         1.8700         2.4300       0.380000
       4274.50        68.2600         1.8400         2.4200       0.380000
       4275.00        71.0600         1.8400         2.4200       0.370000
       4275.50        72.3700         1.9200         2.4100       0.380000
       4276.00        73.1800         1.9100         2.4100       0.380000
       4276.50        73.4100         1.9000         2.4100       0.390000
       4277.00        78.1800         1.9100         2.4100       0.400000
       4277.50        85.7000         1.9100         2.4200       0.400000
       4278.00        92.1900         1.8500         2.4100       0.410000
       4278.50        93.1500         1.8300         2.3900       0.420000
       4279.00        90.9500         1.8100         2.3600       0.440000
       4279.50        84.9800         1.7900         2.3400       0.450000
       4280.00        78.4400         1.7800         2.3200       0.450000
       4280.50        75.2200         1.7800         2.3200       0.440000
       4281.00        77.4200         1.8000         2.3400       0.430000
       4281.50        79.2900         1.8100         2.3500       0.430000
       4282.00        77.8200         1.7900         2.3500       0.420000
       4282.50        74.0000         1.7800         2.3500       0.410000
       4283.00        71.2400         1.7700         2.3500       0.390000
       4283.50        68.3500         1.7700         2.3600       0.360000
       4284.00        66.7800         1.7900         2.3600       0.350000
       4284.50        65.9000         1.7900         2.3600       0.350000
       4285.00        68.4400         1.8600         2.3500       0.360000
       4285.50        71.8500         1.9000         2.3500       0.380000
       4286.00        72.7100         1.8500         2.3400       0.400000
       4286.50        70.1200         1.8000         2.3300       0.420000
       4287.00        66.9700         1.8000         2.3300       0.410000
       4287.50        66.4100         1.7800         2.3400       0.400000
       4288.00        65.6700         1.7700         2.3400       0.380000
       4288.50        63.6200         1.7700         2.3500       0.370000
       4289.00        61.2700         1.7800         2.3600       0.360000
       4289.50        58.7600         1.7500         2.3600       0.360000
       4290.00        57.5700         1.7200         2.3700       0.360000
       4290.50        60.1300         1.7200         2.3700       0.360000
       4291.00        66.2400         1.7600         2.3700       0.360000
       4291.50        70.1400         1.7800         2.3700       0.370000
       4292.00        69.7700         1.7700         2.3600       0.400000
       4292.50        65.1900         1.7700         2.3600       0.430000
       4293.00        62.7700         1.9300         2.3500       0.440000
       4293.50        64.6000         1.9600         2.3400       0.450000
       4294.00        64.4200         1.9700         2.3300       0.460000
       4294.50        66.3900         1.9800         2.3300       0.440000
       4295.00        62.9400         2.0900         2.3300       0.420000
       4295.50        62.0600         2.1800         2.3400       0.400000
       4296.00        58.7500         2.1900         2.3300       0.380000
       4296.50        57.2800         2.0800         2.2900       0.350000
       4297.00        52.7100         2.0600         2.2600       0.310000
       4297.50        48.4700         2.0900         2.2400       0.280000
       4298.00        45.8300         2.1000         2.2200       0.250000
       4298.50        46.0500         1.9800         2.1800       0.220000
       4299.00        45.7600         1.9700         2.1500       0.220000
       4299.50        44.3700         2.0500         2.1300       0.210000
       4300.00        44.3400         2.0500         2.1100       0.220000
       4300.50        45.0000         2.0400         2.0800       0.220000
       4301.00        43.3800         2.0800         2.0600       0.210000
       4301.50        40.4200         2.0900         2.0800       0.210000
       4302.00        41.3500         2.0500         2.1100       0.220000
       4302.50        45.8300         2.1100         2.1500       0.230000
       4303.00        51.7900         2.1600         2.1800       0.260000
       4303.50        53.8600         2.1800         2.2100       0.280000
       4304.00        56.1000         2.1300         2.2300       0.310000
       4304.50        58.5800         2.1300         2.2600       0.340000
       4305.00        61.7000         2.0400         2.2900       0.360000
       4305.50        63.1300         1.9400         2.3100       0.380000
       4306.00        62.2700         1.8600         2.3200       0.400000
       4306.50        60.6100         1.8600         2.3200       0.420000
       4307.00        61.5700         1.8600         2.3300       0.430000
       4307.50        64.1700         1.7400         2.3300       0.430000
       4308.00        66.7400         1.7000         2.3300       0.420000
       4308.50        65.4200         1.8300         2.3400       0.410000
       4309.00        63.8300         1.8300         2.3400       0.410000
       4309.50        65.1900         1.8400         2.3100       0.420000
       4310.00        68.1300         1.8600         2.2900       0.450000
       4310.50        70.6900         1.8700         2.2700       0.510000
       4311.00        68.3700         1.8500         2.2500       0.550000
       4311.50        63.9700         1.7600         2.2300       0.560000
       4312.00        59.7900         1.7000         2.2200       0.550000
       4312.50        57.4400         1.6700         2.2000       0.510000
       4313.00        55.8900         1.6500         2.1800       0.500000
       4313.50        54.7900         1.6200         2.1600       0.460000
       4314.00        52.2000         1.6100         2.1700       0.430000
       4314.50        50.4400         1.5800         2.1900       0.390000
       4315.00        50.5900         1.5700         2.2100       0.380000
       4315.50        53.3900         1.6300         2.2400       0.370000
       4316.00        54.9300         1.6500         2.2600       0.360000
       4316.50        55.2800         1.6500         2.2600       0.360000
       4317.00        54.8600         1.6500         2.2500       0.350000
       4317.50        59.1900         1.7200         2.2300       0.360000
       4318.00        62.3300         1.7200         2.2100       0.360000
       4318.50        65.1200         1.7400         2.2200       0.370000
       4319.00        61.6200         1.7900         2.2500       0.380000
       4319.50        58.1300         1.8100         2.2800       0.380000
       4320.00        58.2800         1.8100         2.3100       0.380000
       4320.50        60.6700         1.8000         2.3200       0.380000
       4321.00        63.0900         1.8500         2.3300       0.380000
       4321.50        62.1000         1.8500         2.3300       0.390000
       4322.00        61.8200         1.8200         2.3300       0.410000
       4322.50        61.8800         1.8300         2.3200       0.410000
       4323.00        61.7600         1.8300         2.3200       0.390000
       4323.50        60.7600         1.8100         2.3200       0.370000
       4324.00        59.3900         1.8000         2.3300       0.340000
       4324.50        57.7100         1.7500         2.3400       0.330000
       4325.00        57.3900         1.7500         2.3500       0.340000
