~Version Information Block
VERS .                  2.0:  CWLS LOG ASCII STANDARD - VERSION 2.0
WRAP .                   NO:  One line per depth step
~Well Information Block
#MNEM.UNIT        Data Type   Information
#---------- ----------------  -----------
STRT .FT            2071.50:  START DEPTH
STOP .FT           10484.50:  STOP DEPTH
STEP .FT               0.50:  STEP
NULL .              -999.25:  NULL VALUE
COMP .                     :  COMPANY
WELL .          SA-25RD1BP1:  WELL
FLD  .                     :  FIELD
LOC  .                     :  LOCATION
CTRY .                     :  COUNTRY
STAT .                     :  STATE
CNTY .                     :  COUNTY
SRVC .                     :  SERVICE COMPANY
DATE .                     :  DATE
API  .                     :  API NUMBER
UWI  .                     :  UNIQUE WELL ID
~Curve Information Block
#MNEM.UNIT         API CODE   Curve Description
#---------- ----------------  -----------------
DEPTH.FT                   :  Bit Depth 2hz
GR   .GAPI                 :  Merged WIRE.GR_1 and WIRE_6125.GR_1 at 8490.50
RT   .OHMM                 :  Merged WIRE.RT_1 and WIRE_6125.RT_1 at 8497.50
RHOB .G/C3                 :  Merged WIRE.RHOB_1 and WIRE_6125.RHOB_1 at 8490.00
NPHI .V/V                  :  Merged WIRE.NPHI_1 and WIRE_6125.NPHI_1 at 8490.50
~Parameter Information Block
#MNEM.UNIT            Value   Description
#---------- ----------------  -----------
PROJECT.            SERANG_FE:  
~Other Information Block
# 
~A       DEPTH             GR             RT           RHOB           NPHI 
# ...
       7100.50        39.9704         2.6603         2.1364       0.151890
       7101.00        39.7670         2.6709         2.1320       0.152699
       7101.50        38.5742         2.6641         2.1211       0.153602
       7102.00        37.4321         2.6508         2.1195       0.154965
       7102.50        35.6529         2.6411         2.1169       0.156776
       7103.00        36.6967         2.5721         2.1143       0.158582
       7103.50        38.5797         2.5026         2.1073       0.160418
       7104.00        39.1154         2.4847         2.1004       0.162789
       7104.50        38.0197         2.4826         2.0964       0.165385
       7105.00        35.6784         2.4294         2.0964       0.168169
       7105.50        35.7527         2.3521         2.1014       0.170770
       7106.00        37.2279         2.2862         2.1183       0.173119
       7106.50        39.2131         2.2105         2.1305       0.175377
       7107.00        39.2142         2.1803         2.1424       0.177189
       7107.50        39.6726         2.1001         2.1471       0.178515
       7108.00        40.0771         2.1009         2.1556       0.180095
       7108.50        39.4665         2.0917         2.1602       0.181566
       7109.00        41.4489         2.0405         2.1546       0.182682
       7109.50        43.4077         2.0270         2.1439       0.183566
       7110.00        46.9930         2.0163         2.1347       0.184273
       7110.50        43.6386         1.9872         2.1310       0.185029
       7111.00        42.8521         1.9660         2.1393       0.185936
       7111.50        40.2817         1.9306         2.1475       0.186715
       7112.00        41.5533         1.8793         2.1632       0.187647
       7112.50        41.5533         1.8188         2.1763       0.188579
       7113.00        40.1814         1.7879         2.1951       0.188796
       7113.50        39.6710         1.8125         2.1964       0.188759
       7114.00        35.2711         1.7944         2.1944       0.188470
       7114.50        36.7956         1.7730         2.1876       0.188275
       7115.00        34.6610         1.8328         2.1893       0.188287
       7115.50        37.2923         1.8699         2.1987       0.188482
       7116.00        37.5489         1.8917         2.2133       0.188789
       7116.50        35.0311         1.9024         2.2373       0.189769
       7117.00        35.7797         1.9688         2.2631       0.191983
       7117.50        34.7002         1.9990         2.2945       0.197732
       7118.00        38.6931         2.0746         2.3167       0.208208
       7118.50        37.6252         2.2412         2.3269       0.221969
       7119.00        36.4161         2.5243         2.3377       0.238279
       7119.50        36.1609         2.6187         2.3448       0.256405
       7120.00        37.3577         2.6874         2.3456       0.276169
       7120.50        38.4888         2.6902         2.3268       0.297953
       7121.00        37.1162         2.5350         2.2941       0.321712
       7121.50        35.5904         2.4857         2.2414       0.345454
       7122.00        36.5841         2.8741         2.1417       0.367861
       7122.50        40.9585         4.1576         2.0443       0.383786
       7123.00        46.7105         3.8235         1.9683       0.391571
       7123.50        53.3838         1.8889         1.9965       0.393620
       7124.00        56.7868         1.0971         2.0701       0.391480
       7124.50        55.2320         0.8667         2.2113       0.385214
       7125.00        51.2163         0.8082         2.3023       0.375669
       7125.50        48.7035         0.8427         2.3377       0.361750
       7126.00        46.9219         0.8956         2.3576       0.343996
       7126.50        42.8527         0.9894         2.3438       0.324928
       7127.00        38.5037         1.1410         2.3292       0.304980
       7127.50        36.4693         1.2452         2.3156       0.288069
       7128.00        37.5375         1.3201         2.3029       0.274767
       7128.50        35.6288         1.4104         2.2956       0.264493
       7129.00        34.3313         1.4643         2.2813       0.256111
       7129.50        32.1936         1.5011         2.2729       0.250636
       7130.00        31.2030         1.4765         2.2635       0.246908
       7130.50        30.0588         1.4789         2.2639       0.245894
       7131.00        30.5162         1.4835         2.2554       0.246498
       7131.50        32.5496         1.4468         2.2548       0.247565
       7132.00        33.1598         1.4048         2.2520       0.249549
       7132.50        33.4158         1.3557         2.2600       0.251254
       7133.00        32.3743         1.3221         2.2587       0.253061
       7133.50        31.5093         1.2774         2.2579       0.254281
       7134.00        31.2549         1.2427         2.2568       0.255816
       7134.50        32.0162         1.2128         2.2569       0.256376
       7135.00        34.5612         1.1935         2.2585       0.256293
       7135.50        34.4849         1.2033         2.2544       0.255321
       7136.00        34.0289         1.2490         2.2566       0.254177
       7136.50        32.8829         1.2800         2.2596       0.253270
       7137.00        33.2644         1.3562         2.2663       0.252175
       7137.50        34.1037         1.4149         2.2728       0.251480
       7138.00        32.7318         1.4320         2.2632       0.250720
       7138.50        31.7370         1.5168         2.2575       0.249947
       7139.00        31.8118         1.5772         2.2446       0.248485
       7139.50        33.1852         1.5264         2.2548       0.247588
       7140.00        33.3377         1.4701         2.2550       0.246963
       7140.50        34.8633         1.4572         2.2729       0.246684
       7141.00        32.9544         1.4653         2.2705       0.246666
       7141.50        33.8730         1.4581         2.2738       0.246894
       7142.00        33.8749         1.4449         2.2643       0.247741
       7142.50        35.9351         1.4244         2.2601       0.248373
       7143.00        35.7033         1.4026         2.2502       0.249416
       7143.50        35.0915         1.4035         2.2541       0.250754
       7144.00        33.1839         1.4030         2.2516       0.252595
       7144.50        33.1868         1.3722         2.2575       0.254296
       7145.00        32.1964         1.3972         2.2446       0.258440
       7145.50        33.4185         1.4052         2.2450       0.268918
       7146.00        32.8081         1.4600         2.2612       0.285970
       7146.50        32.6509         1.7398         2.2854       0.306667
       7147.00        36.0843         1.6325         2.3181       0.331204
       7147.50        39.7466         1.3283         2.3174       0.359455
       7148.00        41.6308         1.4315         2.3143       0.388615
       7148.50        39.1876         2.1586         2.2866       0.419407
       7149.00        37.6580         2.3333         2.2489       0.450667
       7149.50        35.1668         2.7754         2.1059       0.482400
       7150.00        29.1410         4.0151         1.9694       0.510288
       7150.50        22.0488         8.4656         1.7916       0.525883
       7151.00        17.4704         9.8294         1.6282       0.528344
       7151.50        21.5130         9.7773         1.5133       0.523082
       7152.00        31.5819         9.6632         1.4947       0.509523
       7152.50        48.3692         9.5157         1.6035       0.488838
       7153.00        62.2537         4.8328         1.8493       0.465639
       7153.50        72.5531         2.6524         2.2069       0.438940
