~Version Information Block
VERS .                  2.0:  CWLS LOG ASCII STANDARD - VERSION 2.0
WRAP .                   NO:  One line per depth step
~Well Information Block
#MNEM.UNIT        Data Type   Information
#---------- ----------------  -----------
STRT .FT            2071.50:  START DEPTH
STOP .FT           10484.50:  STOP DEPTH
STEP .FT               0.50:  STEP
NULL .              -999.25:  NULL VALUE
COMP .                     :  COMPANY
WELL .          SA-25RD1BP1:  WELL
FLD  .                     :  FIELD
LOC  .                     :  LOCATION
CTRY .                     :  COUNTRY
STAT .                     :  STATE
CNTY .                     :  COUNTY
SRVC .                     :  SERVICE COMPANY
DATE .                     :  DATE
API  .                     :  API NUMBER
UWI  .                     :  UNIQUE WELL ID
~Curve Information Block
#MNEM.UNIT         API CODE   Curve Description
#---------- ----------------  -----------------
DEPTH.FT                   :  Bit Depth 2hz
GR   .GAPI                 :  Merged WIRE.GR_1 and WIRE_6125.GR_1 at 8490.50
RT   .OHMM                 :  Merged WIRE.RT_1 and WIRE_6125.RT_1 at 8497.50
RHOB .G/C3                 :  Merged WIRE.RHOB_1 and WIRE_6125.RHOB_1 at 8490.00
NPHI .V/V                  :  Merged WIRE.NPHI_1 and WIRE_6125.NPHI_1 at 8490.50
~Parameter Information Block
#MNEM.UNIT            Value   Description
#---------- ----------------  -----------
PROJECT.            SERANG_FE:  
~Other Information Block
# 
~A       DEPTH             GR             RT           RHOB           NPHI 
# ...
       8759.00        58.0082         4.6836         2.5289       0.213620
       8759.50        57.3257         5.0826         2.5063       0.214370
       8760.00        59.3731         4.8122         2.5007       0.215910
       8760.50        61.4204         4.0018         2.4995       0.220160
       8761.00        65.8563         3.8923         2.4590       0.227400
       8761.50        70.9747         3.6722         2.4964       0.235080
       8762.00        74.3869         3.3213         2.5042       0.242430
       8762.50        77.7992         2.5999         2.5621       0.252770
       8763.00        77.7992         2.5623         2.4766       0.266770
       8763.50        77.1167         2.3713         2.4461       0.280100
       8764.00        75.0694         2.4537         2.4096       0.286290
       8764.50        73.7045         2.6909         2.4067       0.289380
       8765.00        72.3396         2.6909         2.4299       0.289790
       8765.50        66.5388         2.8224         2.5106       0.288110
       8766.00        61.0792         2.9870         2.5423       0.282070
       8766.50        58.0082         3.0888         2.5284       0.274940
       8767.00        56.9845         3.1170         2.5006       0.266420
       8767.50        56.3020         3.1170         2.4795       0.254950
       8768.00        56.3020         3.3307         2.4603       0.240210
       8768.50        56.3020         3.5273         2.4335       0.225620
       8769.00        53.5722         3.3519         2.4408       0.218670
       8769.50        48.2833         3.3519         2.4111       0.214020
       8770.00        44.0180         3.3202         2.4077       0.212790
       8770.50        42.8237         3.5222         2.3876       0.212370
       8771.00        44.5298         3.2210         2.4310       0.213330
       8771.50        48.7951         3.0074         2.4211       0.214450
       8772.00        53.0604         3.0074         2.4571       0.216530
       8772.50        55.2784         3.0794         2.4435       0.221070
       8773.00        56.9845         3.1139         2.3873       0.226640
       8773.50        59.5437         3.1522         2.4564       0.232480
       8774.00        62.6147         2.9492         2.3860       0.240380
       8774.50        64.4914         2.9152         2.3293       0.251240
       8775.00        65.3445         2.6266         2.3109       0.261910
       8775.50        66.8800         2.5279         2.3671       0.268060
       8776.00        68.9273         2.5593         2.5822       0.272200
       8776.50        70.9747         2.6107         2.4216       0.274930
       8777.00        69.9510         2.5451         2.6247       0.276390
       8777.50        69.6098         2.8037         2.6673       0.275450
       8778.00        68.3586         2.9543         2.7167       0.273850
       8778.50        66.0838         3.0108         2.5835       0.270850
       8779.00        65.6288         3.1351         2.4911       0.264670
       8779.50        66.8800         2.9757         2.4874       0.254460
       8780.00        68.5861         2.9607         2.4806       0.243150
       8780.50        70.1216         3.0950         2.4946       0.233510
       8781.00        68.9273         3.4643         2.5351       0.224820
       8781.50        63.2971         3.8683         2.5549       0.218430
       8782.00        55.9608         4.0811         2.5629       0.215970
       8782.50        52.2073         3.4428         2.5706       0.216860
       8783.00        53.9135         3.1978         2.5226       0.219140
       8783.50        58.5200         3.1978         2.4237       0.222730
       8784.00        62.7853         2.8750         2.4042       0.226370
       8784.50        65.3445         2.8423         2.4019       0.232210
       8785.00        67.2212         2.7981         2.4554       0.238830
       8785.50        69.2686         2.6723         2.4263       0.250470
       8786.00        71.3159         2.5655         2.4506       0.262790
       8786.50        73.3633         2.4039         2.4117       0.275660
       8787.00        74.7281         2.3592         2.4388       0.284670
       8787.50        74.7281         2.4153         2.4660       0.288190
       8788.00        73.5339         2.4727         2.4415       0.288430
       8788.50        70.6335         2.5255         2.4346       0.284410
       8789.00        65.5151         2.5664         2.2843       0.280040
       8789.50        62.7853         2.7832         2.4215       0.272870
       8790.00        60.0555         3.0670         2.3266       0.265230
       8790.50        54.9371         3.1879         2.4121       0.253640
       8791.00        51.1837         3.4058         2.4051       0.240200
       8791.50        48.1126         3.6436         2.4305       0.224620
       8792.00        44.3592         4.0949         2.4185       0.209070
       8792.50        41.2882         4.9136         2.3864       0.196290
       8793.00        39.9233         6.0153         2.2947       0.185890
       8793.50        39.2408         5.7703         2.2176       0.181500
       8794.00        40.0939         4.7040         2.1530       0.181330
       8794.50        44.7004         4.1428         2.1291       0.185330
       8795.00        51.3543         3.6436         2.1755       0.191500
       8795.50        57.3257         3.4714         2.2961       0.201130
       8796.00        62.7853         3.3174         2.4227       0.214170
       8796.50        67.5624         2.8916         2.4328       0.228220
       8797.00        70.9747         2.8916         2.4258       0.243260
       8797.50        74.3869         2.2584         2.3961       0.260100
       8798.00        77.7992         2.0194         2.3796       0.279170
       8798.50        78.4816         2.1073         2.3684       0.294610
       8799.00        79.5053         2.0311         2.3746       0.304930
       8799.50        78.4816         2.1150         2.3976       0.311290
       8800.00        76.0930         2.2205         2.3677       0.318520
       8800.50        75.4106         2.0150         2.4265       0.324880
       8801.00        75.7518         1.9784         2.4046       0.330650
       8801.50        75.4106         1.9397         2.4793       0.337590
       8802.00        75.7518         1.9153         2.4194       0.348600
       8802.50        76.4343         1.8236         2.4301       0.361220
       8803.00        76.0931         1.7532         2.3705       0.367940
       8803.50        75.7518         1.6737         2.3737       0.374030
       8804.00        75.7518         1.7509         2.3185       0.382400
       8804.50        75.5812         1.7013         2.2558       0.390500
       8805.00        74.7281         1.7013         2.2632       0.393210
       8805.50        73.8751         1.7990         2.3454       0.390320
       8806.00        73.0220         1.8552         2.4438       0.385930
       8806.50        70.9747         1.9729         2.5732       0.380890
       8807.00        68.5861         2.0233         2.4672       0.374170
       8807.50        66.8800         1.8996         2.4271       0.366630
       8808.00        66.5388         1.8975         2.3999       0.360230
       8808.50        67.5624         1.8197         2.4540       0.353230
       8809.00        68.5861         1.8975         2.4430       0.342350
       8809.50        67.5624         2.1637         2.3951       0.327680
       8810.00        62.4441         2.4896         2.4122       0.312790
       8810.50        55.6196         3.1372         2.5014       0.300220
       8811.00        51.8661         3.6247         2.5022       0.289770
       8811.50        53.9135         3.3143         2.4500       0.282860
       8812.00        60.7380         2.9157         2.4284       0.276180
