~Version Information Block
VERS .                  2.0:  CWLS LOG ASCII STANDARD - VERSION 2.0
WRAP .                   NO:  One line per depth step
~Well Information Block
#MNEM.UNIT        Data Type   Information
#---------- ----------------  -----------
STRT .FT            3121.50:  START DEPTH
STOP .FT            8357.50:  STOP DEPTH
STEP .FT               0.50:  STEP
NULL .              -999.25:  NULL VALUE
COMP .                     :  COMPANY
WELL .                SA-21:  WELL
FLD  .                     :  FIELD
LOC  .                     :  LOCATION
CTRY .                     :  COUNTRY
STAT .                     :  STATE
CNTY .                     :  COUNTY
SRVC .                     :  SERVICE COMPANY
DATE .                     :  DATE
API  .                     :  API NUMBER
UWI  .                     :  UNIQUE WELL ID
~Curve Information Block
#MNEM.UNIT         API CODE   Curve Description
#---------- ----------------  -----------------
DEPTH.FT                   :  DEPTH
GR   .GAPI                 :  Gamma Ray
RT   .OHMM                 :  Deep resistivity
RHOB .G/C3                 :  Bulk density
NPHI .V/V                  :  Neutron porosity
DT   .US/F                 :  Sonic
~Parameter Information Block
#MNEM.UNIT            Value   Description
#---------- ----------------  -----------
PROJECT.            SERANG_FE:  
~Other Information Block
# 
~A       DEPTH             GR             RT           RHOB           NPHI             DT 
# ...
       7972.00        86.7500         4.6200         2.3700       0.252800       102.6000
       7972.50        88.8125         4.5200         2.3700       0.265800       104.9000
       7973.00        92.5625         4.3700         2.3700       0.275400       104.0000
       7973.50        91.3125         4.2700         2.3500       0.292500       107.7000
       7974.00        88.0625         4.2800         2.3300       0.293200       107.1000
       7974.50        74.6875         4.3600         2.2800       0.317800       105.8000
       7975.00        56.5938         4.4900         2.2100       0.320300       103.8000
       7975.50        47.0312         4.7000         2.1600       0.303000       100.6000
       7976.00        52.4688         4.8900         2.1300       0.263600        97.0000
       7976.50        64.0000         5.1800         2.1400       0.249200       100.6000
       7977.00        75.3125         5.4900         2.2000       0.248400       109.1000
       7977.50        76.6875         5.6100         2.3400       0.257700       115.3000
       7978.00        78.1250         5.7200         2.4300       0.277700       117.6000
       7978.50        77.1875         6.0900         2.2500       0.366200       117.8000
       7979.00        89.6250         6.4900         1.9300       0.506400       111.0000
       7979.50        93.9375         6.8200         1.7400       0.575800       100.8000
       7980.00        96.7500         6.8400         1.7500       0.529000        97.7000
       7980.50        86.0000         6.4500         1.8800       0.414600        93.7000
       7981.00        75.9375         6.0200         2.0800       0.328700        94.6000
       7981.50        65.8750         6.0000         2.2800       0.281800        94.5000
       7982.00        58.5312         6.1500         2.4000       0.254300        97.9000
       7982.50        55.6250         6.3300         2.4200       0.246000        97.7000
       7983.00        46.8438         6.5200         2.3500       0.243100        99.6000
       7983.50        41.6250         6.5500         2.2500       0.246800        98.5000
       7984.00        38.8750         6.5700         2.2000       0.241900       100.1000
       7984.50        46.2500         6.8400         2.1900       0.237000        99.2000
       7985.00        58.5625         7.4600         2.1900       0.225200        97.5000
       7985.50        73.8750         8.5300         2.1800       0.233700        96.2000
       7986.00        89.5000         9.7000         2.1700       0.259400        96.3000
       7986.50        94.8125         9.6900         2.1700       0.282500        95.3000
       7987.00       100.2500         8.5500         2.2200       0.309000        95.6000
       7987.50        97.7500         7.0300         2.3300       0.314000        95.9000
       7988.00        98.6875         5.7000         2.4500       0.309300        95.6000
       7988.50        89.2500         4.6700         2.5100       0.285900        95.5000
       7989.00        84.1875         4.0500         2.5400       0.262700        94.3000
       7989.50        78.5625         3.6200         2.5500       0.258900        93.3000
       7990.00        77.9375         3.3400         2.5600       0.268500        92.3000
       7990.50        75.0625         3.1700         2.5400       0.262500        90.7000
       7991.00        72.6250         3.0800         2.5200       0.239600        90.4000
       7991.50        72.9375         3.0500         2.5200       0.237200        90.0000
       7992.00        79.1875         3.0900         2.5100       0.257600        89.2000
       7992.50        86.8125         3.1900         2.5000       0.285900        88.1000
       7993.00        92.8750         3.2700         2.4900       0.280800        89.9000
       7993.50        93.6250         3.2800         2.4800       0.260300        89.7000
       7994.00        91.0625         3.2500         2.4900       0.234100        90.3000
       7994.50        87.0625         3.2100         2.4900       0.233600        92.3000
       7995.00        86.9375         3.2000         2.4800       0.245500        92.5000
       7995.50        93.3125         3.2100         2.4800       0.260800        91.8000
       7996.00        98.3750         3.2400         2.4900       0.261700        91.2000
       7996.50       100.4375         3.2900         2.4900       0.250600        89.4000
       7997.00        99.3125         3.3400         2.4800       0.250000        88.1000
       7997.50        98.8750         3.4100         2.4900       0.219800        86.9000
       7998.00        97.6875         3.5900         2.4900       0.204500        87.7000
       7998.50        81.3750         3.8600         2.4700       0.173300        89.2000
       7999.00        66.6250         4.5300         2.4600       0.176800        90.3000
       7999.50        51.2812         4.1300         2.4300       0.178600        91.1000
       8000.00        45.8750         4.2400         2.4000       0.183600        91.7000
       8000.50        40.6562         4.9500         2.3900       0.177900        90.7000
       8001.00        37.6562         8.3200         2.3700       0.180800        89.0000
       8001.50        38.3750         9.3200         2.3200       0.183600        90.1000
       8002.00        36.2812        10.5800         2.2800       0.195100        91.6000
       8002.50        34.9688        12.1000         2.2500       0.196800        93.4000
       8003.00        37.6250        13.5700         2.2300       0.201100        93.4000
       8003.50        40.1875        15.2700         2.2200       0.202800        94.7000
       8004.00        43.0938        17.1100         2.2300       0.200100        95.9000
       8004.50        39.0938        18.8800         2.2200       0.193500        97.1000
       8005.00        38.5000        21.4500         2.2200       0.182300       100.1000
       8005.50        37.1250        24.2000         2.2400       0.174400       100.4000
       8006.00        37.4062        25.4400         2.2600       0.175900       100.1000
       8006.50        34.5000        26.5300         2.2500       0.190300       102.2000
       8007.00        32.0938        27.7200         2.2100       0.202400        99.8000
       8007.50        29.3281        28.8300         2.1600       0.203300       100.0000
       8008.00        27.1562        30.1400         2.1600       0.200500       100.3000
       8008.50        24.5000        31.4400         2.1700       0.197800       100.9000
       8009.00        26.5312        33.0300         2.1600       0.194600       103.8000
       8009.50        28.4844        34.6600         2.1500       0.186800       103.3000
       8010.00        29.9375        35.6200         2.1200       0.182500       103.3000
       8010.50        27.1719        35.9400         2.1300       0.180700       103.3000
       8011.00        23.6562        37.0600         2.1500       0.175800       104.7000
       8011.50        20.6250        39.2200         2.1800       0.190300       106.0000
       8012.00        19.5312        41.3100         2.1800       0.206400       105.0000
       8012.50        19.9062        42.6200         2.1700       0.211100       103.8000
       8013.00        19.0781        43.6900         2.1400       0.202400       103.1000
       8013.50        18.1250        43.7800         2.1200       0.198800       102.0000
       8014.00        18.4688        43.3100         2.1100       0.204100       102.6000
       8014.50        18.7969        42.0600         2.1300       0.199800       104.6000
       8015.00        18.7969        40.2800         2.1300       0.196200       105.4000
       8015.50        18.0781        38.0900         2.1400       0.195500       106.1000
       8016.00        18.3281        36.5300         2.1400       0.196800       104.9000
