~Version Information Block
VERS .                  2.0:  CWLS LOG ASCII STANDARD - VERSION 2.0
WRAP .                   NO:  One line per depth step
~Well Information Block
#MNEM.UNIT        Data Type   Information
#---------- ----------------  -----------
STRT .FT            2200.00:  START DEPTH
STOP .FT            8176.50:  STOP DEPTH
STEP .FT               0.50:  STEP
NULL .              -999.25:  NULL VALUE
COMP .                     :  COMPANY
WELL .             SA-25RD1:  WELL
FLD  .                     :  FIELD
LOC  .                     :  LOCATION
CTRY .                     :  COUNTRY
STAT .                     :  STATE
CNTY .                     :  COUNTY
SRVC .                     :  SERVICE COMPANY
DATE .                     :  DATE
API  .                     :  API NUMBER
UWI  .                     :  UNIQUE WELL ID
~Curve Information Block
#MNEM.UNIT         API CODE   Curve Description
#---------- ----------------  -----------------
DEPTH.FT                   :  Bit Depth 2hz
GR   .GAPI                 :  ECO Gamma Ray
RT   .OHMM                 :  ECO Non-BHCorr Phase-Shift Resistivity 40-in. at 2 MHz
RHOB .G/C3                 :  Bulk Density  Bottom
NPHI .V/V                  :  Thermal Neutron Porosity (Ratio Method) in Selected Lithology
~Parameter Information Block
#MNEM.UNIT            Value   Description
#---------- ----------------  -----------
PROJECT.            SERANG_FE:  
~Other Information Block
# 
~A       DEPTH             GR             RT           RHOB           NPHI 
# ...
       3002.50        75.8916         0.8087         2.2275         0.4989
       3003.00        76.7131         1.2372         2.2201         0.4801
       3003.50        74.6354         1.5865         2.2188         0.4678
       3004.00        75.1226         7.2252         2.2251         0.4301
       3004.50        73.7513         1.8017         2.2443         0.4742
       3005.00        74.3058         1.0226         2.2548         0.3949
       3005.50        73.9369         1.4418         2.2613         0.4001
       3006.00        72.7927         0.7880         2.2502         0.4822
       3006.50        72.4403         0.1060         2.2366         0.5779
       3007.00        74.1969         0.5882         2.2180         0.5075
       3007.50        75.5683         0.1000         2.2026         0.4825
       3008.00        75.9497         1.2891         2.1983         0.4989
       3008.50        76.9797         2.8567         2.2032         0.3967
       3009.00        78.9809         9.6081         2.2117         0.4808
       3009.50        78.7904         0.6835         2.2186         0.4949
       3010.00        75.9216         0.1000         2.2229         0.5574
       3010.50        75.4812         0.4332         2.2183         0.5171
       3011.00        74.9408         2.5087         2.2088         0.4826
       3011.50        75.8536         2.5703         2.2041         0.4423
       3012.00        76.2036         2.1610         2.2072         0.4899
       3012.50        77.6227         1.7676         2.2103         0.4780
       3013.00        78.5059         1.3893         2.2099         0.4875
       3013.50        75.8100         1.3320         2.2087         0.5188
       3014.00        74.8181         1.2862         2.2073         0.4929
       3014.50        72.1524         1.2694         2.2037         0.5198
       3015.00        73.1165         1.2533         2.2090         0.5358
       3015.50        73.2646         1.2404         2.2161         0.5951
       3016.00        74.3312         1.2203         2.2218         0.3937
       3016.50        76.9023         1.2218         2.2098         0.4471
       3017.00        77.4553         1.2007         2.2093         0.5320
       3017.50        77.1243         1.1829         2.2010         0.5400
       3018.00        75.2133         1.1551         2.2060         0.5089
       3018.50        75.9873         1.1548         2.1860         0.5200
       3019.00        75.1692         1.1520         2.1845         0.5121
       3019.50        75.0181         1.1555         2.1791         0.5294
       3020.00        75.7765         1.1670         2.1858         0.5734
       3020.50        77.9167         1.1864         2.1884         0.4660
       3021.00        74.0954         1.1974         2.2008         0.4635
       3021.50        73.7416         1.2022         2.2081         0.5016
       3022.00        74.7083         1.2331         2.2077         0.5428
       3022.50        79.0869         1.2470         2.2004         0.4801
       3023.00        76.6455         1.2269         2.1898         0.5482
       3023.50        74.4539         1.2355         2.1809         0.5081
       3024.00        72.6759         1.2096         2.1825         0.5603
       3024.50        71.7116         1.1945         2.1889         0.4417
       3025.00        72.7032         1.2119         2.2005         0.4816
       3025.50        74.3770         1.1843         2.2090         0.5123
       3026.00        75.5945         1.2321         2.2286         0.4731
       3026.50        72.7722         1.2439         2.2321         0.5064
       3027.00        69.4727         1.2432         2.2069         0.4753
       3027.50        67.1326         1.3103         2.1905         0.4795
       3028.00        69.4275         1.3596         2.1858         0.4977
       3028.50        71.2809         1.3859         2.2067         0.4739
       3029.00        72.4022         1.3392         2.2074         0.4661
       3029.50        70.5010         1.3305         2.2076         0.4140
       3030.00        68.9402         1.3094         2.1961         0.5268
       3030.50        70.4262         1.3513         2.1949         0.5637
       3031.00        72.0189         1.2976         2.1878         0.4533
       3031.50        74.0639         1.2745         2.1912         0.5115
       3032.00        74.1496         1.2746         2.1916         0.4271
       3032.50        70.8465         1.3003         2.1973         0.5119
       3033.00        70.1817         1.3120         2.2060         0.4732
       3033.50        68.9151         1.2416         2.2005         0.4815
       3034.00        71.8056         1.1827         2.2046         0.5136
       3034.50        70.8960         1.1845         2.1941         0.4419
       3035.00        71.6604         1.2033         2.1995         0.4868
       3035.50        71.1075         1.1995         2.1896         0.4972
       3036.00        71.6670         1.1962         2.1910         0.4864
       3036.50        73.5999         1.2230         2.1915         0.5997
       3037.00        75.0218         1.2084         2.2045         0.5453
       3037.50        75.4268         1.3090         2.2079         0.4795
       3038.00        70.8998         1.4316         2.2103         0.4888
       3038.50        68.0050         1.4420         2.2027         0.4481
       3039.00        68.4625         1.4745         2.2050         0.4784
       3039.50        74.8159         1.4542         2.2031         0.5027
       3040.00        78.7834         1.3130         2.1983         0.5174
       3040.50        81.5760         1.1811         2.1875         0.4704
       3041.00        79.8998         1.1515         2.1887         0.5184
       3041.50        78.4457         1.1108         2.1935         0.5387
       3042.00        76.0494         1.1069         2.1874         0.5250
       3042.50        76.0646         1.1042         2.1797         0.5530
       3043.00        77.4170         1.0778         2.1672         0.5717
       3043.50        78.3707         1.0554         2.1729         0.5014
       3044.00        77.9511         1.1049         2.1665         0.6450
       3044.50        76.1436         1.1369         2.1583         0.5555
       3045.00        74.9195         1.1843         2.1591         0.5111
       3045.50        74.5697         1.2265         2.1624         0.5003
       3046.00        77.7361         1.2568         2.1728         0.5379
       3046.50        79.0641         1.2923         2.1742         0.5153
       3047.00        81.0891         1.3015         2.1655         0.5174
       3047.50        80.2839         1.3007         2.1642         0.4992
       3048.00        81.3626         1.2648         2.1545         0.4891
       3048.50        82.9835         1.1545         2.1603         0.4944
       3049.00        84.5588         1.0961         2.1573         0.5322
       3049.50        86.4714         1.1017         2.1587         0.5670
       3050.00        86.3493         1.1034         2.1667         0.5204
       3050.50        87.0395         1.1161         2.1708         0.5425
       3051.00        86.4927         1.1603         2.1782         0.5549
       3051.50        89.1478         1.1661         2.1743         0.6759
       3052.00        88.9462         1.1414         2.1711         0.5257
       3052.50        88.3816         1.1260         2.1787         0.4798
       3053.00        83.1628         1.1225         2.1792         0.5622
       3053.50        83.9023         1.1261         2.1862         0.5233
       3054.00        84.7925         1.1057         2.1707         0.5792
       3054.50        87.2721         1.0944         2.1566         0.4955
       3055.00        87.3637         1.0929         2.1489         0.6134
       3055.50        89.7035         1.0804         2.1491         0.5922
