~Version Information Block
VERS .                  2.0:  CWLS LOG ASCII STANDARD - VERSION 2.0
WRAP .                   NO:  One line per depth step
~Well Information Block
#MNEM.UNIT        Data Type   Information
#---------- ----------------  -----------
STRT .FT            2988.00:  START DEPTH
STOP .FT            9585.50:  STOP DEPTH
STEP .FT               0.50:  STEP
NULL .              -999.25:  NULL VALUE
COMP .                     :  COMPANY
WELL .              SA-24HZ:  WELL
FLD  .                     :  FIELD
LOC  .                     :  LOCATION
CTRY .                     :  COUNTRY
STAT .                     :  STATE
CNTY .                     :  COUNTY
SRVC .                     :  SERVICE COMPANY
DATE .                     :  DATE
API  .                     :  API NUMBER
UWI  .                     :  UNIQUE WELL ID
~Curve Information Block
#MNEM.UNIT         API CODE   Curve Description
#---------- ----------------  -----------------
DEPTH.FT                   :  DEPTH
GR   .GAPI                 :  Gamma Ray
RT   .OHMM                 :  Deep resistivity
RHOB .G/C3                 :  Bulk density
NPHI .V/V                  :  Neutron porosity
~Parameter Information Block
#MNEM.UNIT            Value   Description
#---------- ----------------  -----------
PROJECT.            SERANG_FE:  
~Other Information Block
# 
~A       DEPTH             GR             RT           RHOB           NPHI 
       2988.00      -999.2500      -999.2500      -999.2500       0.600000
       2988.50      -999.2500      -999.2500      -999.2500       0.580000
       2989.00      -999.2500      -999.2500      -999.2500       0.570000
       2989.50      -999.2500      -999.2500      -999.2500       0.550000
       2990.00      -999.2500      -999.2500      -999.2500       0.550000
       2990.50      -999.2500      -999.2500      -999.2500       0.560000
       2991.00      -999.2500      -999.2500      -999.2500       0.580000
       2991.50      -999.2500      -999.2500      -999.2500       0.600000
       2992.00      -999.2500      -999.2500      -999.2500       0.630000
       2992.50      -999.2500      -999.2500      -999.2500       0.640000
       2993.00      -999.2500      -999.2500      -999.2500       0.630000
       2993.50      -999.2500      -999.2500      -999.2500       0.620000
       2994.00      -999.2500      -999.2500      -999.2500       0.600000
       2994.50      -999.2500      -999.2500         2.0100       0.580000
       2995.00      -999.2500      -999.2500         2.0000       0.570000
       2995.50      -999.2500      -999.2500         1.9900       0.570000
       2996.00      -999.2500      -999.2500         1.9800       0.580000
       2996.50      -999.2500      -999.2500         1.9700       0.570000
       2997.00      -999.2500      -999.2500         1.9700       0.590000
       2997.50      -999.2500      -999.2500         1.9700       0.600000
       2998.00      -999.2500      -999.2500         1.9600       0.610000
       2998.50      -999.2500      -999.2500         1.9600       0.590000
       2999.00      -999.2500      -999.2500         1.9600       0.580000
       2999.50      -999.2500      -999.2500         1.9600       0.570000
       3000.00      -999.2500      -999.2500         1.9600       0.570000
       3000.50      -999.2500      -999.2500         1.9700       0.570000
       3001.00      -999.2500      -999.2500         1.9700       0.570000
       3001.50      -999.2500      -999.2500         1.9800       0.570000
       3002.00      -999.2500      -999.2500         1.9700       0.560000
       3002.50      -999.2500      -999.2500         1.9600       0.540000
       3003.00      -999.2500      -999.2500         1.9400       0.520000
       3003.50      -999.2500      -999.2500         1.9300       0.490000
       3004.00      -999.2500      -999.2500         1.9400       0.460000
       3004.50      -999.2500      -999.2500         1.9600       0.450000
       3005.00      -999.2500      -999.2500         1.9700       0.460000
       3005.50      -999.2500      -999.2500         1.9900       0.480000
       3006.00      -999.2500      -999.2500         1.9900       0.510000
       3006.50      -999.2500      -999.2500         2.0000       0.520000
       3007.00      -999.2500      -999.2500         2.0000       0.540000
       3007.50      -999.2500      -999.2500         2.0100       0.560000
       3008.00      -999.2500      -999.2500         2.0100       0.570000
       3008.50      -999.2500      -999.2500         2.0100       0.570000
       3009.00      -999.2500      -999.2500         2.0100       0.570000
       3009.50      -999.2500      -999.2500         2.0000       0.560000
       3010.00      -999.2500      -999.2500         1.9900       0.560000
       3010.50      -999.2500      -999.2500         1.9800       0.560000
       3011.00        36.7600      -999.2500         1.9700       0.560000
       3011.50        36.6900      -999.2500         1.9700       0.560000
       3012.00        36.8600      -999.2500         1.9800       0.560000
       3012.50        37.2100      -999.2500         1.9900       0.570000
       3013.00        39.0300      -999.2500         2.0000       0.570000
       3013.50        41.2100      -999.2500         2.0100       0.580000
       3014.00        42.1800      -999.2500         2.0200       0.580000
       3014.50        41.4600      -999.2500         2.0300       0.590000
       3015.00        41.2600      -999.2500         2.0200       0.600000
       3015.50        42.5000      -999.2500         2.0200       0.590000
       3016.00        41.8400      -999.2500         2.0100       0.570000
       3016.50        39.6200      -999.2500         2.0000       0.550000
       3017.00        37.5400      -999.2500         1.9900       0.530000
       3017.50        37.6700      -999.2500         1.9800       0.520000
       3018.00        37.6700      -999.2500         1.9700       0.500000
       3018.50        37.1800      -999.2500         1.9800       0.490000
       3019.00        37.5500      -999.2500         1.9800       0.470000
       3019.50        39.1000      -999.2500         1.9900       0.470000
       3020.00        37.8500      -999.2500         2.0000       0.480000
       3020.50        37.3300      -999.2500         2.0000       0.500000
       3021.00        36.7400      -999.2500         2.0100       0.510000
       3021.50        38.3600      -999.2500         2.0100       0.530000
       3022.00        41.6600         0.1200         2.0100       0.540000
       3022.50        41.2000         0.1100         2.0100       0.550000
       3023.00        38.7800         0.1000         2.0100       0.560000
       3023.50        32.6900         0.1000         2.0100       0.570000
       3024.00        30.9100         0.1000         2.0100       0.580000
       3024.50        32.0800         0.1100         2.0100       0.580000
       3025.00        35.3300         0.1100         2.0200       0.590000
       3025.50        38.5300         0.1100         2.0300       0.600000
       3026.00        40.1400         0.1100         2.0500       0.610000
       3026.50        39.6800         0.1000         2.0500       0.620000
       3027.00        38.3100         0.1000         2.0500       0.620000
       3027.50        38.1600         0.1000         2.0500       0.620000
       3028.00        37.6900         0.1000         2.0500       0.610000
       3028.50        36.6000         0.0900         2.0500       0.590000
       3029.00        35.2800         0.0900         2.0400       0.580000
       3029.50        33.6100         0.0900         2.0300       0.580000
       3030.00        31.8900         0.1200         2.0300       0.570000
       3030.50        30.2700         0.1100         2.0200       0.560000
       3031.00        31.9800         0.1000         2.0100       0.560000
       3031.50        35.3700         0.0900         2.0100       0.570000
       3032.00        37.7800         0.1100         2.0000       0.590000
       3032.50        36.9000         0.1000         1.9900       0.600000
       3033.00        34.1900         0.1100         1.9900       0.610000
       3033.50        32.4400         0.1200         1.9800       0.620000
       3034.00        31.5600         0.1100         1.9800       0.610000
       3034.50        31.4100         0.1000         1.9800       0.590000
       3035.00        32.6300         0.1000         1.9800       0.570000
       3035.50        34.6900         0.1100         1.9900       0.560000
       3036.00        37.4100         0.1200         1.9900       0.560000
       3036.50        38.4200         0.1100         2.0000       0.580000
       3037.00        38.3000         0.1000         2.0000       0.600000
       3037.50        37.2100         0.1100         2.0100       0.610000
       3038.00        36.5200         0.1100         2.0100       0.610000
       3038.50        37.3500         0.1200         2.0200       0.590000
       3039.00        39.0300         0.1200         2.0300       0.570000
       3039.50        40.4000         0.1200         2.0100       0.550000
       3040.00        40.3300         0.1200         1.9800       0.540000
       3040.50        39.5300         0.1200         1.9600       0.540000
       3041.00        38.7800         0.1100         1.9500       0.560000
