~Version Information Block
VERS .                  2.0:  CWLS LOG ASCII STANDARD - VERSION 2.0
WRAP .                   NO:  One line per depth step
~Well Information Block
#MNEM.UNIT        Data Type   Information
#---------- ----------------  -----------
STRT .FT            2071.50:  START DEPTH
STOP .FT           10484.50:  STOP DEPTH
STEP .FT               0.50:  STEP
NULL .              -999.25:  NULL VALUE
COMP .                     :  COMPANY
WELL .          SA-25RD1BP1:  WELL
FLD  .                     :  FIELD
LOC  .                     :  LOCATION
CTRY .                     :  COUNTRY
STAT .                     :  STATE
CNTY .                     :  COUNTY
SRVC .                     :  SERVICE COMPANY
DATE .                     :  DATE
API  .                     :  API NUMBER
UWI  .                     :  UNIQUE WELL ID
~Curve Information Block
#MNEM.UNIT         API CODE   Curve Description
#---------- ----------------  -----------------
DEPTH.FT                   :  Bit Depth 2hz
GR   .GAPI                 :  Merged WIRE.GR_1 and WIRE_6125.GR_1 at 8490.50
RT   .OHMM                 :  Merged WIRE.RT_1 and WIRE_6125.RT_1 at 8497.50
RHOB .G/C3                 :  Merged WIRE.RHOB_1 and WIRE_6125.RHOB_1 at 8490.00
NPHI .V/V                  :  Merged WIRE.NPHI_1 and WIRE_6125.NPHI_1 at 8490.50
~Parameter Information Block
#MNEM.UNIT            Value   Description
#---------- ----------------  -----------
PROJECT.            SERANG_FE:  
~Other Information Block
# 
~A       DEPTH             GR             RT           RHOB           NPHI 
# ...
       2606.50       126.5727         1.0970         2.1023       0.605660
       2607.00       124.6542         1.0279         2.1036       0.613130
       2607.50       131.9788         1.0188         2.1002       0.624200
       2608.00       135.3415         1.0004         2.0924       0.627850
       2608.50       142.6772         0.9509         2.0941       0.630950
       2609.00       149.0794         0.9553         2.0903       0.621840
       2609.50       154.6145         1.0602         2.0691       0.625520
       2610.00       156.8653         1.1242         2.0457       0.623800
       2610.50       151.9346         1.1984         2.0344       0.611470
       2611.00       141.6181         1.1741         2.0489       0.597780
       2611.50       129.9538         1.1197         2.0778       0.580520
       2612.00       127.1444         1.1100         2.1132       0.554350
       2612.50       128.3109         1.0840         2.1510       0.528420
       2613.00       126.6969         0.9917         2.1915       0.505810
       2613.50       118.5738         1.0488         2.2210       0.491510
       2614.00       107.3842         1.2054         2.2518       0.472410
       2614.50        99.1846         1.4101         2.2858       0.458800
       2615.00        93.5386         1.5856         2.3269       0.448120
       2615.50        86.9753         1.8331         2.3497       0.436690
       2616.00        80.8299         1.9952         2.3641       0.430510
       2616.50        72.8423         2.1501         2.3561       0.416820
       2617.00        67.2388         2.2201         2.3179       0.407020
       2617.50        60.7555         2.2566         2.2514       0.391340
       2618.00        53.4809         2.4359         2.1616       0.377850
       2618.50        47.8340         2.6590         2.0694       0.359180
       2619.00        45.0462         2.8351         1.9995       0.348880
       2619.50        44.7945         3.0086         1.9620       0.335520
       2620.00        43.0787         3.2428         1.9683       0.320020
       2620.50        40.5905         3.4229         1.9988       0.310260
       2621.00        39.6228         3.5794         2.0531       0.303690
       2621.50        41.1475         3.4980         2.1130       0.310510
       2622.00        42.7211         3.4239         2.1425       0.320250
       2622.50        46.2829         3.2108         2.1483       0.338110
       2623.00        49.7154         2.9411         2.1360       0.358360
       2623.50        54.3691         2.7491         2.1381       0.375240
       2624.00        59.9642         2.3180         2.1627       0.390780
       2624.50        62.9929         1.8700         2.2097       0.406220
       2625.00        65.5635         1.5042         2.2453       0.419330
       2625.50        64.9510         1.3631         2.2572       0.429400
       2626.00        67.7202         1.3029         2.2419       0.442750
       2626.50        67.9214         1.4135         2.2333       0.451450
       2627.00        68.8361         1.5905         2.2245       0.452450
       2627.50        68.9663         1.6232         2.2307       0.458950
       2628.00        69.4790         1.7092         2.2416       0.455820
       2628.50        69.1768         1.6426         2.2550       0.457170
       2629.00        67.6491         1.6089         2.2641       0.460560
       2629.50        63.1475         1.3155         2.2561       0.465120
       2630.00        59.4089         1.3894         2.2398       0.470300
       2630.50        59.1309         1.5728         2.2402       0.478500
       2631.00        60.0685         1.6417         2.2506       0.483720
       2631.50        61.0196         1.5714         2.2723       0.480410
       2632.00        60.4092         1.4804         2.2720       0.486700
       2632.50        63.7189         1.4105         2.2641       0.485040
       2633.00        66.3538         1.4722         2.2527       0.490120
       2633.50        69.0731         1.3410         2.2425       0.494080
       2634.00        69.9332         1.2580         2.2396       0.494040
       2634.50        68.2547         1.2628         2.2438       0.491660
       2635.00        66.6035         1.2593         2.2600       0.488780
       2635.50        64.6732         1.3845         2.2626       0.484540
       2636.00        62.3817         1.4235         2.2558       0.475460
       2636.50        57.1934         1.4911         2.2275       0.478550
       2637.00        54.2428         1.7560         2.2087       0.473530
       2637.50        61.2648         1.9760         2.1891       0.471310
       2638.00        70.7996         1.8080         2.1973       0.465860
       2638.50        80.4138         1.5194         2.2062       0.455400
       2639.00        79.0770         1.3506         2.2277       0.444140
       2639.50        73.3317         1.3913         2.2390       0.431370
       2640.00        64.8999         1.4559         2.2478       0.419490
       2640.50        61.2001         1.5806         2.2526       0.402030
       2641.00        59.5063         1.5616         2.2499       0.392710
       2641.50        58.2334         1.5058         2.2404       0.387090
       2642.00        55.7166         1.4936         2.2118       0.378480
       2642.50        51.2176         1.4699         2.1869       0.377160
       2643.00        47.9141         1.3627         2.1675       0.390050
       2643.50        49.2112         1.2724         2.1624       0.411030
       2644.00        55.5379         1.2341         2.1719       0.429760
       2644.50        68.1786         1.1745         2.1901       0.451820
       2645.00        77.4849         1.0902         2.1954       0.474380
       2645.50        86.1783         1.0460         2.1637       0.505760
       2646.00        85.5693         1.0038         2.1242       0.526560
       2646.50        85.5698         1.0472         2.1040       0.542890
       2647.00        87.6127         1.1683         2.1133       0.556230
       2647.50        90.0817         1.1259         2.1542       0.560250
       2648.00        91.9128         1.0651         2.1928       0.558900
       2648.50        90.7109         0.9761         2.2200       0.551760
       2649.00        91.1063         0.9859         2.2204       0.553730
       2649.50        90.0396         0.9201         2.2203       0.552960
       2650.00        88.2505         0.8580         2.2184       0.546470
       2650.50        88.5006         0.9000         2.2158       0.527130
       2651.00        87.7701         0.9574         2.2101       0.518760
       2651.50        87.4666         1.0090         2.2001       0.508770
       2652.00        83.0389         1.0670         2.2069       0.503540
       2652.50        81.5498         1.0741         2.2173       0.498680
       2653.00        77.5856         1.0993         2.2418       0.485410
       2653.50        76.1319         1.0334         2.2461       0.469080
       2654.00        73.9198         0.9174         2.2417       0.438400
       2654.50        73.3857         1.0356         2.2292       0.403280
       2655.00        71.3282         1.1922         2.2274       0.365810
       2655.50        67.0094         1.3997         2.2304       0.334090
       2656.00        64.4153         1.2684         2.2183       0.296880
       2656.50        60.5280         1.8810         2.1561       0.253010
       2657.00        56.1553         2.4835         2.0439       0.212370
       2657.50        47.1267         5.0435         1.9161       0.174390
       2658.00        38.8865         6.0786         1.8247       0.138280
       2658.50        31.5607         7.0751         1.7782       0.106220
       2659.00        27.5399         9.2037         1.7603       0.085640
       2659.50        24.3601        11.6138         1.7524       0.071870
