~Version Information Block
VERS .                  2.0:  CWLS LOG ASCII STANDARD - VERSION 2.0
WRAP .                   NO:  One line per depth step
~Well Information Block
#MNEM.UNIT        Data Type   Information
#---------- ----------------  -----------
STRT .FT            2200.00:  START DEPTH
STOP .FT            8176.50:  STOP DEPTH
STEP .FT               0.50:  STEP
NULL .              -999.25:  NULL VALUE
COMP .                     :  COMPANY
WELL .             SA-25RD1:  WELL
FLD  .                     :  FIELD
LOC  .                     :  LOCATION
CTRY .                     :  COUNTRY
STAT .                     :  STATE
CNTY .                     :  COUNTY
SRVC .                     :  SERVICE COMPANY
DATE .                     :  DATE
API  .                     :  API NUMBER
UWI  .                     :  UNIQUE WELL ID
~Curve Information Block
#MNEM.UNIT         API CODE   Curve Description
#---------- ----------------  -----------------
DEPTH.FT                   :  Bit Depth 2hz
GR   .GAPI                 :  ECO Gamma Ray
RT   .OHMM                 :  ECO Non-BHCorr Phase-Shift Resistivity 40-in. at 2 MHz
RHOB .G/C3                 :  Bulk Density  Bottom
NPHI .V/V                  :  Thermal Neutron Porosity (Ratio Method) in Selected Lithology
~Parameter Information Block
#MNEM.UNIT            Value   Description
#---------- ----------------  -----------
PROJECT.            SERANG_FE:  
~Other Information Block
# 
~A       DEPTH             GR             RT           RHOB           NPHI 
# ...
       6159.00       129.9288         3.9654         1.4260         0.9070
       6159.50       111.9213         8.1092         1.4212         1.1006
       6160.00        94.5253        10.8062         1.4721         0.8588
       6160.50        78.1976        11.0458         1.5523         0.8781
       6161.00        69.8126        11.2416         1.6638         0.8497
       6161.50        66.5318         8.4617         1.7126         0.7230
       6162.00        70.3467         7.2062         1.8129         0.6660
       6162.50        73.3223         7.0535         1.9152         0.6098
       6163.00        78.8123         6.5733         2.0225         0.6386
       6163.50        81.3301         4.3956         2.1362         0.6384
       6164.00        86.8236         2.3002         2.2443         0.5617
       6164.50        83.6989         1.5049         2.3378         0.5871
       6165.00        81.3336         1.3278         2.3724         0.5140
       6165.50        79.0447         1.6665         2.3909         0.3968
       6166.00        79.9603         1.6017         2.4028         0.4722
       6166.50        80.1892         1.5359         2.4025         0.3068
       6167.00        77.0579         1.5775         2.4203         0.3446
       6167.50        76.0594         1.8334         2.4244         0.3559
       6168.00        72.9281         2.0403         2.4551         0.3590
       6168.50        71.1736         2.0605         2.4373         0.2748
       6169.00        68.4304         2.1086         2.4440         0.2908
       6169.50        68.4334         2.1512         2.4475         0.2694
       6170.00        64.7714         2.2116         2.4590         0.2873
       6170.50        61.7200         2.2357         2.4465         0.2461
       6171.00        61.7141         2.1869         2.4347         0.2414
       6171.50        61.4864         2.1966         2.4433         0.2894
       6172.00        62.7745         2.1774         2.4670         0.2474
       6172.50        61.3898         2.1453         2.4922         0.2764
       6173.00        63.9527         2.0710         2.5058         0.2390
       6173.50        64.3941         2.0842         2.4935         0.2432
       6174.00        65.6555         2.0749         2.4818         0.2316
       6174.50        63.3584         2.1604         2.4564         0.2362
       6175.00        63.3836         2.2749         2.4320         0.2309
       6175.50        61.9104         2.4528         2.3727         0.2794
       6176.00        59.9674         3.0265         2.3310         0.2538
       6176.50        57.9864         3.3364         2.3289         0.2160
       6177.00        56.9183         3.6315         2.3678         0.2017
       6177.50        57.5239         4.1339         2.3774         0.1990
       6178.00        53.3253         5.2203         2.3334         0.1889
       6178.50        50.5786         7.7192         2.2283         0.2234
       6179.00        44.1744         9.7265         2.1373         0.1798
       6179.50        40.3585        12.5853         2.0713         0.1393
       6180.00        33.4917        14.8229         2.0816         0.1447
       6180.50        32.2702        15.3774         2.1509         0.1628
       6181.00        37.6142        17.5147         2.2587         0.1772
       6181.50        47.3040        13.0292         2.3351         0.2177
       6182.00        63.9377         4.2514         2.3789         0.2301
       6182.50        73.9257         2.7155         2.3730         0.3530
       6183.00        83.1501         2.0467         2.3757         0.3345
       6183.50        83.9057         1.5581         2.3735         0.4122
       6184.00        85.9687         1.2562         2.4048         0.4108
       6184.50        85.0608         1.2220         2.4051         0.4848
       6185.00        82.6995         1.1317         2.4050         0.5300
       6185.50        81.7879         1.0499         2.3805         0.4703
       6186.00        83.3823         1.0215         2.3786         0.4523
       6186.50        84.6031         1.0299         2.3807         0.4999
       6187.00        84.9808         1.0336         2.3903         0.4123
       6187.50        83.3829         1.0990         2.4017         0.4789
       6188.00        86.8198         1.1670         2.4134         0.4907
       6188.50        85.7554         1.2137         2.3877         0.4329
       6189.00        85.6063         1.1968         2.3962         0.4458
       6189.50        84.9196         1.1527         2.3927         0.5767
       6190.00        84.6144         1.1330         2.4172         0.4437
       6190.50        83.9278         1.1288         2.4058         0.4393
       6191.00        82.8522         1.0877         2.3984         0.5165
       6191.50        80.9448         1.0394         2.3835         0.4471
       6192.00        81.7077         1.0173         2.3800         0.5313
       6192.50        81.7879         1.0353         2.3690         0.4321
       6193.00        86.2895         1.0178         2.3642         0.4485
       6193.50        84.4584         1.0334         2.3704         0.5673
       6194.00        83.9243         1.0464         2.3640         0.4623
       6194.50        86.8915         1.1161         2.3642         0.4674
       6195.00        88.1886         1.1409         2.3500         0.5452
       6195.50        86.3820         1.1586         2.3686         0.4554
       6196.00        84.2500         1.1182         2.3639         0.4197
       6196.50        82.8003         1.1636         2.3718         0.4653
       6197.00        85.0644         1.1953         2.3618         0.4937
       6197.50        84.6792         1.1954         2.3856         0.4134
       6198.00        87.6522         1.2134         2.3771         0.4514
       6198.50        87.6485         1.2008         2.3865         0.5223
       6199.00        83.8414         1.2111         2.3748         0.5354
       6199.50        82.4670         1.2419         2.3688         0.4533
       6200.00        82.6270         1.2757         2.3635         0.4895
       6200.50        84.5307         1.3235         2.3605         0.4823
       6201.00        86.0568         1.3713         2.3661         0.4578
       6201.50        83.6153         1.3839         2.3823         0.5152
       6202.00        81.7115         1.3688         2.3961         0.4553
       6202.50        77.5187         1.3590         2.4178         0.4563
       6203.00        77.1341         1.4502         2.4210         0.5078
       6203.50        79.6455         1.5734         2.4037         0.4881
       6204.00        84.3759         1.6790         2.3952         0.4760
       6204.50        83.3066         1.6737         2.3983         0.4778
       6205.00        83.3091         1.7604         2.4285         0.4700
       6205.50        75.4504         1.9677         2.4578         0.4962
       6206.00        73.3184         2.3885         2.4640         0.3257
       6206.50        63.0205         4.4749         2.5114         0.2872
       6207.00        54.0936        10.5633         2.5352         0.2821
       6207.50        48.0640        15.8941         2.5713         0.3208
       6208.00        46.3085        16.8821         2.4464         0.2713
       6208.50        53.9329        19.7080         2.3229         0.2466
       6209.00        63.5486        29.2137         2.2606         0.2872
       6209.50        75.6822        23.2935         2.2945         0.2926
       6210.00        84.7670        14.0927         2.3427         0.3260
       6210.50        91.4050         8.5318         2.3619         0.3997
       6211.00        96.0551         4.5209         2.3778         0.3715
       6211.50       100.1663         2.9775         2.3801         0.3878
       6212.00       100.4688         2.2840         2.3833         0.4085
