~Version Information Block
VERS .                  2.0:  CWLS LOG ASCII STANDARD - VERSION 2.0
WRAP .                   NO:  One line per depth step
~Well Information Block
#MNEM.UNIT        Data Type   Information
#---------- ----------------  -----------
STRT .FT            2071.50:  START DEPTH
STOP .FT           10484.50:  STOP DEPTH
STEP .FT               0.50:  STEP
NULL .              -999.25:  NULL VALUE
COMP .                     :  COMPANY
WELL .          SA-25RD1BP1:  WELL
FLD  .                     :  FIELD
LOC  .                     :  LOCATION
CTRY .                     :  COUNTRY
STAT .                     :  STATE
CNTY .                     :  COUNTY
SRVC .                     :  SERVICE COMPANY
DATE .                     :  DATE
API  .                     :  API NUMBER
UWI  .                     :  UNIQUE WELL ID
~Curve Information Block
#MNEM.UNIT         API CODE   Curve Description
#---------- ----------------  -----------------
DEPTH.FT                   :  Bit Depth 2hz
GR   .GAPI                 :  Merged WIRE.GR_1 and WIRE_6125.GR_1 at 8490.50
RT   .OHMM                 :  Merged WIRE.RT_1 and WIRE_6125.RT_1 at 8497.50
RHOB .G/C3                 :  Merged WIRE.RHOB_1 and WIRE_6125.RHOB_1 at 8490.00
NPHI .V/V                  :  Merged WIRE.NPHI_1 and WIRE_6125.NPHI_1 at 8490.50
~Parameter Information Block
#MNEM.UNIT            Value   Description
#---------- ----------------  -----------
PROJECT.            SERANG_FE:  
~Other Information Block
# 
~A       DEPTH             GR             RT           RHOB           NPHI 
       2071.50      -999.2500      5000.0000      -999.2500    -999.250000
       2072.00      -999.2500         7.2435      -999.2500    -999.250000
       2072.50      -999.2500         0.7237      -999.2500    -999.250000
       2073.00      -999.2500      5000.0000      -999.2500    -999.250000
       2073.50      -999.2500      5000.0000      -999.2500    -999.250000
       2074.00      -999.2500      5000.0000      -999.2500    -999.250000
       2074.50      -999.2500      5000.0000      -999.2500    -999.250000
       2075.00      -999.2500      5000.0000      -999.2500    -999.250000
       2075.50      -999.2500      5000.0000      -999.2500    -999.250000
       2076.00      -999.2500         0.1000      -999.2500    -999.250000
       2076.50      -999.2500      5000.0000      -999.2500    -999.250000
       2077.00      -999.2500         1.6141      -999.2500    -999.250000
       2077.50      -999.2500         5.0829         2.2638    -999.250000
       2078.00      -999.2500         6.2228         2.1955    -999.250000
       2078.50      -999.2500         8.5035         2.1664    -999.250000
       2079.00      -999.2500         5.8958         2.1792    -999.250000
       2079.50      -999.2500         1.9009         2.1325    -999.250000
       2080.00      -999.2500         4.2092         2.0892    -999.250000
       2080.50      -999.2500         6.4433         2.1182    -999.250000
       2081.00        29.6446         5.9853         2.1550       0.614150
       2081.50        33.5069         3.2195         2.1555       0.610100
       2082.00        36.5294         1.4685         2.1721       0.602200
       2082.50        37.9330         1.1207         2.1997       0.593889
       2083.00        36.7686         6.7699         2.2387       0.590490
       2083.50        36.0548         3.4564         2.2136       0.582560
       2084.00        35.5846         1.1675         2.1595       0.569120
       2084.50        36.5002         1.1398         2.0619       0.562430
       2085.00        35.6290         1.1665         2.0680       0.551210
       2085.50        38.0892         1.1383         2.0520       0.537820
       2086.00        39.0130         0.5879         2.0433       0.539080
       2086.50        38.7502         0.7123         2.0267       0.538900
       2087.00        39.9027         0.4963         1.9887       0.531580
       2087.50        40.0378         1.7274         1.9803       0.523080
       2088.00        41.7198         1.2774         1.9760       0.511440
       2088.50        41.0987         0.6103         1.9299       0.508440
       2089.00        41.5461         1.5195         1.8874       0.500240
       2089.50        41.4933         0.2279         1.7914       0.485920
       2090.00        41.8284         1.7062         1.9227       0.464800
       2090.50        42.9189         0.7688         1.9103       0.447890
       2091.00        44.5567         1.0446         1.8677       0.422780
       2091.50        45.5119         3.1684         1.9691       0.410930
       2092.00        43.5562         1.2884         2.0385       0.411970
       2092.50        40.5391         4.9617         2.0694       0.416900
       2093.00        39.6807         0.7108         2.0417       0.420890
       2093.50        41.0741         0.9680         2.0367       0.429770
       2094.00        41.8328         0.9623         2.0018       0.438840
       2094.50        43.5647         1.0465         1.9665       0.445750
       2095.00        46.9201         1.0384         1.9309       0.465530
       2095.50        50.0483         1.0503         1.9271       0.481290
       2096.00        51.1180         1.0434         2.0017       0.495190
       2096.50        48.5880         1.0399         2.0558       0.502240
       2097.00        47.6202         1.0943         2.0674       0.508570
       2097.50        48.7901         1.0859         2.0894       0.512730
       2098.00        51.9575         1.0668         2.1016       0.518570
       2098.50        55.6328         1.0556         2.1125       0.517610
       2099.00        55.0209         1.0292         2.0870       0.526240
       2099.50        55.3643         0.9389         2.0568       0.534830
       2100.00        56.6230         0.9072         2.0469       0.540060
       2100.50        58.9388         0.9691         2.0455       0.545100
       2101.00        59.0752         0.9760         2.0424       0.551930
       2101.50        59.8015         0.9711         2.0459       0.551930
       2102.00        60.1067         0.9727         2.0492       0.554910
       2102.50        62.9529         0.9754         2.0589       0.560480
       2103.00        63.0419         0.9844         2.0455       0.560960
       2103.50        65.1768         1.0039         2.0293       0.562990
       2104.00        64.7208         1.0069         1.9994       0.563720
       2104.50        65.4302         1.0135         1.9711       0.564200
       2105.00        64.8566         1.0089         1.9595       0.560770
       2105.50        65.0222         0.9870         1.9611       0.555850
       2106.00        65.3272         0.9766         1.9614       0.556650
       2106.50        65.5780         0.9966         1.9594       0.560060
       2107.00        67.3748         0.9943         1.9465       0.557620
       2107.50        67.0217         0.9772         1.9348       0.553990
       2108.00        67.9797         0.9763         1.9226       0.552760
       2108.50        66.4902         0.9606         1.9229       0.543280
       2109.00        67.5648         0.9604         1.9353       0.551440
       2109.50        65.3268         0.9451         1.9482       0.551240
       2110.00        64.7003         0.9414         1.9653       0.550690
       2110.50        63.8270         0.9384         1.9814       0.549870
       2111.00        66.8893         0.9336         2.0029       0.546840
       2111.50        69.0981         0.9480         2.0257       0.547880
       2112.00        70.4682         0.9837         2.0494       0.547450
       2112.50        69.8151         1.0067         2.0720       0.548460
       2113.00        70.3437         1.0087         2.0861       0.546460
       2113.50        70.5822         0.9860         2.0971       0.557110
       2114.00        71.6837         0.9529         2.0956       0.544120
       2114.50        72.7900         0.9432         2.0922       0.544820
       2115.00        74.7938         0.9508         2.1015       0.551100
       2115.50        74.6555         0.9749         2.1097       0.556160
       2116.00        74.7128         0.9827         2.1179       0.564170
       2116.50        73.9390         0.9739         2.1084       0.566220
       2117.00        77.2279         0.9586         2.1050       0.569240
       2117.50        77.1159         0.9473         2.1032       0.567260
       2118.00        77.7861         0.9458         2.1012       0.569770
       2118.50        75.0544         0.9323         2.1062       0.563790
       2119.00        74.2700         0.9277         2.1079       0.564220
       2119.50        71.8537         0.9246         2.1111       0.563460
       2120.00        70.6104         0.9249         2.1133       0.561570
       2120.50        72.2867         0.9450         2.1157       0.560030
       2121.00        72.4522         0.9702         2.1209       0.553050
       2121.50        72.2692         1.0153         2.1200       0.551420
       2122.00        67.3869         1.0435         2.1204       0.546580
       2122.50        66.5871         1.0533         2.1166       0.546820
       2123.00        63.7163         1.0560         2.1146       0.551070
       2123.50        65.4719         1.0596         2.1091       0.553770
       2124.00        64.5548         1.0519         2.1090       0.563110
       2124.50        67.2630         1.0206         2.1077       0.564570
