~Version Information Block
VERS .                  2.0:  CWLS LOG ASCII STANDARD - VERSION 2.0
WRAP .                   NO:  One line per depth step
~Well Information Block
#MNEM.UNIT        Data Type   Information
#---------- ----------------  -----------
STRT .FT            2071.50:  START DEPTH
STOP .FT           10484.50:  STOP DEPTH
STEP .FT               0.50:  STEP
NULL .              -999.25:  NULL VALUE
COMP .                     :  COMPANY
WELL .          SA-25RD1BP1:  WELL
FLD  .                     :  FIELD
LOC  .                     :  LOCATION
CTRY .                     :  COUNTRY
STAT .                     :  STATE
CNTY .                     :  COUNTY
SRVC .                     :  SERVICE COMPANY
DATE .                     :  DATE
API  .                     :  API NUMBER
UWI  .                     :  UNIQUE WELL ID
~Curve Information Block
#MNEM.UNIT         API CODE   Curve Description
#---------- ----------------  -----------------
DEPTH.FT                   :  Bit Depth 2hz
GR   .GAPI                 :  Merged WIRE.GR_1 and WIRE_6125.GR_1 at 8490.50
RT   .OHMM                 :  Merged WIRE.RT_1 and WIRE_6125.RT_1 at 8497.50
RHOB .G/C3                 :  Merged WIRE.RHOB_1 and WIRE_6125.RHOB_1 at 8490.00
NPHI .V/V                  :  Merged WIRE.NPHI_1 and WIRE_6125.NPHI_1 at 8490.50
~Parameter Information Block
#MNEM.UNIT            Value   Description
#---------- ----------------  -----------
PROJECT.            SERANG_FE:  
~Other Information Block
# 
~A       DEPTH             GR             RT           RHOB           NPHI 
# ...
       6512.00        63.5025         1.8065         2.3618       0.313371
       6512.50        57.7830         2.1992         2.4208       0.300666
       6513.00        56.7657         2.7773         2.4721       0.289274
       6513.50        54.3955         3.9276         2.4900       0.282905
       6514.00        61.1097         3.9897         2.4468       0.281223
       6514.50        66.2217         3.2059         2.3951       0.281744
       6515.00        75.9165         2.4678         2.3291       0.286200
       6515.50        82.6229         2.3059         2.2778       0.293222
       6516.00        84.0693         2.1037         2.2553       0.302930
       6516.50        88.3420         1.8062         2.2727       0.312638
       6517.00        86.8238         1.5754         2.3054       0.325532
       6517.50        89.1850         1.4035         2.3394       0.338868
       6518.00        78.6559         1.3011         2.3545       0.351644
       6518.50        74.8410         1.3092         2.3564       0.360319
       6519.00        72.9409         1.3684         2.3525       0.367483
       6519.50        77.8239         1.3929         2.3546       0.374685
       6520.00        79.8077         1.3872         2.3628       0.379421
       6520.50        77.5887         1.2907         2.3678       0.383874
       6521.00        78.8095         1.2089         2.3816       0.386124
       6521.50        80.6406         1.3130         2.3811       0.388196
       6522.00        84.0804         1.2495         2.3770       0.386619
       6522.50        82.0172         1.1991         2.3817       0.385060
       6523.00        80.1790         1.2071         2.3919       0.384338
       6523.50        78.0427         1.1769         2.3926       0.386068
       6524.00        76.5894         1.2370         2.3792       0.387602
       6524.50        75.6739         1.3374         2.3879       0.388145
       6525.00        73.8428         1.3911         2.3924       0.390791
       6525.50        74.0021         1.4326         2.4021       0.394067
       6526.00        73.0869         1.3932         2.3802       0.397254
       6526.50        76.9018         1.3260         2.3872       0.401094
       6527.00        78.1190         1.3072         2.3759       0.406781
       6527.50        79.8041         1.2446         2.3788       0.411573
       6528.00        79.9495         1.1723         2.3822       0.414586
       6528.50        81.1702         1.1750         2.3938       0.415655
       6529.00        84.3747         1.0951         2.4067       0.416226
       6529.50        86.0529         1.1065         2.3883       0.415935
       6530.00        87.2664         1.0809         2.3983       0.413214
       6530.50        85.7405         1.0740         2.3987       0.408170
       6531.00        81.1702         1.2421         2.3960       0.403672
       6531.50        79.1210         1.3092         2.3927       0.399098
       6532.00        76.8321         1.3553         2.3803       0.395333
       6532.50        78.0528         1.4110         2.3848       0.392608
       6533.00        75.5350         1.3911         2.3754       0.392819
       6533.50        76.6031         1.4186         2.3895       0.394272
       6534.00        76.7557         1.5366         2.4009       0.396929
       6534.50        75.6876         1.6175         2.4126       0.401267
       6535.00        74.5399         1.4118         2.4057       0.409073
       6535.50        78.0420         1.2895         2.4058       0.418963
       6536.00        86.4267         1.1639         2.4103       0.429684
       6536.50        89.5580         1.1331         2.4140       0.440333
       6537.00        90.3932         1.1104         2.4103       0.449187
       6537.50        90.0881         1.0578         2.4044       0.457254
       6538.00        91.3088         1.0413         2.3964       0.462005
       6538.50        95.0593         1.0670         2.4046       0.467172
       6539.00        93.0072         1.0057         2.4023       0.471291
       6539.50        94.2280         1.0457         2.4030       0.473811
       6540.00        89.9553         0.9869         2.4031       0.470945
       6540.50        88.6582         0.9500         2.4031       0.465075
       6541.00        83.6989         0.9761         2.4094       0.456596
       6541.50        82.7833         0.9262         2.3918       0.445096
       6542.00        81.4099         0.8504         2.4053       0.432829
       6542.50        83.2411         1.1609         2.3863       0.419305
       6543.00        80.7995         1.0214         2.4034       0.407245
       6543.50        79.5723         1.0425         2.3856       0.392474
       6544.00        70.4165         1.2284         2.4026       0.377486
       6544.50        59.4254         1.7282         2.3811       0.362672
       6545.00        53.7020         2.4279         2.3610       0.350918
       6545.50        53.1679         2.8898         2.3328       0.341320
       6546.00        58.5129         2.6747         2.3195       0.333296
       6546.50        59.3089         2.1366         2.3107       0.327156
       6547.00        64.8787         1.8640         2.3214       0.321473
       6547.50        66.7098         1.7727         2.3216       0.316437
       6548.00        72.2542         1.6490         2.3361       0.309098
       6548.50        73.5512         1.5829         2.3425       0.302163
       6549.00        74.7657         1.6092         2.3441       0.295439
       6549.50        70.7926         1.6363         2.3434       0.288819
       6550.00        72.3911         1.9118         2.3338       0.282356
       6550.50        73.1604         2.4212         2.3177       0.274851
       6551.00        77.7371         2.7721         2.2677       0.267689
       6551.50        73.5444         3.2439         2.2017       0.262100
       6552.00        71.1029         3.8609         2.1563       0.258560
       6552.50        67.2185         3.7380         2.1205       0.257377
       6553.00        64.7770         3.5548         2.1076       0.261614
       6553.50        65.0822         3.4483         2.1088       0.269353
       6554.00        69.7363         3.1721         2.1646       0.277057
       6554.50        72.0253         2.2206         2.2312       0.284503
       6555.00        72.8645         1.3860         2.3044       0.291123
       6555.50        66.6081         1.4405         2.3297       0.298492
       6556.00        65.2348         1.5872         2.3335       0.306318
       6556.50        65.3111         1.5546         2.3108       0.313091
       6557.00        71.1097         1.3446         2.2760       0.318693
       6557.50        71.8641         1.2304         2.2626       0.322675
       6558.00        68.5017         1.2641         2.2503       0.322500
       6558.50        66.0602         1.4797         2.2490       0.320899
       6559.00        63.4694         1.6673         2.2267       0.319933
       6559.50        62.7117         1.7741         2.2164       0.321107
       6560.00        58.9986         1.8054         2.1976       0.323381
       6560.50        58.7697         1.8349         2.1901       0.325595
       6561.00        60.6009         1.8183         2.1872       0.327306
       6561.50        61.0142         1.7332         2.1999       0.329087
       6562.00        61.5946         1.7009         2.2094       0.331105
       6562.50        61.0605         1.5545         2.2010       0.333000
       6563.00        62.4500         1.5364         2.1902       0.335813
       6563.50        62.7140         1.3933         2.1782       0.336708
       6564.00        62.7903         1.3706         2.1689       0.336270
       6564.50        60.9621         1.3041         2.1655       0.333401
       6565.00        61.4199         1.3097         2.1684       0.329447
