~Version Information Block
VERS .                  2.0:  CWLS LOG ASCII STANDARD - VERSION 2.0
WRAP .                   NO:  One line per depth step
~Well Information Block
#MNEM.UNIT        Data Type   Information
#---------- ----------------  -----------
STRT .FT            2071.50:  START DEPTH
STOP .FT           10484.50:  STOP DEPTH
STEP .FT               0.50:  STEP
NULL .              -999.25:  NULL VALUE
COMP .                     :  COMPANY
WELL .          SA-25RD1BP1:  WELL
FLD  .                     :  FIELD
LOC  .                     :  LOCATION
CTRY .                     :  COUNTRY
STAT .                     :  STATE
CNTY .                     :  COUNTY
SRVC .                     :  SERVICE COMPANY
DATE .                     :  DATE
API  .                     :  API NUMBER
UWI  .                     :  UNIQUE WELL ID
~Curve Information Block
#MNEM.UNIT         API CODE   Curve Description
#---------- ----------------  -----------------
DEPTH.FT                   :  Bit Depth 2hz
GR   .GAPI                 :  Merged WIRE.GR_1 and WIRE_6125.GR_1 at 8490.50
RT   .OHMM                 :  Merged WIRE.RT_1 and WIRE_6125.RT_1 at 8497.50
RHOB .G/C3                 :  Merged WIRE.RHOB_1 and WIRE_6125.RHOB_1 at 8490.00
NPHI .V/V                  :  Merged WIRE.NPHI_1 and WIRE_6125.NPHI_1 at 8490.50
~Parameter Information Block
#MNEM.UNIT            Value   Description
#---------- ----------------  -----------
PROJECT.            SERANG_FE:  
~Other Information Block
# 
~A       DEPTH             GR             RT           RHOB           NPHI 
# ...
       4318.50        63.7088         1.7184         2.2804       0.498650
       4319.00        63.1722         1.7374         2.2806       0.488570
       4319.50        62.6352         1.8018         2.2808       0.464250
       4320.00        63.2455         1.7829         2.2677       0.460710
       4320.50        64.6948         1.7228         2.2529       0.453860
       4321.00        66.2971         1.6636         2.2472       0.451090
       4321.50        67.4416         1.6541         2.2440       0.450330
       4322.00        67.4445         1.6598         2.2470       0.452300
       4322.50        69.6600         1.6359         2.2495       0.467620
       4323.00        72.4033         1.5570         2.2599       0.473280
       4323.50        77.0575         1.5325         2.2604       0.480410
       4324.00        78.1222         1.4700         2.2633       0.489060
       4324.50        77.9731         1.3525         2.2594       0.510500
       4325.00        75.4553         1.2662         2.2702       0.522040
       4325.50        78.2054         1.2221         2.2699       0.525490
       4326.00        83.0885         1.2048         2.2716       0.544720
       4326.50        86.9797         1.2481         2.2608       0.559910
       4327.00        87.7427         1.2987         2.2614       0.554750
       4327.50        85.8352         1.4005         2.2588       0.554430
       4328.00        85.0686         1.5068         2.2618       0.556720
       4328.50        82.0135         1.5534         2.2564       0.557650
       4329.00        80.4876         1.5564         2.2625       0.561030
       4329.50        77.5090         1.5386         2.2682       0.548010
       4330.00        75.7573         1.5356         2.2692       0.534590
       4330.50        73.9262         1.5472         2.2656       0.523480
       4331.00        74.3905         1.5505         2.2621       0.516460
       4331.50        73.7801         1.5396         2.2613       0.500740
       4332.00        76.6794         1.5491         2.2622       0.509510
       4332.50        75.9928         1.5767         2.2661       0.500680
       4333.00        82.0966         1.5894         2.2693       0.490920
       4333.50        80.2654         1.6116         2.2698       0.490580
       4334.00        80.1098         1.5937         2.2689       0.480150
       4334.50        77.5122         1.5593         2.2768       0.480230
       4335.00        80.6364         1.5077         2.2787       0.491740
       4335.50        83.8367         1.4821         2.2741       0.499320
       4336.00        85.3662         1.4595         2.2738       0.490290
       4336.50        84.5309         1.4650         2.2747       0.497360
       4337.00        81.7882         1.4760         2.2804       0.493980
       4337.50        80.1096         1.5003         2.2787       0.495910
       4338.00        78.5767         1.5645         2.2824       0.495830
       4338.50        81.1703         1.6253         2.2837       0.484990
       4339.00        85.4430         1.6534         2.2892       0.489510
       4339.50        83.7648         1.6590         2.2856       0.492580
       4340.00        82.5478         1.6254         2.2862       0.485280
       4340.50        77.6579         1.5829         2.2844       0.490560
       4341.00        80.1823         1.5214         2.2925       0.495010
       4341.50        82.0135         1.4542         2.2916       0.490530
       4342.00        81.7119         1.4076         2.2855       0.487020
       4342.50        80.8726         1.4362         2.2837       0.487320
       4343.00        81.2541         1.4792         2.2818       0.493380
       4343.50        82.2492         1.5284         2.2811       0.495020
       4344.00        80.7995         1.5572         2.2765       0.506590
       4344.50        79.4227         1.5638         2.2708       0.516370
       4345.00        77.0542         1.5604         2.2641       0.517860
       4345.50        82.1624         1.5137         2.2608       0.513510
       4346.00        82.7000         1.4702         2.2730       0.518130
       4346.50        86.0858         1.4099         2.2775       0.534180
       4347.00        81.9626         1.4121         2.2708       0.531170
       4347.50        84.4804         1.4255         2.2591       0.530680
       4348.00        88.6513         1.4189         2.2639       0.523730
       4348.50        90.2605         1.4505         2.2620       0.525980
       4349.00        86.2131         1.4841         2.2603       0.521570
       4349.50        80.8649         1.5165         2.2632       0.514390
       4350.00        80.1782         1.5332         2.2749       0.513640
       4350.50        83.7601         1.5266         2.2772       0.512340
       4351.00        85.4421         1.4904         2.2685       0.510280
       4351.50        85.7473         1.4508         2.2558       0.498830
       4352.00        84.3817         1.4197         2.2533       0.503790
       4352.50        88.0932         1.4124         2.2625       0.508530
       4353.00        89.3827         1.4346         2.2654       0.517560
       4353.50        87.3990         1.4686         2.2724       0.521050
       4354.00        82.4706         1.5038         2.2611       0.514490
       4354.50        83.2411         1.5257         2.2698       0.513980
       4355.00        89.2686         1.5525         2.2645       0.516180
       4355.50        92.3968         1.5436         2.2717       0.521390
       4356.00        91.7864         1.5026         2.2693       0.522030
       4356.50        85.1417         1.4496         2.2712       0.527850
       4357.00        83.4632         1.5084         2.2710       0.529030
       4357.50        85.5995         1.4501         2.2697       0.529170
       4358.00        88.8072         1.4739         2.2637       0.528450
       4358.50        88.0404         1.4965         2.2523       0.534520
       4359.00        88.1930         1.4489         2.2540       0.534120
       4359.50        88.0440         1.4014         2.2584       0.535900
       4360.00        85.4502         1.4811         2.2614       0.545290
       4360.50        81.1740         1.4680         2.2536       0.547490
       4361.00        81.8607         1.3853         2.2496       0.556070
       4361.50        84.9088         1.3958         2.2528       0.551690
       4362.00        88.0326         1.4352         2.2554       0.545250
       4362.50        87.3459         1.4684         2.2548       0.544830
       4363.00        89.1845         1.4042         2.2501       0.545680
       4363.50        87.3612         1.3306         2.2425       0.538500
       4364.00        86.1332         1.3016         2.2368       0.540860
       4364.50        85.6754         1.2918         2.2325       0.547720
       4365.00        86.8161         1.3140         2.2333       0.546390
       4365.50        88.6468         1.3291         2.2343       0.546130
       4366.00        89.1207         1.2893         2.2362       0.542560
       4366.50        89.5931         1.2497         2.2357       0.548870
       4367.00        89.0633         1.2821         2.2355       0.553610
       4367.50        90.2370         1.2335         2.2383       0.553440
       4368.00        86.9174         1.2105         2.2455       0.554060
       4368.50        85.1797         1.2221         2.2527       0.547460
       4369.00        77.9095         1.2569         2.2648       0.537190
       4369.50        76.2969         1.3332         2.2645       0.527400
       4370.00        74.0072         1.3992         2.2602       0.513210
       4370.50        72.8067         1.5251         2.2492       0.501140
       4371.00        67.9093         1.5925         2.2462       0.489640
       4371.50        65.8363         1.6323         2.2464       0.471410
