~Version Information Block
VERS .                  2.0:  CWLS LOG ASCII STANDARD - VERSION 2.0
WRAP .                   NO:  One line per depth step
~Well Information Block
#MNEM.UNIT        Data Type   Information
#---------- ----------------  -----------
STRT .FT            3121.50:  START DEPTH
STOP .FT            8357.50:  STOP DEPTH
STEP .FT               0.50:  STEP
NULL .              -999.25:  NULL VALUE
COMP .                     :  COMPANY
WELL .                SA-21:  WELL
FLD  .                     :  FIELD
LOC  .                     :  LOCATION
CTRY .                     :  COUNTRY
STAT .                     :  STATE
CNTY .                     :  COUNTY
SRVC .                     :  SERVICE COMPANY
DATE .                     :  DATE
API  .                     :  API NUMBER
UWI  .                     :  UNIQUE WELL ID
~Curve Information Block
#MNEM.UNIT         API CODE   Curve Description
#---------- ----------------  -----------------
DEPTH.FT                   :  DEPTH
GR   .GAPI                 :  Gamma Ray
RT   .OHMM                 :  Deep resistivity
RHOB .G/C3                 :  Bulk density
NPHI .V/V                  :  Neutron porosity
DT   .US/F                 :  Sonic
~Parameter Information Block
#MNEM.UNIT            Value   Description
#---------- ----------------  -----------
PROJECT.            SERANG_FE:  
~Other Information Block
# 
~A       DEPTH             GR             RT           RHOB           NPHI             DT 
# ...
       5569.00        75.5000         1.9500         2.3400       0.325000       114.8000
       5569.50        70.5625         1.9500         2.3200       0.323600       115.0000
       5570.00        66.7500         1.9500         2.3200       0.331800       114.7000
       5570.50        67.4375         1.9400         2.3400       0.319000       114.5000
       5571.00        71.8125         1.9400         2.3600       0.308300       114.3000
       5571.50        75.6250         1.9300         2.3600       0.313100       114.1000
       5572.00        79.6250         1.9100         2.3800       0.326400       114.9000
       5572.50        79.8125         1.9000         2.3800       0.347300       115.5000
       5573.00        77.9375         1.8800         2.3900       0.346700       117.2000
       5573.50        77.7500         1.8600         2.3800       0.348800       117.8000
       5574.00        79.0625         1.8500         2.3800       0.367300       118.0000
       5574.50        79.1875         1.8300         2.3500       0.385600       117.8000
       5575.00        80.1250         1.8100         2.3400       0.391600       117.9000
       5575.50        82.9375         1.8000         2.3200       0.382600       118.3000
       5576.00        82.5625         1.7900         2.3300       0.361900       118.9000
       5576.50        83.1875         1.7800         2.3400       0.354500       118.8000
       5577.00        80.7500         1.7700         2.3500       0.345600       119.2000
       5577.50        83.8750         1.7500         2.3500       0.352000       119.5000
       5578.00        80.2500         1.7500         2.3500       0.368500       118.8000
       5578.50        76.8750         1.7400         2.3600       0.372700       119.1000
       5579.00        77.2500         1.7200         2.3700       0.382400       119.5000
       5579.50        81.0000         1.7100         2.3800       0.380900       119.8000
       5580.00        85.7500         1.7000         2.3700       0.383700       120.0000
       5580.50        87.0625         1.6900         2.3600       0.389400       120.8000
       5581.00        89.1875         1.6800         2.3700       0.375100       120.7000
       5581.50        89.3750         1.6600         2.3600       0.373500       121.4000
       5582.00        88.6875         1.6500         2.3600       0.371800       121.3000
       5582.50        88.6250         1.6400         2.3600       0.395000       122.2000
       5583.00        89.0625         1.6300         2.3500       0.399800       121.9000
       5583.50        88.1250         1.6100         2.3400       0.432100       122.6000
       5584.00        87.6875         1.6000         2.3200       0.431000       123.3000
       5584.50        89.5000         1.6000         2.3200       0.444200       123.6000
       5585.00        87.5000         1.6000         2.3200       0.428500       124.4000
       5585.50        84.0625         1.6000         2.3300       0.429600       124.0000
       5586.00        80.1250         1.6000         2.3400       0.417400       123.9000
       5586.50        83.0000         1.6000         2.3400       0.388400       123.4000
       5587.00        86.0625         1.6000         2.3300       0.378700       123.7000
       5587.50        94.6250         1.6000         2.3200       0.390400       124.5000
       5588.00        93.1875         1.5900         2.3200       0.394400       124.1000
       5588.50        93.3125         1.5900         2.3200       0.403900       124.3000
       5589.00        86.8750         1.5800         2.3200       0.391000       124.7000
       5589.50        87.6250         1.5700         2.3200       0.402700       124.5000
       5590.00        88.0000         1.5700         2.3400       0.393200       124.3000
       5590.50        93.3750         1.5600         2.3400       0.396200       124.9000
       5591.00        92.9375         1.5600         2.3400       0.390400       124.8000
       5591.50        91.7500         1.5500         2.3400       0.387500       124.9000
       5592.00        82.4375         1.5500         2.3400       0.381700       124.8000
       5592.50        79.1250         1.5500         2.3400       0.387700       124.5000
       5593.00        77.3750         1.5400         2.3500       0.386400       124.5000
       5593.50        81.2500         1.5400         2.3600       0.388000       124.6000
       5594.00        82.8750         1.5400         2.3500       0.387700       125.0000
       5594.50        86.3750         1.5400         2.3400       0.394400       125.0000
       5595.00        87.8125         1.5300         2.3400       0.389500       124.8000
       5595.50        90.6875         1.5300         2.3500       0.382200       125.0000
       5596.00        90.8750         1.5300         2.3500       0.382000       125.2000
       5596.50        89.6250         1.5300         2.3300       0.406700       125.2000
       5597.00        90.3750         1.5300         2.3300       0.410600       125.0000
       5597.50        87.8125         1.5300         2.3300       0.388300       124.3000
       5598.00        89.0625         1.5300         2.3400       0.385800       124.0000
       5598.50        89.8125         1.5300         2.3400       0.380100       123.9000
       5599.00        90.1875         1.5400         2.3400       0.394400       123.7000
       5599.50        87.6875         1.5400         2.3500       0.385700       123.8000
       5600.00        85.1875         1.5400         2.3500       0.395000       123.2000
       5600.50        82.3125         1.5400         2.3300       0.401400       123.2000
       5601.00        84.7500         1.5400         2.3300       0.406500       123.5000
       5601.50        85.1250         1.5400         2.3400       0.393200       123.2000
       5602.00        88.4375         1.5400         2.3400       0.394300       123.8000
       5602.50        88.0000         1.5300         2.3300       0.389400       123.7000
       5603.00        87.3125         1.5300         2.3300       0.402300       123.7000
       5603.50        85.8750         1.5200         2.3300       0.403300       123.8000
       5604.00        84.0625         1.5200         2.3200       0.420200       124.1000
       5604.50        86.5625         1.5200         2.3300       0.406400       123.7000
       5605.00        87.5000         1.5200         2.3500       0.393900       124.1000
       5605.50        92.2500         1.5200         2.3700       0.383000       123.6000
       5606.00        93.5625         1.5200         2.3600       0.375700       122.9000
       5606.50        93.6875         1.5200         2.3500       0.381300       122.7000
       5607.00        91.1875         1.5200         2.3500       0.382600       122.7000
       5607.50        87.9375         1.5200         2.3500       0.382400       122.6000
       5608.00        90.5000         1.5100         2.3400       0.394200       122.7000
       5608.50        92.3125         1.5100         2.3200       0.394200       122.8000
       5609.00        91.6250         1.5200         2.3200       0.396500       122.8000
       5609.50        91.9375         1.5100         2.3200       0.378300       123.2000
       5610.00        87.7500         1.5000         2.3200       0.368100       123.2000
       5610.50        93.8750         1.4900         2.3200       0.389000       123.0000
       5611.00        90.2500         1.4900         2.3300       0.394800       122.8000
       5611.50        96.1250         1.4700         2.3400       0.403500       122.7000
       5612.00        89.8750         1.4500         2.3400       0.379400       122.7000
       5612.50        89.9375         1.4400         2.3400       0.389200       122.9000
       5613.00        84.5000         1.4300         2.3400       0.392100       122.4000
