~Version Information Block
VERS .                  2.0:  CWLS LOG ASCII STANDARD - VERSION 2.0
WRAP .                   NO:  One line per depth step
~Well Information Block
#MNEM.UNIT        Data Type   Information
#---------- ----------------  -----------
STRT .FT            3121.50:  START DEPTH
STOP .FT            8357.50:  STOP DEPTH
STEP .FT               0.50:  STEP
NULL .              -999.25:  NULL VALUE
COMP .                     :  COMPANY
WELL .                SA-21:  WELL
FLD  .                     :  FIELD
LOC  .                     :  LOCATION
CTRY .                     :  COUNTRY
STAT .                     :  STATE
CNTY .                     :  COUNTY
SRVC .                     :  SERVICE COMPANY
DATE .                     :  DATE
API  .                     :  API NUMBER
UWI  .                     :  UNIQUE WELL ID
~Curve Information Block
#MNEM.UNIT         API CODE   Curve Description
#---------- ----------------  -----------------
DEPTH.FT                   :  DEPTH
GR   .GAPI                 :  Gamma Ray
RT   .OHMM                 :  Deep resistivity
RHOB .G/C3                 :  Bulk density
NPHI .V/V                  :  Neutron porosity
DT   .US/F                 :  Sonic
~Parameter Information Block
#MNEM.UNIT            Value   Description
#---------- ----------------  -----------
PROJECT.            SERANG_FE:  
~Other Information Block
# 
~A       DEPTH             GR             RT           RHOB           NPHI             DT 
# ...
       6592.50       100.9375         2.4200         2.4300       0.359400       106.1000
       6593.00        99.4375         2.3100         2.4400       0.344000       101.1000
       6593.50       100.5000         2.2200         2.4300       0.340700       103.1000
       6594.00       102.2500         2.1600         2.4300       0.358500       104.3000
       6594.50       103.1875         2.1200         2.4100       0.375900       104.6000
       6595.00        97.5625         2.1100         2.4000       0.396800       104.9000
       6595.50        97.3750         2.1100         2.4000       0.388800       107.1000
       6596.00        94.1250         2.1200         2.4000       0.376400       106.1000
       6596.50        93.7500         2.1400         2.4000       0.364900       107.6000
       6597.00        96.1250         2.1600         2.4000       0.366800       108.5000
       6597.50        95.2500         2.2100         2.3900       0.382400       108.7000
       6598.00        97.2500         2.2400         2.3800       0.362000       108.4000
       6598.50        93.8125         2.2700         2.3600       0.346000       110.3000
       6599.00        95.9375         2.2900         2.3300       0.310000       109.7000
       6599.50        94.5625         2.2900         2.3200       0.322600       110.6000
       6600.00        95.8750         2.3000         2.3500       0.327700       111.7000
       6600.50        96.6875         2.3700         2.3700       0.349800       111.1000
       6601.00       104.8125         2.4500         2.3300       0.352300       113.5000
       6601.50       110.1875         2.5000         2.2600       0.376800       114.0000
       6602.00       108.7500         2.5500         2.2100       0.378600       115.2000
       6602.50       103.0000         2.6300         2.2100       0.387100       116.4000
       6603.00       103.1250         2.7400         2.2600       0.373400       113.9000
       6603.50       106.4375         2.9300         2.3500       0.396800       111.9000
       6604.00       103.6250         3.0800         2.4100       0.374900       109.6000
       6604.50        94.1875         3.1800         2.4200       0.332600       106.9000
       6605.00        82.8125         3.2300         2.4100       0.269900       106.8000
       6605.50        73.1250         3.2500         2.3700       0.242000       107.1000
       6606.00        66.1875         3.2700         2.3600       0.244300       109.1000
       6606.50        62.2812         3.2900         2.3400       0.254000       107.6000
       6607.00        62.0938         3.2700         2.3400       0.258700       107.2000
       6607.50        62.5938         3.2500         2.3600       0.264500       106.6000
       6608.00        65.7500         3.2300         2.4000       0.258100       106.1000
       6608.50        67.3125         3.2100         2.4200       0.263400       106.7000
       6609.00        67.8750         3.2000         2.4100       0.264000       107.0000
       6609.50        65.1250         3.1900         2.4000       0.277400       106.8000
       6610.00        67.8125         3.1900         2.3900       0.289600       107.2000
       6610.50        70.3750         3.1800         2.3900       0.303000       107.8000
       6611.00        70.1875         3.1800         2.3900       0.296300       107.3000
       6611.50        69.7500         3.1800         2.3800       0.290000       106.5000
       6612.00        69.3125         3.1800         2.3900       0.282200       106.8000
       6612.50        71.1250         3.1700         2.3900       0.275000       106.1000
       6613.00        70.0625         3.1600         2.3800       0.267100       107.0000
       6613.50        68.4375         3.1400         2.3900       0.269700       107.2000
       6614.00        66.1250         3.1200         2.3900       0.264800       105.3000
       6614.50        63.5625         3.1100         2.4100       0.267700       104.5000
       6615.00        61.7188         3.1000         2.4000       0.251300       104.8000
       6615.50        61.6875         3.1000         2.3900       0.256000       107.0000
       6616.00        58.3750         3.1000         2.3700       0.254500       107.3000
       6616.50        57.7812         3.1100         2.3600       0.250700       108.6000
       6617.00        57.0938         3.1200         2.3500       0.253200       108.0000
       6617.50        59.7812         3.1400         2.3600       0.248900       109.1000
       6618.00        58.3438         3.1800         2.3600       0.246900       108.2000
       6618.50        57.0000         3.2400         2.3600       0.254300       110.4000
       6619.00        56.2500         3.3100         2.3400       0.251300       114.3000
       6619.50        54.2812         3.3500         2.3200       0.255600       115.7000
       6620.00        52.8125         3.4000         2.3000       0.242700       117.1000
       6620.50        53.2188         3.4600         2.2900       0.247500       115.3000
       6621.00        53.9688         3.5300         2.2900       0.246000       112.1000
       6621.50        54.3438         3.5800         2.3000       0.246800       113.4000
       6622.00        51.6875         3.6200         2.3100       0.239700       113.9000
       6622.50        50.3438         3.6300         2.3000       0.240800       115.9000
       6623.00        51.8125         3.6300         2.2800       0.238700       116.8000
       6623.50        54.2500         3.6000         2.2700       0.238100       116.0000
       6624.00        59.5938         3.5400         2.2900       0.245300       112.5000
       6624.50        59.6875         3.4900         2.3200       0.255400       111.1000
       6625.00        58.2188         3.4500         2.3500       0.256000       107.5000
       6625.50        54.5625         3.4200         2.3700       0.253100       107.9000
       6626.00        54.0000         3.3800         2.3400       0.252900       110.6000
       6626.50        50.0000         3.3500         2.3000       0.246700       110.9000
       6627.00        49.3750         3.3000         2.3000       0.240200       110.4000
       6627.50        53.2188         3.2500         2.3100       0.227400       108.8000
       6628.00        58.4062         3.2100         2.3300       0.237300       106.9000
       6628.50        62.7500         3.1800         2.3400       0.244500       103.9000
       6629.00        63.7500         3.1400         2.3600       0.255600       102.5000
       6629.50        68.3125         3.1000         2.4000       0.262300       100.5000
       6630.00        68.9375         3.0500         2.4100       0.256500       101.6000
       6630.50        69.1875         3.0000         2.4000       0.245800       101.7000
       6631.00        71.1875         2.9400         2.4000       0.235300       100.8000
       6631.50        76.0625         2.8800         2.4000       0.242400       101.1000
       6632.00        77.3125         2.8400         2.4100       0.259900       100.1000
       6632.50        78.1250         2.8200         2.4200       0.274300        99.7000
       6633.00        76.3125         2.8000         2.4200       0.276500        98.9000
       6633.50        76.1250         2.7800         2.4300       0.287800        99.1000
       6634.00        77.7500         2.7700         2.4200       0.288900        98.9000
       6634.50        77.6250         2.7500         2.4100       0.301200        98.8000
       6635.00        79.0000         2.7400         2.4100       0.293200        99.2000
       6635.50        78.6250         2.7200         2.4200       0.291900        99.7000
       6636.00        85.4375         2.7100         2.4200       0.304500       100.3000
       6636.50        89.1250         2.6900         2.4300       0.322200       100.5000
