~Version Information Block
VERS .                  2.0:  CWLS LOG ASCII STANDARD - VERSION 2.0
WRAP .                   NO:  One line per depth step
~Well Information Block
#MNEM.UNIT        Data Type   Information
#---------- ----------------  -----------
STRT .FT            2200.00:  START DEPTH
STOP .FT            8176.50:  STOP DEPTH
STEP .FT               0.50:  STEP
NULL .              -999.25:  NULL VALUE
COMP .                     :  COMPANY
WELL .             SA-25RD1:  WELL
FLD  .                     :  FIELD
LOC  .                     :  LOCATION
CTRY .                     :  COUNTRY
STAT .                     :  STATE
CNTY .                     :  COUNTY
SRVC .                     :  SERVICE COMPANY
DATE .                     :  DATE
API  .                     :  API NUMBER
UWI  .                     :  UNIQUE WELL ID
~Curve Information Block
#MNEM.UNIT         API CODE   Curve Description
#---------- ----------------  -----------------
DEPTH.FT                   :  Bit Depth 2hz
GR   .GAPI                 :  ECO Gamma Ray
RT   .OHMM                 :  ECO Non-BHCorr Phase-Shift Resistivity 40-in. at 2 MHz
RHOB .G/C3                 :  Bulk Density  Bottom
NPHI .V/V                  :  Thermal Neutron Porosity (Ratio Method) in Selected Lithology
~Parameter Information Block
#MNEM.UNIT            Value   Description
#---------- ----------------  -----------
PROJECT.            SERANG_FE:  
~Other Information Block
# 
~A       DEPTH             GR             RT           RHOB           NPHI 
# ...
       7764.00        60.8070         2.7976         2.4427         0.2914
       7764.50        56.8368         2.8772         2.4370         0.2528
       7765.00        56.2265         2.8148         2.4457         0.2842
       7765.50        57.3706         2.7402         2.4717         0.2237
       7766.00        57.4444         2.6770         2.4541         0.2578
       7766.50        59.2702         2.5954         2.4614         0.2555
       7767.00        57.3657         2.5204         2.4268         0.2441
       7767.50        59.5071         2.4667         2.4215         0.2620
       7768.00        61.3436         2.4949         2.4111         0.2733
       7768.50        64.7007         2.5084         2.4199         0.2497
       7769.00        66.7607         2.4670         2.4138         0.2816
       7769.50        69.5010         2.4466         2.3984         0.2887
       7770.00        68.3565         2.3618         2.4059         0.3197
       7770.50        71.2523         2.4219         2.4096         0.3107
       7771.00        73.3951         2.2939         2.4265         0.2876
       7771.50        79.9459         2.3550         2.4244         0.3116
       7772.00        78.9510         2.4641         2.4127         0.3997
       7772.50        79.4053         2.9135         2.3932         0.3504
       7773.00        81.9306         3.1420         2.3885         0.3321
       7773.50        83.8411         3.8360         2.4056         0.3037
       7774.00        79.1140         4.2652         2.4217         0.3009
       7774.50        73.6972         5.3827         2.4238         0.3294
       7775.00        65.0792         7.4855         2.4044         0.2750
       7775.50        62.0255        12.7076         2.3911         0.3192
       7776.00        53.7120        24.0225         2.3787         0.2242
       7776.50        50.4537        42.8855         2.3351         0.2103
       7777.00        45.7250        62.1158         2.2286         0.1974
       7777.50        42.3679        83.2141         2.1504         0.1777
       7778.00        38.3016        83.1225         2.1161         0.1485
       7778.50        34.9445        64.1895         2.1502         0.1342
       7779.00        34.2546        52.4228         2.1514         0.1335
       7779.50        32.9311        43.1623         2.1563         0.1141
       7780.00        30.1844        35.4263         2.1184         0.1121
       7780.50        28.1768        31.1913         2.1087         0.1080
       7781.00        27.9742        28.2910         2.1000         0.1097
       7781.50        28.1268        26.4250         2.1386         0.0943
       7782.00        28.4578        25.0946         2.1712         0.0987
       7782.50        29.1699        23.6855         2.1395         0.1111
       7783.00        30.4669        22.6241         2.0796         0.1136
       7783.50        33.1388        22.2493         2.0369         0.1240
       7784.00        36.0889        22.4595         2.0368         0.1201
       7784.50        38.6796        22.1801         2.0282         0.1045
       7785.00        39.9003        20.5498         2.0266         0.0880
       7785.50        39.5952        18.5735         2.0305         0.0871
       7786.00        43.2609        16.8761         2.0377         0.0880
       7786.50        44.7869        14.0706         2.0455         0.1165
       7787.00        48.9070        14.1796         2.0517         0.1130
       7787.50        47.7087        13.5235         2.0559         0.1101
       7788.00        46.7168        13.1801         2.0433         0.1020
       7788.50        44.3516        13.5352         2.0180         0.0930
       7789.00        43.9476        13.8859         1.9948         0.1083
       7789.50        45.0158        14.4528         1.9870         0.0976
       7790.00        43.6424        14.9812         1.9943         0.0885
       7790.50        45.8551        15.2190         1.9994         0.0916
       7791.00        44.9375        14.4713         2.0011         0.1027
       7791.50        48.5235        14.6884         2.0057         0.0848
       7792.00        47.5317        15.0996         1.9918         0.0968
       7792.50        45.9298        15.5108         1.9863         0.0951
       7793.00        44.7853        16.0421         1.9658         0.0923
       7793.50        42.4964        16.7939         1.9670         0.0907
       7794.00        45.6262        16.8625         1.9683         0.0865
       7794.50        42.2657        17.2365         1.9818         0.0729
       7795.00        43.4864        17.1593         1.9848         0.0751
       7795.50        40.6634        17.0591         1.9693         0.0694
       7796.00        40.3598        16.9272         1.9363         0.0587
       7796.50        37.7046        17.5381         1.9248         0.0620
       7797.00        36.4805        17.2884         1.9017         0.0475
       7797.50        34.8801        16.8049         1.9074         0.0547
       7798.00        33.4152        16.3723         1.9155         0.0551
       7798.50        30.5192        16.2447         1.9582         0.0807
       7799.00        33.4185        17.3486         2.0011         0.0996
       7799.50        35.9327        17.7062         2.0397         0.1419
       7800.00        41.1171        16.3511         2.0912         0.1827
       7800.50        42.7875        14.6142         2.1318         0.2182
       7801.00        43.9356        12.9947         2.1743         0.2228
       7801.50        47.2914        11.2150         2.1945         0.2555
       7802.00        51.8722         9.0335         2.2129         0.2084
       7802.50        61.0218         7.6271         2.2152         0.2233
       7803.00        63.8473         6.4368         2.1968         0.2257
       7803.50        62.1739         5.5196         2.2062         0.2535
       7804.00        58.3653         4.8607         2.2565         0.2181
       7804.50        58.4442         4.1165         2.3316         0.2142
       7805.00        61.0384         3.4576         2.3880         0.2295
       7805.50        61.8014         3.2141         2.3880         0.2296
       7806.00        66.0740         3.0754         2.3480         0.2355
       7806.50        74.1577         2.9089         2.3078         0.2579
       7807.00        85.2972         2.7330         2.2771         0.2868
       7807.50        98.1153         2.7198         2.2660         0.3432
       7808.00       105.2912         2.6760         2.2587         0.3104
       7808.50       106.2067         2.7054         2.2661         0.2873
       7809.00        94.7552         2.7127         2.3231         0.2670
       7809.50        82.4650         2.6295         2.4061         0.2391
       7810.00        73.6145         2.5624         2.4824         0.2075
       7810.50        68.2805         2.4550         2.5088         0.1877
       7811.00        70.0415         2.3528         2.4879         0.1739
       7811.50        71.2623         2.3289         2.4757         0.1770
       7812.00        74.8453         2.2726         2.4825         0.2070
       7812.50        78.0498         2.1575         2.4891         0.1904
       7813.00        84.2300         2.1297         2.4941         0.2080
       7813.50        92.0916         2.0821         2.4778         0.2526
       7814.00        97.5851         2.0031         2.4729         0.2651
       7814.50        97.8859         1.9506         2.4743         0.2514
       7815.00        96.9662         1.9455         2.4710         0.2608
       7815.50        97.5766         1.9115         2.4729         0.2765
       7816.00       100.5566         1.9075         2.4763         0.2702
       7816.50        98.4244         1.9451         2.4793         0.2295
       7817.00        93.9189         1.9776         2.4648         0.2677
