~Version Information Block
VERS .                  2.0:  CWLS LOG ASCII STANDARD - VERSION 2.0
WRAP .                   NO:  One line per depth step
~Well Information Block
#MNEM.UNIT        Data Type   Information
#---------- ----------------  -----------
STRT .FT            2200.00:  START DEPTH
STOP .FT            8176.50:  STOP DEPTH
STEP .FT               0.50:  STEP
NULL .              -999.25:  NULL VALUE
COMP .                     :  COMPANY
WELL .             SA-25RD1:  WELL
FLD  .                     :  FIELD
LOC  .                     :  LOCATION
CTRY .                     :  COUNTRY
STAT .                     :  STATE
CNTY .                     :  COUNTY
SRVC .                     :  SERVICE COMPANY
DATE .                     :  DATE
API  .                     :  API NUMBER
UWI  .                     :  UNIQUE WELL ID
~Curve Information Block
#MNEM.UNIT         API CODE   Curve Description
#---------- ----------------  -----------------
DEPTH.FT                   :  Bit Depth 2hz
GR   .GAPI                 :  ECO Gamma Ray
RT   .OHMM                 :  ECO Non-BHCorr Phase-Shift Resistivity 40-in. at 2 MHz
RHOB .G/C3                 :  Bulk Density  Bottom
NPHI .V/V                  :  Thermal Neutron Porosity (Ratio Method) in Selected Lithology
~Parameter Information Block
#MNEM.UNIT            Value   Description
#---------- ----------------  -----------
PROJECT.            SERANG_FE:  
~Other Information Block
# 
~A       DEPTH             GR             RT           RHOB           NPHI 
# ...
       8138.50        77.6022         2.9838         2.4873         0.2910
       8139.00        76.6359         3.0775         2.4884         0.2784
       8139.50        76.5460         3.0528         2.4886         0.2685
       8140.00        75.7847         3.1802         2.4976         0.3015
       8140.50        74.9984         3.1629         2.5014         0.3106
       8141.00        77.1881         3.2142         2.4915         0.3229
       8141.50        78.3489         3.4229         2.4471         0.2945
       8142.00        80.3072         3.3627         2.3621         0.3405
       8142.50        78.4217         3.3936         2.1952         0.4648
       8143.00        79.3949         3.4725         2.0828         0.5040
       8143.50        78.5302         3.8346         2.0742         0.4137
       8144.00        78.8320         3.9612         2.0840         0.4783
       8144.50        76.8463         4.0545         2.1039         0.4246
       8145.00        77.6585         4.3730         2.1566         0.4264
       8145.50        75.6287         4.5703         2.2450         0.4180
       8146.00        76.5972         4.4845         2.3982         0.3775
       8146.50        76.9367         4.2381         2.5051         0.3066
       8147.00        80.4232         3.9168         2.5419         0.3674
       8147.50        84.0826         3.8705         2.5545         0.3477
       8148.00        82.0131         3.9037         2.5700         0.3203
       8148.50        79.1138         4.0870         2.6336         0.3286
       8149.00        74.9064         4.7314         2.5894         0.2759
       8149.50        72.3271         4.5598         2.4852         0.3132
       8150.00        67.6333         3.9086         2.3493         0.3218
       8150.50        62.5247         4.5401         2.2766         0.3951
       8151.00        62.1813         4.6838         2.1536         0.3284
       8151.50        67.0000         4.5938         2.1597         0.3594
       8152.00        75.2990         5.0873         2.1332         0.2534
       8152.50        81.6318         4.4391         2.3185         0.2521
       8153.00        85.6194         4.1278         2.4693         0.2897
       8153.50        84.6831         4.0753         2.5568         0.3110
       8154.00        79.0371         4.7258         2.5699         0.3286
       8154.50        76.2194         6.8585         2.5764         0.2735
       8155.00        69.8867         6.7933         2.5649         0.2731
       8155.50        67.6741         4.7307         2.5355         0.2576
       8156.00        59.5887         5.9125         2.4796         0.2068
       8156.50        53.7901         8.3933         2.4408         0.1963
       8157.00        49.4411        10.4762         2.3939         0.1591
       8157.50        46.6944         9.7938         2.3661         0.1350
       8158.00        47.9105         7.8833         2.3436         0.1305
       8158.50        47.8321         7.5333         2.3556         0.1282
       8159.00        49.0529         6.2938         2.3883         0.1334
       8159.50        48.0896         5.9809         2.4069         0.1352
       8160.00        50.4569         5.9046         2.4121         0.1193
       8160.50        49.7682         5.3875         2.3860         0.1386
       8161.00        52.1094         5.4364         2.3509         0.1378
       8161.50        51.7256         5.4223         2.3269         0.1313
       8162.00        56.4555         5.3819         2.3163         0.1448
       8162.50        56.7558         5.5233         2.3180         0.1494
       8163.00        58.0529         5.5010         2.3173         0.1290
       8163.50        57.9741         5.4448         2.3075         0.1266
       8164.00        62.0935         5.5374         2.3127         0.1258
       8164.50        63.7743         5.3770         2.3349         0.1342
       8165.00        65.3784         5.0265         2.3842      -999.2500
       8165.50        71.5641         4.5017         2.4209      -999.2500
       8166.00        80.4910         3.8015         2.4475      -999.2500
       8166.50        81.4068         3.4339         2.4694      -999.2500
       8167.00        78.7296      -999.2500         2.4849      -999.2500
       8167.50        76.6696      -999.2500         2.4821      -999.2500
       8168.00        78.7295      -999.2500         2.4774      -999.2500
       8168.50        83.0089      -999.2500         2.5008      -999.2500
       8169.00        86.2134      -999.2500         2.5367      -999.2500
       8169.50        93.6939      -999.2500         2.5737      -999.2500
       8170.00        99.1873      -999.2500         2.5777      -999.2500
       8170.50        97.8140      -999.2500         2.5780      -999.2500
       8171.00        95.6013      -999.2500         2.5566      -999.2500
       8171.50        95.3724      -999.2500         2.5496      -999.2500
       8172.00        98.8015      -999.2500         2.5396      -999.2500
       8172.50        98.4964      -999.2500         2.5396      -999.2500
       8173.00        89.5626      -999.2500      -999.2500      -999.2500
       8173.50        80.4325      -999.2500      -999.2500      -999.2500
       8174.00        74.4050      -999.2500      -999.2500      -999.2500
       8174.50        70.5207      -999.2500      -999.2500      -999.2500
       8175.00        72.4068      -999.2500      -999.2500      -999.2500
       8175.50        74.7684      -999.2500      -999.2500      -999.2500
       8176.00        74.6921      -999.2500      -999.2500      -999.2500
       8176.50        73.5840      -999.2500      -999.2500      -999.2500
