~Version Information Block
VERS .                  2.0:  CWLS LOG ASCII STANDARD - VERSION 2.0
WRAP .                   NO:  One line per depth step
~Well Information Block
#MNEM.UNIT        Data Type   Information
#---------- ----------------  -----------
STRT .FT            3121.50:  START DEPTH
STOP .FT            8357.50:  STOP DEPTH
STEP .FT               0.50:  STEP
NULL .              -999.25:  NULL VALUE
COMP .                     :  COMPANY
WELL .                SA-21:  WELL
FLD  .                     :  FIELD
LOC  .                     :  LOCATION
CTRY .                     :  COUNTRY
STAT .                     :  STATE
CNTY .                     :  COUNTY
SRVC .                     :  SERVICE COMPANY
DATE .                     :  DATE
API  .                     :  API NUMBER
UWI  .                     :  UNIQUE WELL ID
~Curve Information Block
#MNEM.UNIT         API CODE   Curve Description
#---------- ----------------  -----------------
DEPTH.FT                   :  DEPTH
GR   .GAPI                 :  Gamma Ray
RT   .OHMM                 :  Deep resistivity
RHOB .G/C3                 :  Bulk density
NPHI .V/V                  :  Neutron porosity
DT   .US/F                 :  Sonic
~Parameter Information Block
#MNEM.UNIT            Value   Description
#---------- ----------------  -----------
PROJECT.            SERANG_FE:  
~Other Information Block
# 
~A       DEPTH             GR             RT           RHOB           NPHI             DT 
# ...
       8328.00        32.5938        44.4700         2.0200       0.129800       102.5000
       8328.50        32.5938        44.4700         2.0200       0.129800       102.5000
       8329.00        32.5938        44.4700         2.0200       0.129800       102.5000
       8329.50        32.5938        44.4700         2.0200       0.129800       102.5000
       8330.00        32.5938        44.4700         2.0200       0.129800       102.5000
       8330.50        32.5938        44.4700         2.0200       0.129800       102.5000
       8331.00        32.5938        44.4700         2.0200       0.129800       102.5000
       8331.50        32.5938        44.4700         2.0200       0.129800       102.5000
       8332.00        32.5938        44.4700         2.0200       0.129800       102.5000
       8332.50        32.5938        44.4700         2.0200       0.129800       102.5000
       8333.00        32.5938        44.4700         2.0200       0.129800       102.5000
       8333.50        32.5938        44.4700         2.0200       0.129800       102.5000
       8334.00        32.5938        44.4700         2.0200       0.129800       102.5000
       8334.50        32.5938        44.4700         2.0200       0.129800       102.5000
       8335.00        32.5938        44.4700         2.0200       0.129800       102.5000
       8335.50        32.5938        44.4700         2.0200       0.129800       102.5000
       8336.00        32.5938        44.4700         2.0200       0.129800       102.5000
       8336.50        32.5938        44.4700         2.0200       0.129800       102.5000
       8337.00        32.5938        44.4700         2.0200       0.129800       102.5000
       8337.50        32.5938        44.4700         2.0200       0.129800       102.5000
       8338.00        32.5938        44.4700         2.0200       0.129800       102.5000
       8338.50        32.5938        44.4700         2.0200       0.129800       102.5000
       8339.00        32.5938        44.4700         2.0200       0.129800       102.5000
       8339.50        32.5938        44.4700         2.0200       0.129800       102.5000
       8340.00        32.5938        44.4700         2.0200       0.129800       102.5000
       8340.50        32.5938        44.4700         2.0200       0.129800       102.5000
       8341.00        32.5938        44.4700         2.0200       0.129800       102.5000
       8341.50        32.5938        44.4700         2.0200       0.129800       102.5000
       8342.00        32.5938        44.4700         2.0200       0.129800       102.5000
       8342.50        32.5938        44.4700         2.0200       0.129800       102.5000
       8343.00        32.5938        44.4700         2.0200       0.129800       102.5000
       8343.50        32.5938        44.4700         2.0200       0.129800       102.5000
       8344.00        32.5938        44.4700         2.0200       0.129800       102.5000
       8344.50        32.5938        44.4700         2.0200       0.129800       102.5000
       8345.00        32.5938        44.4700         2.0200       0.129800       102.5000
       8345.50        32.5938        44.4700         2.0200       0.129800       102.5000
       8346.00        32.5938        44.4700         2.0200       0.129800       102.5000
       8346.50        32.5938        44.4700         2.0200       0.129800       102.5000
       8347.00        32.5938        44.4700         2.0200       0.129800       102.5000
       8347.50        32.5938        44.4700         2.0200       0.129800       102.5000
       8348.00        32.5938        44.4700         2.0200       0.129800       102.5000
       8348.50        32.5938        44.4700         2.0200       0.129800       102.5000
       8349.00        32.5938        44.4700         2.0200       0.129800       102.5000
       8349.50        32.5938        44.4700         2.0200       0.129800       102.5000
       8350.00        32.5938        44.4700         2.0200       0.129800       102.5000
       8350.50        32.5938        44.4700         2.0200       0.129800       102.5000
       8351.00        32.5938        44.4700         2.0200       0.129800       102.5000
       8351.50        32.5938        44.4700         2.0200       0.129800       102.5000
       8352.00        32.5938        44.4700         2.0200       0.129800       102.5000
       8352.50        32.5938        44.4700         2.0200       0.129800       102.5000
       8353.00        32.5938        44.4700         2.0200       0.129800       102.5000
       8353.50        32.5938        44.4700         2.0200       0.129800       102.5000
       8354.00        32.5938        44.4700         2.0200       0.129800       102.5000
       8354.50        32.5938        44.4700         2.0200       0.129800       102.5000
       8355.00        32.5938        44.4700         2.0200       0.129800       102.5000
       8355.50        32.5938        44.4700         2.0200       0.129800       102.5000
       8356.00        32.5938        44.4700         2.0200       0.129800       102.5000
       8356.50        32.5938        44.4700         2.0200       0.129800       102.5000
       8357.00        32.5938        44.4700         2.0200       0.129800       102.5000
       8357.50        32.5938        44.4700         2.0200       0.129800       102.5000
