~Version Information Block
VERS .                  2.0:  CWLS LOG ASCII STANDARD - VERSION 2.0
WRAP .                   NO:  One line per depth step
~Well Information Block
#MNEM.UNIT        Data Type   Information
#---------- ----------------  -----------
STRT .FT            2988.00:  START DEPTH
STOP .FT            9585.50:  STOP DEPTH
STEP .FT               0.50:  STEP
NULL .              -999.25:  NULL VALUE
COMP .                     :  COMPANY
WELL .              SA-24HZ:  WELL
FLD  .                     :  FIELD
LOC  .                     :  LOCATION
CTRY .                     :  COUNTRY
STAT .                     :  STATE
CNTY .                     :  COUNTY
SRVC .                     :  SERVICE COMPANY
DATE .                     :  DATE
API  .                     :  API NUMBER
UWI  .                     :  UNIQUE WELL ID
~Curve Information Block
#MNEM.UNIT         API CODE   Curve Description
#---------- ----------------  -----------------
DEPTH.FT                   :  DEPTH
GR   .GAPI                 :  Gamma Ray
RT   .OHMM                 :  Deep resistivity
RHOB .G/C3                 :  Bulk density
NPHI .V/V                  :  Neutron porosity
~Parameter Information Block
#MNEM.UNIT            Value   Description
#---------- ----------------  -----------
PROJECT.            SERANG_FE:  
~Other Information Block
# 
~A       DEPTH             GR             RT           RHOB           NPHI 
# ...
       9087.00        74.7400         3.3900         2.6400       0.280000
       9087.50        71.3000         3.4000         2.6800       0.280000
       9088.00        69.2400         3.3900         2.6600       0.260000
       9088.50        66.5800         3.3500         2.6200       0.250000
       9089.00        62.6500         3.2600         2.6300       0.240000
       9089.50        60.7800         3.2400         2.6500       0.230000
       9090.00        59.3900         3.2400         2.6300       0.230000
       9090.50        59.0800         3.2500         2.6300       0.240000
       9091.00        57.9800         3.3200         2.6300       0.240000
       9091.50        60.3400         3.3100         2.5900       0.240000
       9092.00        60.1000         3.2800         2.5600       0.230000
       9092.50        64.0000         3.2400         2.6000       0.230000
       9093.00        65.1200         3.2200         2.6400       0.240000
       9093.50        69.7300         3.3300         2.6300       0.240000
       9094.00        70.1000         3.3200         2.6400       0.240000
       9094.50        71.7000         3.3300         2.6600       0.240000
       9095.00        72.5100         3.3900         2.6500       0.250000
       9095.50        73.5700         3.3500         2.6500       0.260000
       9096.00        70.5300         3.2900         2.6700       0.250000
       9096.50        67.3800         3.3200         2.6400       0.250000
       9097.00        65.1200         3.3500         2.6200       0.250000
       9097.50        67.0300         3.3100         2.6300       0.250000
       9098.00        66.7100         3.2900         2.6300       0.260000
       9098.50        65.0400         3.3100         2.6500       0.260000
       9099.00        63.6100         3.3900         2.6800       0.280000
       9099.50        64.2300         3.2800         2.6700       0.290000
       9100.00        63.1000         3.3200         2.6200       0.280000
       9100.50        64.2100         3.4100         2.5800       0.260000
       9101.00        62.9600         3.3400         2.5900       0.260000
       9101.50        63.0900         3.4300         2.6200       0.260000
       9102.00        62.1600         3.5600         2.6300       0.260000
       9102.50        61.2300         3.6600         2.6300       0.240000
       9103.00        62.3300         3.8700         2.6300       0.240000
       9103.50        61.3700         3.9600         2.6100       0.240000
       9104.00        62.3700         4.1000         2.5600       0.240000
       9104.50        62.7800         4.3100         2.5900       0.230000
       9105.00        61.8500         4.7700         2.6300       0.230000
       9105.50        60.0200         4.5500         2.6200       0.220000
       9106.00        53.6100         4.7100         2.6400       0.210000
       9106.50        50.1800         4.4100         2.7100       0.190000
       9107.00        43.7500         4.3200         2.7900       0.150000
       9107.50        39.5000         4.4500         2.8300       0.130000
       9108.00        33.2600         4.4600         2.8500       0.120000
       9108.50        32.3300         4.1800         2.8500       0.120000
       9109.00        34.5100         4.2500         2.7800       0.120000
       9109.50        38.0300         4.2000         2.7000       0.130000
       9110.00        41.8200         4.0400         2.6400       0.150000
       9110.50        45.1100         3.9100         2.6000       0.180000
       9111.00        46.9100         3.9200         2.5600       0.200000
       9111.50        49.1900         3.8700         2.4800       0.200000
       9112.00        48.7100         3.8800         2.4300       0.190000
       9112.50        51.9600         3.7100         2.4800       0.200000
       9113.00        52.0700         3.7400         2.5200       0.210000
       9113.50        53.2600         3.6400         2.4800       0.230000
       9114.00        52.8700         3.4900         2.4800       0.250000
       9114.50        53.2500         3.2300         2.5100       0.270000
       9115.00        56.4600         3.1300         2.5300       0.270000
       9115.50        59.8100         3.0200         2.5400       0.250000
       9116.00        62.3700         2.9400         2.5500       0.260000
       9116.50        61.9000         2.9300         2.5900       0.270000
       9117.00        60.6800         2.8700         2.5800       0.280000
       9117.50        63.2800         2.8900         2.5600       0.270000
       9118.00        66.2300         2.9100         2.5600       0.250000
       9118.50        70.9500         2.8700         2.5900       0.260000
       9119.00        73.0100         2.8500         2.6200       0.270000
       9119.50        76.4000         2.9000         2.6500       0.280000
       9120.00        73.6900         2.9000         2.6600       0.290000
       9120.50        71.0000         2.9300         2.6700       0.280000
       9121.00        67.7300         2.9300         2.6500       0.290000
       9121.50        70.2400         2.8200         2.6300       0.280000
       9122.00        72.7800         2.7700         2.6300       0.290000
       9122.50        73.8500         2.8100         2.6200       0.290000
       9123.00        73.1800         2.7200         2.6000       0.290000
       9123.50        71.2400         2.7800         2.6200       0.290000
       9124.00        72.1900         2.7700         2.6100       0.280000
       9124.50        74.2900         2.7600         2.5900       0.280000
       9125.00        74.7800         2.7600         2.6300       0.280000
       9125.50        73.4300         2.8200         2.6800       0.290000
       9126.00        71.2600         2.7700         2.7000       0.280000
       9126.50        70.6600         2.7400         2.6300       0.300000
       9127.00        71.5700         2.7700         2.6000       0.280000
       9127.50        72.2500         2.7000         2.6100       0.280000
       9128.00        73.1500         2.6800         2.6400       0.260000
       9128.50        72.8300         2.6800         2.6500       0.280000
       9129.00        70.3500         2.6600         2.6400       0.300000
       9129.50        71.2100         2.6000         2.6200       0.300000
       9130.00        73.6200         2.6000         2.6500       0.290000
       9130.50        78.2000         2.5600         2.6400       0.270000
       9131.00        77.9400         2.5700         2.6200       0.280000
       9131.50        77.9800         2.5100         2.6300       0.300000
       9132.00        77.6300         2.4800         2.6700       0.310000
       9132.50        79.0600         2.4800         2.6700       0.300000
       9133.00        81.5600         2.4800         2.6500       0.290000
       9133.50        81.9200         2.4500         2.6600       0.290000
       9134.00        83.8300         2.4300         2.6600       0.310000
       9134.50        78.9300         2.3900         2.6500       0.310000
       9135.00        77.1400         2.3400         2.6600       0.320000
       9135.50        75.0100         2.3300         2.6500       0.320000
       9136.00        76.0000         2.2900         2.6600       0.320000
       9136.50        75.2100         2.2700         2.6400       0.310000
       9137.00        74.0200         2.2500         2.6000       0.310000
       9137.50        77.4900         2.2500         2.6300       0.310000
       9138.00        78.9800         2.2400         2.6700       0.330000
       9138.50        82.7400         2.2300         2.6700       0.330000
       9139.00        84.4700         2.2600         2.6700       0.340000
       9139.50        89.4200         2.3000         2.6600       0.330000
       9140.00        90.2200         2.4900         2.6700       0.330000
