~Version Information Block
VERS .                  2.0:  CWLS LOG ASCII STANDARD - VERSION 2.0
WRAP .                   NO:  One line per depth step
~Well Information Block
#MNEM.UNIT        Data Type   Information
#---------- ----------------  -----------
STRT .FT            2071.50:  START DEPTH
STOP .FT           10484.50:  STOP DEPTH
STEP .FT               0.50:  STEP
NULL .              -999.25:  NULL VALUE
COMP .                     :  COMPANY
WELL .          SA-25RD1BP1:  WELL
FLD  .                     :  FIELD
LOC  .                     :  LOCATION
CTRY .                     :  COUNTRY
STAT .                     :  STATE
CNTY .                     :  COUNTY
SRVC .                     :  SERVICE COMPANY
DATE .                     :  DATE
API  .                     :  API NUMBER
UWI  .                     :  UNIQUE WELL ID
~Curve Information Block
#MNEM.UNIT         API CODE   Curve Description
#---------- ----------------  -----------------
DEPTH.FT                   :  Bit Depth 2hz
GR   .GAPI                 :  Merged WIRE.GR_1 and WIRE_6125.GR_1 at 8490.50
RT   .OHMM                 :  Merged WIRE.RT_1 and WIRE_6125.RT_1 at 8497.50
RHOB .G/C3                 :  Merged WIRE.RHOB_1 and WIRE_6125.RHOB_1 at 8490.00
NPHI .V/V                  :  Merged WIRE.NPHI_1 and WIRE_6125.NPHI_1 at 8490.50
~Parameter Information Block
#MNEM.UNIT            Value   Description
#---------- ----------------  -----------
PROJECT.            SERANG_FE:  
~Other Information Block
# 
~A       DEPTH             GR             RT           RHOB           NPHI 
# ...
       7635.50        37.6912         3.9314         2.2543       0.220512
       7636.00        38.0710         3.3940         2.2558       0.227762
       7636.50        36.5937         3.1293         2.2488       0.234149
       7637.00        37.0482         2.9416         2.2522       0.239541
       7637.50        36.7447         2.8096         2.2531       0.243880
       7638.00        37.3053         2.7340         2.2481       0.246943
       7638.50        34.7908         2.6795         2.2339       0.249054
       7639.00        32.1966         2.6783         2.2224       0.250510
       7639.50        31.1280         2.6760         2.2182       0.251735
       7640.00        32.1170         2.6950         2.2208       0.252542
       7640.50        32.7274         2.7072         2.2111       0.253353
       7641.00        33.6445         2.7406         2.2163       0.253795
       7641.50        36.8485         2.7662         2.2262       0.253778
       7642.00        39.1358         2.7775         2.2419       0.253024
       7642.50        40.5834         2.7762         2.2516       0.251819
       7643.00        38.9846         2.8000         2.2551       0.250529
       7643.50        37.6129         2.8342         2.2522       0.249355
       7644.00        37.6912         2.8403         2.2468       0.248800
       7644.50        37.9930         2.8758         2.2429       0.248264
       7645.00        40.6125         2.9340         2.2536       0.247880
       7645.50        39.4664         3.0164         2.2590       0.247133
       7646.00        40.9195         3.1311         2.2653       0.246487
       7646.50        41.0466         3.2282         2.2736       0.246200
       7647.00        43.8713         3.2493         2.3074       0.246402
       7647.50        46.3609         3.3165         2.3282       0.247097
       7648.00        47.0971         3.4358         2.3387       0.248045
       7648.50        50.9870         3.5548         2.3407       0.248885
       7649.00        52.6914         3.8492         2.3583       0.249031
       7649.50        56.3551         4.1150         2.3707       0.248980
       7650.00        54.9558         4.2312         2.3767       0.248421
       7650.50        55.4886         4.7364         2.3768       0.247850
       7651.00        54.2932         4.5785         2.3706       0.246654
       7651.50        56.7565         4.2713         2.3545       0.244889
       7652.00        56.4525         4.5099         2.3422       0.242457
       7652.50        54.4688         4.6672         2.3445       0.239309
       7653.00        51.1425         4.6543         2.3217       0.235308
       7653.50        49.6933         5.0720         2.2864       0.231239
       7654.00        47.0192         6.2289         2.2343       0.227081
       7654.50        43.0507         8.0145         2.1954       0.222826
       7655.00        36.9474         8.0961         2.1605       0.219077
       7655.50        33.0586         8.0804         2.1516       0.215732
       7656.00        32.1937         8.3102         2.1545       0.213454
       7656.50        32.0410         8.1927         2.1663       0.212103
       7657.00        33.7463         7.8540         2.1835       0.211549
       7657.50        33.9764         7.3791         2.1914       0.211679
       7658.00        33.8479         6.7399         2.2018       0.212637
       7658.50        31.7608         6.1744         2.1953       0.213686
       7659.00        30.6117         5.7748         2.1947       0.215241
       7659.50        32.1136         5.4173         2.1870       0.217205
       7660.00        34.2516         5.2147         2.1919       0.219413
       7660.50        37.6133         5.1638         2.2011       0.221613
       7661.00        37.4623         4.8051         2.2074       0.223408
       7661.50        37.9964         4.7438         2.2132       0.224363
       7662.00        38.5305         4.9224         2.2078       0.224918
       7662.50        38.8092         5.3441         2.2199       0.225116
       7663.00        36.2151         4.9938         2.2090       0.224931
       7663.50        31.4846         4.8117         2.1964       0.224541
       7664.00        27.9752         4.4508         2.1802       0.223724
       7664.50        26.3729         4.1794         2.1677       0.222665
       7665.00        24.6690         3.8277         2.1685       0.221042
       7665.50        28.1794         3.5568         2.1788       0.219071
       7666.00        35.6566         3.7230         2.2150       0.217205
       7666.50        45.7771         3.5884         2.3059       0.215745
       7667.00        54.7784         3.5178         2.4029       0.214588
       7667.50        62.4552         3.4683         2.4832       0.213810
       7668.00        67.6166         3.4797         2.4984       0.213466
       7668.50        70.4160         3.4562         2.5061       0.213972
       7669.00        69.5473         3.4631         2.5052       0.215161
       7669.50        72.2186         3.4248         2.5032       0.216454
       7670.00        73.9461         3.4150         2.5053       0.217817
       7670.50        77.0151         3.4119         2.5076       0.219401
       7671.00        77.9792         3.4196         2.5118       0.220632
       7671.50        78.9433         3.4208         2.5116       0.221818
       7672.00        81.6205         3.4006         2.5151       0.222654
       7672.50        83.0239         3.4728         2.5093       0.222926
       7673.00        82.9265         3.5258         2.5057       0.222641
       7673.50        81.3060         3.5725         2.4998       0.221113
       7674.00        78.9725         3.6123         2.4970       0.218924
       7674.50        76.9361         3.6500         2.4897       0.217346
       7675.00        75.3487         3.6985         2.4864       0.215911
       7675.50        70.3423         3.7810         2.4846       0.214498
       7676.00        66.6310         3.9222         2.4795       0.213589
       7676.50        61.8609         4.1430         2.4700       0.214805
       7677.00        59.0023         4.4759         2.4688       0.218196
       7677.50        57.7815         4.6751         2.4645       0.223820
       7678.00        58.3425         4.4001         2.4628       0.231738
       7678.50        62.4753         3.9960         2.4551       0.241574
       7679.00        68.4774         3.8889         2.4481       0.252512
       7679.50        74.9351         3.8917         2.4335       0.262467
       7680.00        80.8482         4.4413         2.4364       0.271819
       7680.50        85.1156         4.3919         2.4441       0.280722
       7681.00        85.9317         3.0476         2.4910       0.288825
       7681.50        87.3814         1.6187         2.5201       0.293737
       7682.00        85.1939         2.0792         2.5421       0.295944
       7682.50        85.5452         1.8079         2.5388       0.295928
       7683.00        81.3701         1.8401         2.5431       0.293316
       7683.50        78.5248         2.1138         2.5478       0.289257
       7684.00        77.4702         2.7622         2.5466       0.284102
       7684.50        78.8892         2.8696         2.5350       0.279366
       7685.00        80.9724         2.7726         2.5260       0.275365
       7685.50        79.5878         2.8044         2.5221       0.271688
       7686.00        76.5898         2.6619         2.5220       0.268699
       7686.50        73.1356         2.7165         2.5251       0.266692
       7687.00        74.6109         2.8363         2.5218       0.265246
       7687.50        73.4982         3.0856         2.5218       0.263778
       7688.00        73.8502         3.2315         2.5167       0.262599
       7688.50        71.5399         3.0230         2.5115       0.261162
