~Version Information Block
VERS .                  2.0:  CWLS LOG ASCII STANDARD - VERSION 2.0
WRAP .                   NO:  One line per depth step
~Well Information Block
#MNEM.UNIT        Data Type   Information
#---------- ----------------  -----------
STRT .FT            2200.00:  START DEPTH
STOP .FT            8176.50:  STOP DEPTH
STEP .FT               0.50:  STEP
NULL .              -999.25:  NULL VALUE
COMP .                     :  COMPANY
WELL .             SA-25RD1:  WELL
FLD  .                     :  FIELD
LOC  .                     :  LOCATION
CTRY .                     :  COUNTRY
STAT .                     :  STATE
CNTY .                     :  COUNTY
SRVC .                     :  SERVICE COMPANY
DATE .                     :  DATE
API  .                     :  API NUMBER
UWI  .                     :  UNIQUE WELL ID
~Curve Information Block
#MNEM.UNIT         API CODE   Curve Description
#---------- ----------------  -----------------
DEPTH.FT                   :  Bit Depth 2hz
GR   .GAPI                 :  ECO Gamma Ray
RT   .OHMM                 :  ECO Non-BHCorr Phase-Shift Resistivity 40-in. at 2 MHz
RHOB .G/C3                 :  Bulk Density  Bottom
NPHI .V/V                  :  Thermal Neutron Porosity (Ratio Method) in Selected Lithology
~Parameter Information Block
#MNEM.UNIT            Value   Description
#---------- ----------------  -----------
PROJECT.            SERANG_FE:  
~Other Information Block
# 
~A       DEPTH             GR             RT           RHOB           NPHI 
# ...
       5784.50        26.7771         1.2377         2.1720         0.2850
       5785.00        24.6419         1.1331         2.1775         0.2455
       5785.50        24.2104         1.2280         2.1960         0.2387
       5786.00        27.6438         1.3625         2.2511         0.2520
       5786.50        33.0345         1.5345         2.2560         0.2670
       5787.00        41.8330         1.4062         2.3055         0.2616
       5787.50        49.0050         1.0918         2.3366         0.3156
       5788.00        57.4212         1.0178         2.3542         0.3009
       5788.50        64.6958         1.2356         2.3627         0.2937
       5789.00        68.7365         1.3201         2.3562         0.3318
       5789.50        69.7292         1.3107         2.3804         0.3334
       5790.00        69.2709         1.3737         2.4035         0.3099
       5790.50        71.1023         1.4333         2.4224         0.3432
       5791.00        74.6602         1.5025         2.4395         0.3526
       5791.50        76.7940         1.5110         2.4482         0.3232
       5792.00        76.8697         1.7252         2.4689         0.3626
       5792.50        74.4584         1.8079         2.4848         0.2875
       5793.00        71.2042         1.8303         2.4819         0.3047
       5793.50        68.4355         1.8574         2.4637         0.3044
       5794.00        68.8170         1.8877         2.4489         0.2941
       5794.50        69.2277         1.9055         2.4588         0.2733
       5795.00        68.6370         1.9109         2.4646         0.3139
       5795.50        66.6533         1.9129         2.4796         0.2666
       5796.00        66.0899         1.9000         2.4848         0.2944
       5796.50        64.7457         1.9005         2.4943         0.2682
       5797.00        66.2689         1.8851         2.4968         0.2845
       5797.50        67.1354         1.8433         2.4816         0.3053
       5798.00        72.2748         1.8163         2.4494         0.3388
       5798.50        73.9561         1.8458         2.4328         0.3305
       5799.00        76.3455         1.7980         2.4239         0.3217
       5799.50        78.7361         1.7162         2.4930         0.3300
       5800.00        77.5738         1.6264         2.4878         0.3814
       5800.50        78.2849         1.5408         2.5057         0.3048
       5801.00        76.9625         1.4902         2.4593         0.2800
       5801.50        81.7794         1.4966         2.4485         0.2843
       5802.00        86.2562         1.4418         2.4232         0.3562
       5802.50        92.7584         1.2988         2.3862         0.3097
       5803.00        91.8504         1.2897         2.3618         0.3789
       5803.50        90.9386         1.2678         2.3491         0.3478
       5804.00        83.6194         1.2778         2.3515         0.3975
       5804.50        77.2045         1.2906         2.3801         0.3877
       5805.00        73.5422         1.3415         2.3960         0.3978
       5805.50        71.3328         1.3631         2.4149         0.3490
       5806.00        72.2542         1.4772         2.4234         0.3556
       5806.50        72.0985         1.5526         2.4438         0.4716
       5807.00        70.8014         1.6372         2.4615         0.3574
       5807.50        74.1585         1.6920         2.4810         0.3143
       5808.00        70.6460         1.7312         2.5099         0.3183
       5808.50        71.4090         1.7536         2.4871         0.2606
       5809.00        69.8766         1.7769         2.4833         0.2719
       5809.50        68.6617         1.7886         2.4477         0.2555
       5810.00        73.0870         1.8044         2.4652         0.2643
       5810.50        73.2395         1.8025         2.4655         0.3165
       5811.00        75.9862         1.7925         2.4645         0.2757
       5811.50        72.7054         1.7682         2.4764         0.2963
       5812.00        74.8483         1.7371         2.4702         0.2920
       5812.50        75.7639         1.7297         2.4763         0.2899
       5813.00        77.3661         1.7019         2.4567         0.3388
       5813.50        75.2298         1.6698         2.4418         0.3900
       5814.00        76.4438         1.6710         2.4611         0.2943
       5814.50        76.2115         1.6505         2.4850         0.3526
       5815.00        76.5167         1.6098         2.5092         0.3770
       5815.50        83.0851         1.6131         2.4788         0.2631
       5816.00        84.9196         1.6472         2.4451         0.3430
       5816.50        84.0040         1.6390         2.4199         0.3259
       5817.00        80.1892         1.6733         2.4024         0.2692
       5817.50        78.6597         1.6841         2.3947         0.3760
       5818.00        79.1110         1.7074         2.4029         0.3321
       5818.50        78.3408         1.7264         2.4387         0.3080
       5819.00        78.8020         1.7530         2.4722         0.2576
       5819.50        80.4871         1.7585         2.4713         0.3013
       5820.00        75.3061         1.7578         2.4364         0.3236
       5820.50        71.1097         1.7672         2.4112         0.3668
       5821.00        69.2752         1.7849         2.4193         0.2892
       5821.50        72.4730         1.7876         2.4410         0.3000
       5822.00        72.3146         1.7861         2.4486         0.2885
       5822.50        71.5549         1.7771         2.4143         0.2697
       5823.00        69.2728         1.7809         2.3871         0.3425
       5823.50        73.0171         1.7558         2.3733         0.3943
       5824.00        74.0853         1.7446         2.3802         0.2803
       5824.50        75.9928         1.7151         2.3951         0.3174
       5825.00        74.9213         1.6739         2.3817         0.3912
       5825.50        77.0577         1.6723         2.3630         0.3732
       5826.00        79.9570         1.7003         2.3406         0.2975
       5826.50        86.2930         1.7765         2.3521         0.3832
       5827.00        84.7604         1.8289         2.3643         0.3552
       5827.50        85.9048         1.8295         2.3710         0.3729
       5828.00        86.2100         1.8163         2.3669         0.4290
       5828.50        90.9472         1.9691         2.3374         0.4273
       5829.00        97.2036         1.9422         2.2987         0.4468
       5829.50       100.4081         1.8791         2.2710         0.5049
       5830.00        99.9503         2.1371         2.2847         0.5075
       5830.50        93.8310         2.2012         2.2938         0.4822
       5831.00        94.4327         1.9717         2.2870         0.5095
       5831.50        98.5484         2.2855         2.2839         0.5099
       5832.00       101.5395         2.0916         2.2401         0.6301
       5832.50       108.2624         1.0899         2.1631         0.5858
       5833.00       111.6143         0.9790         1.9318         0.6017
       5833.50       120.9989         2.2918         1.8167         0.7664
       5834.00       127.8658         5.3030         1.7447         0.7698
       5834.50       140.6934         5.0249         1.7609         0.8507
       5835.00       150.1544         3.8956         1.7118         0.7089
       5835.50       159.2338         4.8058         1.6528         0.7086
       5836.00       158.9224         5.8531         1.5781         0.7663
       5836.50       152.0442         5.9757         1.5601         0.7551
       5837.00       136.3268         5.8541         1.5987         0.6901
       5837.50       129.6188         5.6642         1.6709         0.6448
