~Version Information Block
VERS .                  2.0:  CWLS LOG ASCII STANDARD - VERSION 2.0
WRAP .                   NO:  One line per depth step
~Well Information Block
#MNEM.UNIT        Data Type   Information
#---------- ----------------  -----------
STRT .FT            2200.00:  START DEPTH
STOP .FT            8176.50:  STOP DEPTH
STEP .FT               0.50:  STEP
NULL .              -999.25:  NULL VALUE
COMP .                     :  COMPANY
WELL .             SA-25RD1:  WELL
FLD  .                     :  FIELD
LOC  .                     :  LOCATION
CTRY .                     :  COUNTRY
STAT .                     :  STATE
CNTY .                     :  COUNTY
SRVC .                     :  SERVICE COMPANY
DATE .                     :  DATE
API  .                     :  API NUMBER
UWI  .                     :  UNIQUE WELL ID
~Curve Information Block
#MNEM.UNIT         API CODE   Curve Description
#---------- ----------------  -----------------
DEPTH.FT                   :  Bit Depth 2hz
GR   .GAPI                 :  ECO Gamma Ray
RT   .OHMM                 :  ECO Non-BHCorr Phase-Shift Resistivity 40-in. at 2 MHz
RHOB .G/C3                 :  Bulk Density  Bottom
NPHI .V/V                  :  Thermal Neutron Porosity (Ratio Method) in Selected Lithology
~Parameter Information Block
#MNEM.UNIT            Value   Description
#---------- ----------------  -----------
PROJECT.            SERANG_FE:  
~Other Information Block
# 
~A       DEPTH             GR             RT           RHOB           NPHI 
# ...
       3377.00        34.3332         2.3538         2.3121         0.3587
       3377.50        31.2559         2.7799         2.3343         0.3688
       3378.00        27.9489         3.5287         2.3600         0.2622
       3378.50        25.2525         4.7528         2.3368         0.3005
       3379.00        23.6798         5.7996         2.2022         0.3147
       3379.50        22.5937         6.2595         2.1276         0.2855
       3380.00        22.1417         6.2107         2.1319         0.3217
       3380.50        21.1961         5.8141         2.1996         0.3459
       3381.00        20.8625         5.2194         2.2231         0.3170
       3381.50        21.6119         4.5682         2.1834         0.3700
       3382.00        21.4898         4.0714         2.1207         0.3782
       3382.50        21.6408         3.7702         2.1125         0.4098
       3383.00        21.1665         3.2724         2.0896         0.3876
       3383.50        21.2326         2.9046         2.0835         0.3780
       3384.00        21.5434         2.7416         2.0708         0.3831
       3384.50        21.1888         2.6310         2.1008         0.3690
       3385.00        21.1685         2.5576         2.1337         0.3654
       3385.50        22.2594         2.5748         2.1761         0.3693
       3386.00        23.8589         2.5650         2.1980         0.3532
       3386.50        25.4107         2.5333         2.2118         0.2910
       3387.00        26.1941         2.5410         2.2226         0.3736
       3387.50        26.1549         2.5736         2.2158         0.3636
       3388.00        26.0532         2.5346         2.2116         0.3330
       3388.50        24.1203         2.5820         2.1851         0.3381
       3389.00        23.0674         2.5618         2.1925         0.3994
       3389.50        22.7622         2.5432         2.1699         0.3509
       3390.00        22.4062         2.4791         2.1607         0.3659
       3390.50        23.2450         2.4327         2.1207         0.3917
       3391.00        24.0830         2.4062         2.1277         0.4461
       3391.50        26.3974         2.3751         2.1435         0.3790
       3392.00        28.0237         2.3838         2.1551         0.3589
       3392.50        28.3048         2.4325         2.1609         0.3560
       3393.00        27.8457         2.4370         2.1575         0.3538
       3393.50        26.3331         2.4342         2.1729         0.3556
       3394.00        26.1805         2.4999         2.1735         0.3882
       3394.50        26.4615         2.6035         2.1883         0.3431
       3395.00        27.7979         2.7078         2.2239         0.3311
       3395.50        28.1540         2.7742         2.2535         0.3150
       3396.00        29.0950         2.8692         2.2785         0.3163
       3396.50        29.8305         2.9697         2.2806         0.3530
       3397.00        30.0329         3.0448         2.2852         0.3327
       3397.50        30.4128         3.1051         2.2621         0.3051
       3398.00        30.0560         3.1378         2.2443         0.3362
       3398.50        30.5657         3.1309         2.2280         0.3445
       3399.00        28.8875         3.1065         2.2180         0.3155
       3399.50        28.9913         3.1273         2.2459         0.3380
       3400.00        29.7783         3.1688         2.2649         0.3208
       3400.50        31.5344         3.1655         2.3066         0.3306
       3401.00        32.9204         3.1996         2.2990         0.2963
       3401.50        31.9299         3.2275         2.3190         0.2637
       3402.00        28.8017         3.3053         2.3054         0.2989
       3402.50        26.0176         3.4768         2.2962         0.3343
       3403.00        24.1865         3.5303         2.2747         0.3071
       3403.50        27.5436         3.5804         2.3069         0.2626
       3404.00        28.9932         3.7862         2.3539         0.2663
       3404.50        31.1767         4.2249         2.4105         0.2732
       3405.00        32.5998         4.2380         2.4235         0.2318
       3405.50        33.9214         3.6091         2.4502         0.2285
       3406.00        32.8660         3.7070         2.4639         0.1997
       3406.50        32.1832         3.8474         2.4736         0.2313
       3407.00        31.8418         3.8058         2.4869         0.2079
       3407.50        36.0279         3.9685         2.4928         0.2155
       3408.00        36.6857         4.1834         2.5297         0.2021
       3408.50        39.0106         4.1098         2.4913         0.2170
       3409.00        38.9590         4.1302         2.4725         0.2172
       3409.50        37.2770         3.6615         2.3936         0.2258
       3410.00        32.8844         4.0993         2.3322         0.2624
       3410.50        27.9572         4.5713         2.2636         0.2838
       3411.00        25.3162         3.9973         2.2370         0.2808
       3411.50        24.0768         3.4990         2.2188         0.3527
       3412.00        24.7180         3.3512         2.2151         0.3062
       3412.50        26.7882         3.4421         2.1960         0.3380
       3413.00        29.8783         3.3283         2.2136         0.3334
       3413.50        31.3425         3.3076         2.2250         0.3525
       3414.00        32.2987         3.6401         2.2757         0.3039
       3414.50        33.6212         4.3465         2.2845         0.2650
       3415.00        37.4732         4.4519         2.2989         0.2824
       3415.50        41.6938         4.5796         2.3316         0.2476
       3416.00        42.8876         4.4850         2.3805         0.2333
       3416.50        42.1391         4.0924         2.4127         0.2755
       3417.00        42.2914         3.1471         2.4579         0.3039
       3417.50        46.2859         2.6140         2.4505         0.2086
       3418.00        44.2004         5.7598         2.4596         0.1990
       3418.50        40.5397         4.8919         2.4259         0.2464
       3419.00        36.6219         3.2252         2.4261         0.2560
       3419.50        40.8946         3.3025         2.4103         0.2647
       3420.00        43.2839         3.5325         2.3933         0.3012
       3420.50        43.6905         2.6223         2.3738         0.2955
       3421.00        39.1116         3.1616         2.3633         0.2898
       3421.50        35.5514         3.4925         2.3418         0.3616
       3422.00        32.0422         3.4360         2.3340         0.2767
       3422.50        32.1958         3.3119         2.3329         0.3139
       3423.00        32.6546         2.9864         2.3227         0.3111
       3423.50        32.8072         2.4286         2.3163         0.2778
       3424.00        32.6285         2.3191         2.3049         0.3511
       3424.50        35.5774         2.1428         2.3260         0.3748
       3425.00        38.5794         1.9611         2.3308         0.4095
       3425.50        41.9626         1.7919         2.3474         0.3941
       3426.00        41.3535         1.6191         2.3432         0.3602
       3426.50        41.0737         1.4953         2.3553         0.3747
       3427.00        41.5289         1.6742         2.3508         0.4230
       3427.50        42.6734         1.8181         2.3454         0.4574
       3428.00        46.7172         1.7485         2.3306         0.4296
       3428.50        48.7767         1.7548         2.3295         0.4022
       3429.00        51.1801         1.8333         2.3244         0.4194
       3429.50        47.9740         1.8786         2.3326         0.5139
       3430.00        45.1440         1.9400         2.3146         0.4233
