~Version Information Block
VERS .                  2.0:  CWLS LOG ASCII STANDARD - VERSION 2.0
WRAP .                   NO:  One line per depth step
~Well Information Block
#MNEM.UNIT        Data Type   Information
#---------- ----------------  -----------
STRT .FT            2071.50:  START DEPTH
STOP .FT           10484.50:  STOP DEPTH
STEP .FT               0.50:  STEP
NULL .              -999.25:  NULL VALUE
COMP .                     :  COMPANY
WELL .          SA-25RD1BP1:  WELL
FLD  .                     :  FIELD
LOC  .                     :  LOCATION
CTRY .                     :  COUNTRY
STAT .                     :  STATE
CNTY .                     :  COUNTY
SRVC .                     :  SERVICE COMPANY
DATE .                     :  DATE
API  .                     :  API NUMBER
UWI  .                     :  UNIQUE WELL ID
~Curve Information Block
#MNEM.UNIT         API CODE   Curve Description
#---------- ----------------  -----------------
DEPTH.FT                   :  Bit Depth 2hz
GR   .GAPI                 :  Merged WIRE.GR_1 and WIRE_6125.GR_1 at 8490.50
RT   .OHMM                 :  Merged WIRE.RT_1 and WIRE_6125.RT_1 at 8497.50
RHOB .G/C3                 :  Merged WIRE.RHOB_1 and WIRE_6125.RHOB_1 at 8490.00
NPHI .V/V                  :  Merged WIRE.NPHI_1 and WIRE_6125.NPHI_1 at 8490.50
~Parameter Information Block
#MNEM.UNIT            Value   Description
#---------- ----------------  -----------
PROJECT.            SERANG_FE:  
~Other Information Block
# 
~A       DEPTH             GR             RT           RHOB           NPHI 
# ...
       3730.00        63.1460         1.4303         2.3511       0.331350
       3730.50        63.9063         1.5440         2.3430       0.329500
       3731.00        68.0264         1.5676         2.3406       0.327930
       3731.50        68.7894         1.5149         2.3427       0.327040
       3732.00        66.6536         1.5291         2.3499       0.328760
       3732.50        65.8143         1.4771         2.3496       0.336400
       3733.00        67.4420         1.5406         2.3431       0.333890
       3733.50        69.1231         1.5509         2.3370       0.331510
       3734.00        68.9156         1.6870         2.3373       0.335770
       3734.50        68.0736         1.7216         2.3335       0.330430
       3735.00        64.6176         1.7745         2.3337       0.321310
       3735.50        59.7386         1.8163         2.3242       0.316220
       3736.00        54.1701         1.8675         2.3165       0.305470
       3736.50        52.7443         1.9685         2.3081       0.297710
       3737.00        51.0658         2.0379         2.2856       0.286720
       3737.50        52.5932         2.1150         2.2684       0.272470
       3738.00        52.8476         2.1302         2.2442       0.267740
       3738.50        53.5851         2.0677         2.2431       0.266590
       3739.00        53.5088         2.0961         2.2249       0.258500
       3739.50        53.8664         2.1162         2.2075       0.256860
       3740.00        53.2560         2.1620         2.1933       0.257750
       3740.50        52.5671         2.1923         2.2057       0.256230
       3741.00        52.5115         2.0666         2.2335       0.257980
       3741.50        53.9611         1.9675         2.2576       0.261030
       3742.00        56.9390         2.0444         2.2668       0.260820
       3742.50        57.6791         2.2622         2.2611       0.263800
       3743.00        54.3220         2.3298         2.2465       0.262770
       3743.50        53.2793         2.3810         2.2395       0.257880
       3744.00        53.5485         2.1861         2.2358       0.254790
       3744.50        55.7598         2.5355         2.2245       0.243810
       3745.00        55.9987         3.0869         2.1970       0.226880
       3745.50        55.8079         3.7900         2.1859       0.210040
       3746.00        58.1218         3.8003         2.1605       0.194790
       3746.50        56.1520         4.3313         2.1256       0.176160
       3747.00        55.0053         4.9512         2.0559       0.165830
       3747.50        51.6485         7.1852         1.9788       0.157020
       3748.00        51.7516         8.1584         1.9351       0.151550
       3748.50        51.3724         6.9350         1.9483       0.147370
       3749.00        55.0817         5.6867         2.0290       0.144510
       3749.50        58.1845         3.9830         2.0930       0.151070
       3750.00        58.5636         3.2081         2.1163       0.166420
       3750.50        55.1594         3.3067         2.1233       0.184900
       3751.00        53.5186         4.3364         2.1736       0.204240
       3751.50        57.0561         3.5942         2.2783       0.221470
       3752.00        61.8687         2.6676         2.3667       0.235030
       3752.50        66.3030         2.2728         2.4021       0.251880
       3753.00        65.7435         2.1039         2.4080       0.269390
       3753.50        67.4687         2.0270         2.4083       0.281120
       3754.00        65.9951         2.1188         2.3811       0.304100
       3754.50        68.5363         2.0708         2.3588       0.322740
       3755.00        71.5882         2.2307         2.3454       0.334280
       3755.50        76.8518         1.9153         2.3580       0.341880
       3756.00        83.1612         1.7730         2.3581       0.349380
       3756.50        84.6108         1.6851         2.3627       0.357450
       3757.00        84.3855         1.6451         2.3564       0.369640
       3757.50        83.4662         1.5925         2.3611       0.377680
       3758.00        85.3430         1.5968         2.3548       0.385660
       3758.50        87.3268         1.7514         2.3503       0.407150
       3759.00        87.7883         1.8631         2.3369       0.415480
       3759.50        89.0570         1.7925         2.3284       0.429220
       3760.00        92.2615         1.7305         2.3103       0.431510
       3760.50        94.5422         1.6230         2.2869       0.437030
       3761.00        94.7539         1.6505         2.2546       0.438280
       3761.50        94.8556         1.6926         2.2195       0.445860
       3762.00        95.6185         1.8170         2.1953       0.453110
       3762.50        95.3614         1.8308         2.1763       0.463120
       3763.00        97.9301         1.6689         2.1765       0.467350
       3763.50        97.3280         1.7324         2.1989       0.469860
       3764.00       100.9901         1.5947         2.2480       0.486960
       3764.50       103.8131         1.3363         2.2954       0.492830
       3765.00       111.4429         1.6041         2.2993       0.503230
       3765.50       119.7115         1.6704         2.2589       0.505720
       3766.00       130.6984         1.6769         2.1938       0.524080
       3766.50       139.9007         1.7066         2.1254       0.525470
       3767.00       143.6313         1.8403         2.0734       0.519830
       3767.50       141.5458         1.9914         2.0450       0.508550
       3768.00       137.6462         1.9937         2.0581       0.498800
       3768.50       133.2998         1.9455         2.1086       0.490310
       3769.00       129.1251         1.9281         2.1717       0.459020
       3769.50       124.1276         1.7023         2.2419       0.441020
       3770.00       118.4108         1.5749         2.2973       0.434120
       3770.50       109.4113         1.6001         2.3451       0.431280
       3771.00       100.6116         1.7537         2.3676       0.417170
       3771.50       100.2016         1.6503         2.3618       0.412170
       3772.00        97.4548         1.6057         2.3537       0.414030
       3772.50        98.1641         1.5682         2.3382       0.419720
       3773.00        90.3265         1.4885         2.3297       0.427990
       3773.50        90.1739         1.4898         2.3257       0.425090
       3774.00        86.9722         1.3671         2.3281       0.431970
       3774.50        85.5020         1.2805         2.3295       0.434420
       3775.00        83.1622         1.3154         2.3203       0.429880
       3775.50        82.8522         1.2980         2.3175       0.428530
       3776.00        81.4814         1.4000         2.3158       0.421470
       3776.50        80.8456         1.5258         2.3207       0.416850
       3777.00        78.7582         1.5721         2.3222       0.410050
       3777.50        76.3676         1.6573         2.3214       0.399560
       3778.00        73.7989         1.7285         2.3195       0.392040
       3778.50        72.8859         1.7154         2.3158       0.388150
       3779.00        75.0707         1.7050         2.3163       0.389220
       3779.50        75.0155         1.6912         2.3194       0.390210
       3780.00        75.7826         1.6449         2.3220       0.384160
       3780.50        74.3080         1.6945         2.3158       0.377500
       3781.00        77.3061         1.6557         2.3150       0.378840
       3781.50        76.2379         1.6825         2.3101       0.382840
       3782.00        75.9855         1.6363         2.3021       0.384140
       3782.50        71.7201         1.7155         2.2811       0.387800
       3783.00        70.5970         1.8735         2.2662       0.383360
