~Version Information Block
VERS .                  2.0:  CWLS LOG ASCII STANDARD - VERSION 2.0
WRAP .                   NO:  One line per depth step
~Well Information Block
#MNEM.UNIT        Data Type   Information
#---------- ----------------  -----------
STRT .FT            2071.50:  START DEPTH
STOP .FT           10484.50:  STOP DEPTH
STEP .FT               0.50:  STEP
NULL .              -999.25:  NULL VALUE
COMP .                     :  COMPANY
WELL .          SA-25RD1BP1:  WELL
FLD  .                     :  FIELD
LOC  .                     :  LOCATION
CTRY .                     :  COUNTRY
STAT .                     :  STATE
CNTY .                     :  COUNTY
SRVC .                     :  SERVICE COMPANY
DATE .                     :  DATE
API  .                     :  API NUMBER
UWI  .                     :  UNIQUE WELL ID
~Curve Information Block
#MNEM.UNIT         API CODE   Curve Description
#---------- ----------------  -----------------
DEPTH.FT                   :  Bit Depth 2hz
GR   .GAPI                 :  Merged WIRE.GR_1 and WIRE_6125.GR_1 at 8490.50
RT   .OHMM                 :  Merged WIRE.RT_1 and WIRE_6125.RT_1 at 8497.50
RHOB .G/C3                 :  Merged WIRE.RHOB_1 and WIRE_6125.RHOB_1 at 8490.00
NPHI .V/V                  :  Merged WIRE.NPHI_1 and WIRE_6125.NPHI_1 at 8490.50
~Parameter Information Block
#MNEM.UNIT            Value   Description
#---------- ----------------  -----------
PROJECT.            SERANG_FE:  
~Other Information Block
# 
~A       DEPTH             GR             RT           RHOB           NPHI 
# ...
       9882.50        80.5290         1.8134         2.4672       0.297970
       9883.00        79.1641         1.8139         2.4756       0.295990
       9883.50        77.7992         1.7355         2.4456       0.297110
       9884.00        77.7992         1.7061         2.4634       0.297780
       9884.50        76.7755         1.6543         2.4619       0.301080
       9885.00        75.7518         1.6543         2.4566       0.305890
       9885.50        75.2400         1.6148         2.4388       0.309300
       9886.00        73.7727         1.5684         2.4003       0.312490
       9886.50        74.0116         1.5890         2.4150       0.314350
       9887.00        77.5262         1.5890         2.3943       0.317860
       9887.50        81.8939         1.5489         2.4161       0.321660
       9888.00        84.6237         1.4883         2.4149       0.327640
       9888.50        84.9649         1.4660         2.4076       0.331400
       9889.00        85.3061         1.4649         2.4334       0.335450
       9889.50        87.3535         1.4663         2.4073       0.333090
       9890.00        89.0596         1.4663         2.4205       0.330800
       9890.50        88.7184         1.4774         2.3905       0.327960
       9891.00        88.0359         1.4753         2.4161       0.325120
       9891.50        87.3535         1.5181         2.4354       0.321380
       9892.00        85.3061         1.5340         2.4187       0.318320
       9892.50        83.2588         1.5068         2.3892       0.319390
       9893.00        82.5763         1.5221         2.3980       0.322900
       9893.50        82.5763         1.4943         2.4418       0.326830
       9894.00        82.2351         1.4905         2.4744       0.327220
       9894.50        82.5763         1.4778         2.4371       0.330210
       9895.00        83.9412         1.4356         2.4057       0.333500
       9895.50        84.9649         1.4108         2.4098       0.340510
       9896.00        85.6473         1.3444         2.4341       0.346440
       9896.50        86.6710         1.3008         2.4016       0.354260
       9897.00        88.0359         1.3181         2.3733       0.359570
       9897.50        88.0359         1.3566         2.3621       0.362450
       9898.00        85.9886         1.3728         2.4276       0.362130
       9898.50        83.6000         1.3557         2.4551       0.361890
       9899.00        81.5526         1.3822         2.4604       0.364290
       9899.50        80.1877         1.4667         2.4232       0.370460
       9900.00        80.3584         1.5336         2.4342       0.377840
       9900.50        81.2114         1.5079         2.4564       0.380710
       9901.00        81.8939         1.5295         2.4588       0.380900
       9901.50        82.5763         1.6237         2.4360       0.379150
       9902.00        82.2351         1.6344         2.4240       0.383790
       9902.50        81.8939         1.6703         2.4393       0.383950
       9903.00        83.2588         1.6430         2.4355       0.383330
       9903.50        83.2588         1.6835         2.4295       0.378630
       9904.00        81.2114         1.6900         2.4449       0.376150
       9904.50        79.1641         1.6724         2.4460       0.370780
       9905.00        79.8465         1.6518         2.4462       0.363070
       9905.50        80.5290         1.6610         2.4073       0.356620
       9906.00        78.8228         1.6307         2.4323       0.353940
       9906.50        79.1641         1.6250         2.4036       0.354750
       9907.00        81.8939         1.6169         2.4152       0.352930
       9907.50        84.6237         1.6110         2.4007       0.353490
       9908.00        85.3061         1.6278         2.4362       0.353570
       9908.50        87.3535         1.6022         2.4430       0.354690
       9909.00        88.7184         1.5870         2.4294       0.353560
       9909.50        90.0832         1.5870         2.4193       0.352600
       9910.00        88.2065         1.5722         2.4147       0.350780
       9910.50        85.6473         1.6559         2.4380       0.346760
       9911.00        82.0645         1.8295         2.4324       0.338660
       9911.50        76.2637         2.2980         2.4448       0.325370
       9912.00        67.9037         3.3746         2.4422       0.307890
       9912.50        57.4963         3.3746         2.5013       0.288670
       9913.00        47.4302         4.7265         2.5412       0.269460
       9913.50        40.7763         6.1277         2.5622       0.251190
       9914.00        38.5584         6.9574         2.5562       0.232130
       9914.50        39.4114         6.9574         2.5927       0.213760
       9915.00        41.1175         7.2837         2.6240       0.197640
       9915.50        42.3118         7.0415         2.6392       0.182840
       9916.00        41.1175         7.0415         2.5460       0.168680
       9916.50        37.5347         9.2484         2.5274       0.155430
       9917.00        35.4873        11.2276         2.5553       0.145310
       9917.50        36.5110        11.7531         2.6499       0.139090
       9918.00        39.2408        10.8721         2.6830       0.136530
       9918.50        44.3592         8.0816         2.6479       0.138090
       9919.00        50.8424         6.7028         2.6276       0.141070
       9919.50        54.2547         5.9403         2.6118       0.144760
       9920.00        53.2310         5.0262         2.5696       0.145810
       9920.50        50.5012         5.4483         2.5090       0.145400
       9921.00        47.7714         7.6394         2.4566       0.145440
       9921.50        41.2882        10.5069         2.4858       0.145900
       9922.00        33.7812        11.1526         2.5517       0.147490
       9922.50        29.0041        11.3868         2.6113       0.148050
       9923.00        28.6629        10.9253         2.6337       0.147780
       9923.50        29.3453         8.9869         2.5764       0.144960
       9924.00        29.0041         8.2767         2.5307       0.143100
       9924.50        28.6629         7.4120         2.5255       0.141370
       9925.00        29.3453         7.0163         2.5229       0.142600
       9925.50        30.0278         8.1968         2.5148       0.145540
       9926.00        29.0041         7.8635         2.4680       0.148170
       9926.50        29.0041         8.4355         2.4566       0.150230
       9927.00        30.1984        10.2753         2.4890       0.149820
       9927.50        31.6486        10.8039         2.5203       0.148410
       9928.00        32.0751        10.8039         2.5482       0.144400
       9928.50        31.6486        11.2578         2.5673       0.139430
       9929.00        31.0514        11.5919         2.6008       0.132330
       9929.50        30.0278        12.1213         2.6423       0.125100
       9930.00        29.0041        12.1644         2.6746       0.117560
       9930.50        28.6629        11.6963         2.6802       0.112290
       9931.00        29.3453        11.4190         2.6558       0.109700
       9931.50        30.0278        11.0489         2.6123       0.110130
       9932.00        29.3453         9.2256         2.6228       0.112810
       9932.50        29.3453         9.2256         2.6218       0.116810
       9933.00        28.6629         9.7173         2.6059       0.121110
       9933.50        27.9804         9.2598         2.5759       0.125670
       9934.00        28.6629         9.2827         2.5929       0.129650
       9934.50        29.3453         9.0143         2.6001       0.133750
       9935.00        30.0278         8.8128         2.5977       0.138000
       9935.50        29.3453         8.4797         2.5893       0.142780
