~Version Information Block
VERS .                  2.0:  CWLS LOG ASCII STANDARD - VERSION 2.0
WRAP .                   NO:  One line per depth step
~Well Information Block
#MNEM.UNIT        Data Type   Information
#---------- ----------------  -----------
STRT .FT            2071.50:  START DEPTH
STOP .FT           10484.50:  STOP DEPTH
STEP .FT               0.50:  STEP
NULL .              -999.25:  NULL VALUE
COMP .                     :  COMPANY
WELL .          SA-25RD1BP1:  WELL
FLD  .                     :  FIELD
LOC  .                     :  LOCATION
CTRY .                     :  COUNTRY
STAT .                     :  STATE
CNTY .                     :  COUNTY
SRVC .                     :  SERVICE COMPANY
DATE .                     :  DATE
API  .                     :  API NUMBER
UWI  .                     :  UNIQUE WELL ID
~Curve Information Block
#MNEM.UNIT         API CODE   Curve Description
#---------- ----------------  -----------------
DEPTH.FT                   :  Bit Depth 2hz
GR   .GAPI                 :  Merged WIRE.GR_1 and WIRE_6125.GR_1 at 8490.50
RT   .OHMM                 :  Merged WIRE.RT_1 and WIRE_6125.RT_1 at 8497.50
RHOB .G/C3                 :  Merged WIRE.RHOB_1 and WIRE_6125.RHOB_1 at 8490.00
NPHI .V/V                  :  Merged WIRE.NPHI_1 and WIRE_6125.NPHI_1 at 8490.50
~Parameter Information Block
#MNEM.UNIT            Value   Description
#---------- ----------------  -----------
PROJECT.            SERANG_FE:  
~Other Information Block
# 
~A       DEPTH             GR             RT           RHOB           NPHI 
# ...
       4853.50        69.7744         1.3209         2.3384       0.434450
       4854.00        68.2005         1.2745         2.3378       0.433940
       4854.50        70.0139         1.2424         2.3377       0.424760
       4855.00        69.8968         1.1756         2.3367       0.423010
       4855.50        69.7116         1.2589         2.3424       0.425570
       4856.00        69.6292         1.3228         2.3386       0.436980
       4856.50        71.0270         1.3493         2.3371       0.434710
       4857.00        72.2487         1.3600         2.3307       0.430270
       4857.50        73.0808         1.4217         2.3339       0.435750
       4858.00        71.4181         1.3968         2.3306       0.434070
       4858.50        69.6888         1.3299         2.3318       0.436100
       4859.00        68.9000         1.3950         2.3302       0.442410
       4859.50        70.3088         1.3793         2.3403       0.448270
       4860.00        69.8758         1.3416         2.3422       0.453650
       4860.50        70.4185         1.4393         2.3516       0.445640
       4861.00        70.4934         1.4138         2.3504       0.433090
       4861.50        72.4790         1.3771         2.3552       0.429530
       4862.00        72.2733         1.4717         2.3521       0.432670
       4862.50        69.3235         1.4035         2.3560       0.425500
       4863.00        67.4923         1.4667         2.3586       0.424630
       4863.50        67.2910         1.4273         2.3567       0.428040
       4864.00        68.6346         1.4100         2.3545       0.430710
       4864.50        69.7030         1.4546         2.3527       0.428810
       4865.00        70.2338         1.4046         2.3504       0.432520
       4865.50        70.2105         1.4442         2.3481       0.435380
       4866.00        68.3813         1.5042         2.3445       0.439800
       4866.50        67.2869         1.5077         2.3465       0.444170
       4867.00        66.3714         1.6132         2.3422       0.440160
       4867.50        65.8080         1.5881         2.3356       0.445690
       4868.00        64.6139         1.5474         2.3310       0.444250
       4868.50        65.7875         1.6171         2.3334       0.438510
       4869.00        67.5209         1.6485         2.3356       0.428830
       4869.50        69.8858         1.6460         2.3421       0.426990
       4870.00        71.3077         1.5616         2.3362       0.425710
       4870.50        71.2569         1.5812         2.3345       0.428130
       4871.00        70.6464         1.6052         2.3295       0.427380
       4871.50        66.4760         1.6111         2.3233       0.423870
       4872.00        61.0297         1.6515         2.3155       0.425050
       4872.50        54.5716         1.7661         2.3017       0.419530
       4873.00        48.3168         1.8261         2.2950       0.418020
       4873.50        44.3504         1.8333         2.2846       0.418300
       4874.00        43.8418         1.8941         2.2797       0.419630
       4874.50        45.2660         1.8351         2.2803       0.418500
       4875.00        51.0164         1.8898         2.2849       0.414920
       4875.50        55.8482         1.9107         2.3056       0.410260
       4876.00        68.3466         1.6931         2.3209       0.407530
       4876.50        77.1436         1.4721         2.3454       0.404560
       4877.00        85.6376         1.3630         2.3560       0.405210
       4877.50        86.1557         1.2760         2.3693       0.410790
       4878.00        86.1804         1.3375         2.3696       0.418540
       4878.50        83.6879         1.6575         2.3711       0.432990
       4879.00        83.7364         1.6406         2.3628       0.440530
       4879.50        85.5456         1.5515         2.3459       0.451310
       4880.00        94.2969         1.5397         2.3167       0.453740
       4880.50       105.9016         1.4897         2.2692       0.451700
       4881.00       116.2236         1.4403         2.2201       0.457000
       4881.50       123.5937         1.6002         2.1654       0.459640
       4882.00       121.0982         1.7197         2.1602       0.463560
       4882.50       114.6928         1.6239         2.1993       0.460830
       4883.00       103.7593         1.6246         2.2780       0.451730
       4883.50       101.2144         1.5137         2.3451       0.440980
       4884.00       101.4178         1.3490         2.3904       0.434620
       4884.50       106.2020         1.3436         2.4111       0.418040
       4885.00       102.0827         1.3691         2.4168       0.407500
       4885.50       101.2150         1.3203         2.4102       0.407960
       4886.00        96.6835         1.3547         2.4191       0.403610
       4886.50        96.2753         1.3957         2.4081       0.404270
       4887.00        91.3877         1.4575         2.4067       0.392010
       4887.50        85.6699         1.5724         2.3998       0.390940
       4888.00        80.8407         1.6820         2.4152       0.384750
       4888.50        82.1198         1.7377         2.4257       0.371460
       4889.00        81.9904         1.7913         2.4339       0.365370
       4889.50        84.7139         1.8169         2.4392       0.365200
       4890.00        79.6783         1.7968         2.4279       0.364730
       4890.50        79.3753         1.8117         2.4183       0.363990
       4891.00        78.3037         1.8126         2.4160       0.362380
       4891.50        77.3881         1.7274         2.4324       0.366570
       4892.00        76.9812         1.6670         2.4314       0.370800
       4892.50        78.0224         1.6274         2.4302       0.364330
       4893.00        82.0662         1.6147         2.4270       0.372820
       4893.50        83.3308         1.6447         2.4207       0.386640
       4894.00        83.2048         1.5885         2.4143       0.391520
       4894.50        83.7315         1.5418         2.4001       0.399870
       4895.00        87.3500         1.5476         2.3894       0.404030
       4895.50        87.4761         1.5140         2.3804       0.409240
       4896.00        88.3991         1.4261         2.3741       0.411100
       4896.50        83.3106         1.4103         2.3750       0.406820
       4897.00        80.8208         1.3992         2.3677       0.408110
       4897.50        78.2197         1.3513         2.3631       0.416510
       4898.00        78.6286         1.3820         2.3563       0.416000
       4898.50        78.9359         1.4474         2.3521       0.404530
       4899.00        80.3124         1.4473         2.3512       0.403830
       4899.50        78.7355         1.4877         2.3547       0.397610
       4900.00        78.8373         1.4586         2.3639       0.398720
       4900.50        74.1616         1.5197         2.3646       0.394590
       4901.00        73.0171         1.5705         2.3603       0.397790
       4901.50        70.3681         1.6243         2.3587       0.398840
       4902.00        70.8258         1.6384         2.3551       0.399970
       4902.50        72.6293         1.6408         2.3535       0.394380
       4903.00        72.4299         1.7210         2.3487       0.390220
       4903.50        71.4635         1.6218         2.3537       0.396270
       4904.00        70.7536         1.6498         2.3529       0.393100
       4904.50        70.2959         1.6378         2.3532       0.399440
       4905.00        69.1514         1.6132         2.3487       0.403510
       4905.50        69.3506         1.6699         2.3544       0.405590
       4906.00        72.0949         1.5722         2.3541       0.402530
       4906.50        77.2068         1.5675         2.3546       0.398520
