~Version Information Block
VERS .                  2.0:  CWLS LOG ASCII STANDARD - VERSION 2.0
WRAP .                   NO:  One line per depth step
~Well Information Block
#MNEM.UNIT        Data Type   Information
#---------- ----------------  -----------
STRT .FT            2200.00:  START DEPTH
STOP .FT            8176.50:  STOP DEPTH
STEP .FT               0.50:  STEP
NULL .              -999.25:  NULL VALUE
COMP .                     :  COMPANY
WELL .             SA-25RD1:  WELL
FLD  .                     :  FIELD
LOC  .                     :  LOCATION
CTRY .                     :  COUNTRY
STAT .                     :  STATE
CNTY .                     :  COUNTY
SRVC .                     :  SERVICE COMPANY
DATE .                     :  DATE
API  .                     :  API NUMBER
UWI  .                     :  UNIQUE WELL ID
~Curve Information Block
#MNEM.UNIT         API CODE   Curve Description
#---------- ----------------  -----------------
DEPTH.FT                   :  Bit Depth 2hz
GR   .GAPI                 :  ECO Gamma Ray
RT   .OHMM                 :  ECO Non-BHCorr Phase-Shift Resistivity 40-in. at 2 MHz
RHOB .G/C3                 :  Bulk Density  Bottom
NPHI .V/V                  :  Thermal Neutron Porosity (Ratio Method) in Selected Lithology
~Parameter Information Block
#MNEM.UNIT            Value   Description
#---------- ----------------  -----------
PROJECT.            SERANG_FE:  
~Other Information Block
# 
~A       DEPTH             GR             RT           RHOB           NPHI 
# ...
       6961.50        78.0454         1.9671         2.4126         0.3614
       6962.00        78.5795         1.9478         2.4321         0.3867
       6962.50        79.7245         1.9818         2.4303         0.3817
       6963.00        78.6532         2.0120         2.4477         0.3585
       6963.50        78.3480         1.9615         2.4417         0.3856
       6964.00        78.5008         1.9466         2.4327         0.4029
       6964.50        81.0202         1.9040         2.4187         0.3915
       6965.00        80.4061         1.9150         2.3958         0.3573
       6965.50        80.5590         1.8876         2.4046         0.3910
       6966.00        83.0780         1.8680         2.4219         0.3975
       6966.50        82.7512         1.8445         2.4360         0.3841
       6967.00        82.9833         1.8713         2.4605         0.3843
       6967.50        80.8758         1.8667         2.4567         0.3552
       6968.00        80.0111         1.9343         2.4527         0.3648
       6968.50        77.9511         1.9200         2.4378         0.3712
       6969.00        77.2368         1.8981         2.4336         0.3620
       6969.50        78.2032         1.8835         2.4287         0.3730
       6970.00        78.8106         1.8595         2.4277         0.3253
       6970.50        77.6937         1.8578         2.4078         0.3363
       6971.00        74.0285         1.8671         2.4158         0.3645
       6971.50        72.7854         1.8833         2.4090         0.3002
       6972.00        72.3784         1.9102         2.4446         0.3256
       6972.50        76.1454         1.9326         2.4397         0.3151
       6973.00        75.2552         1.9669         2.4539         0.2845
       6973.50        76.1708         2.0157         2.4350         0.2936
       6974.00        73.8310         2.0407         2.4365         0.2953
       6974.50        72.9917         2.0399         2.4225         0.3091
       6975.00        70.3916         2.0766         2.4293         0.3040
       6975.50        66.9073         2.0625         2.4355         0.2887
       6976.00        66.7527         2.0781         2.4392         0.2735
       6976.50        68.1321         2.0620         2.4329         0.2499
       6977.00        68.9684         2.0571         2.4167         0.2769
       6977.50        69.3713         2.0570         2.4333         0.2938
       6978.00        68.3031         2.0611         2.4465         0.2538
       6978.50        69.3721         2.0678         2.4574         0.2949
       6979.00        70.7994         2.0523         2.4387         0.2974
       6979.50        70.3925         2.0624         2.4173         0.2919
       6980.00        68.9392         2.0549         2.4209         0.3450
       6980.50        67.5667         2.0321         2.4381         0.3079
       6981.00        67.7447         2.0584         2.4555         0.3101
       6981.50        70.2620         2.0368         2.4499         0.3075
       6982.00        71.2774         2.0305         2.4329         0.2717
       6982.50        73.4900         2.0524         2.4327         0.3191
       6983.00        74.8189         2.0379         2.4420         0.3417
       6983.50        76.3964         2.0459         2.4585         0.3090
       6984.00        76.4406         2.0202         2.4452         0.3684
       6984.50        76.0304         1.9656         2.4436         0.3141
       6985.00        72.9289         1.9702         2.4218         0.3091
       6985.50        74.4082         1.9538         2.4272         0.3130
       6986.00        72.5804         1.9710         2.4095         0.3418
       6986.50        74.2610         1.9350         2.4127         0.3288
       6987.00        71.5144         1.9452         2.4096         0.2946
       6987.50        73.4152         1.9389         2.4108         0.3769
       6988.00        73.3644         1.9650         2.4057         0.3166
       6988.50        74.6570         1.9592         2.4011         0.3346
       6989.00        73.4664         1.9310         2.4078         0.3517
       6989.50        73.9751         1.8897         2.4078         0.3156
       6990.00        73.8258         1.8839         2.4173         0.2611
       6990.50        76.7247         1.8700         2.4284         0.3476
       6991.00        80.5374         1.8716         2.4309         0.3526
       6991.50        83.2111         1.8232         2.4441         0.3737
       6992.00        79.7016         1.8277         2.4338         0.3727
       6992.50        76.3147         1.9640         2.4453         0.3627
       6993.00        74.8879         1.9560         2.4303         0.3094
       6993.50        77.6807         1.9957         2.4254         0.3574
       6994.00        77.2505         2.0134         2.4032         0.3815
       6994.50        78.6735         2.0051         2.3928         0.3324
       6995.00        77.7602         1.9310         2.3897         0.3397
       6995.50        79.1358         1.9151         2.3920         0.3159
       6996.00        77.9119         1.8506         2.3937         0.3743
       6996.50        79.0355         1.8650         2.3875         0.4021
       6997.00        79.6457         1.8409         2.3928         0.3583
       6997.50        78.5799         1.9097         2.3871         0.3598
       6998.00        81.1231         1.8485         2.3894         0.3701
       6998.50        79.9509         1.8541         2.3839         0.3494
       6999.00        80.7163         1.8722         2.3699         0.3711
       6999.50        80.6146         1.8489         2.3651         0.4074
       7000.00        81.8910         1.8899         2.3605         0.4074
       7000.50        81.9440         1.8938         2.3690         0.3144
       7001.00        78.8412         1.8672         2.3772         0.3788
       7001.50        77.1118         1.8910         2.3912         0.4081
       7002.00        77.6713         1.8800         2.4000         0.3516
       7002.50        78.5869         1.8084         2.4052         0.3542
       7003.00        79.5025         1.8558         2.4099         0.4016
       7003.50        78.4343         1.8920         2.4117         0.3581
       7004.00        77.0101         1.8787         2.4083         0.3704
       7004.50        78.1729         1.8701         2.3935         0.3505
       7005.00        79.7352         1.8505         2.3866         0.3973
       7005.50        80.5445         1.8515         2.3982         0.4344
       7006.00        82.0121         1.8361         2.4048         0.3744
       7006.50        82.3318         1.8531         2.4106         0.3629
       7007.00        82.5906         1.8555         2.3922         0.3641
       7007.50        79.2990         1.8322         2.3807         0.3996
       7008.00        78.7395         1.7885         2.3781         0.4210
       7008.50        78.5316         1.7297         2.3826         0.3764
       7009.00        78.8464         1.7808         2.3948         0.3766
       7009.50        78.1321         1.8013         2.4031         0.3532
       7010.00        77.7763         1.8463         2.3980         0.3752
       7010.50        80.0510         1.8144         2.4053         0.4242
       7011.00        78.4763         1.8314         2.4036         0.3393
       7011.50        80.6677         1.8091         2.4149         0.3386
       7012.00        81.2828         1.8364         2.3977         0.3848
       7012.50        83.7752         1.8072         2.3954         0.4003
       7013.00        81.6897         1.8138         2.3862         0.4713
       7013.50        80.7487         1.8372         2.3994         0.4242
       7014.00        79.8331         1.8923         2.4050         0.3678
       7014.50        80.1383         1.8729         2.4152         0.3908
