~Version Information Block
VERS .                  2.0:  CWLS LOG ASCII STANDARD - VERSION 2.0
WRAP .                   NO:  One line per depth step
~Well Information Block
#MNEM.UNIT        Data Type   Information
#---------- ----------------  -----------
STRT .FT            2200.00:  START DEPTH
STOP .FT            8176.50:  STOP DEPTH
STEP .FT               0.50:  STEP
NULL .              -999.25:  NULL VALUE
COMP .                     :  COMPANY
WELL .             SA-25RD1:  WELL
FLD  .                     :  FIELD
LOC  .                     :  LOCATION
CTRY .                     :  COUNTRY
STAT .                     :  STATE
CNTY .                     :  COUNTY
SRVC .                     :  SERVICE COMPANY
DATE .                     :  DATE
API  .                     :  API NUMBER
UWI  .                     :  UNIQUE WELL ID
~Curve Information Block
#MNEM.UNIT         API CODE   Curve Description
#---------- ----------------  -----------------
DEPTH.FT                   :  Bit Depth 2hz
GR   .GAPI                 :  ECO Gamma Ray
RT   .OHMM                 :  ECO Non-BHCorr Phase-Shift Resistivity 40-in. at 2 MHz
RHOB .G/C3                 :  Bulk Density  Bottom
NPHI .V/V                  :  Thermal Neutron Porosity (Ratio Method) in Selected Lithology
~Parameter Information Block
#MNEM.UNIT            Value   Description
#---------- ----------------  -----------
PROJECT.            SERANG_FE:  
~Other Information Block
# 
~A       DEPTH             GR             RT           RHOB           NPHI 
# ...
       2574.50        80.6419         1.2070         2.2301         0.4788
       2575.00        79.9951         1.1648         2.2206         0.4634
       2575.50        77.5908         1.1027         2.2207         0.4645
       2576.00        77.1712         1.1179         2.2221         0.4911
       2576.50        75.3858         1.1629         2.2362         0.4516
       2577.00        73.2522         1.2710         2.2509         0.4286
       2577.50        71.7186         1.5454         2.2437         0.4291
       2578.00        76.9105         1.5436         2.2223         0.4502
       2578.50        85.6064         1.1985         2.1962         0.4906
       2579.00        91.7546         1.0534         2.1881         0.4957
       2579.50        94.6542         1.0197         2.1943         0.5254
       2580.00        92.3354         0.9859         2.2058         0.5709
       2580.50        90.7040         0.9478         2.2112         0.4589
       2581.00        84.1955         1.0144         2.2175         0.4839
       2581.50        78.2154         1.1282         2.2083         0.4608
       2582.00        67.1827         1.1547         2.1731         0.4027
       2582.50        54.3675         1.0542         2.1084         0.4213
       2583.00        38.1619         0.9167         2.0569         0.3994
       2583.50        28.3186         0.8730         2.0200         0.4638
       2584.00        23.4361         0.8663         2.0093         0.3801
       2584.50        25.0549         0.8513         2.0115         0.3907
       2585.00        24.9938         0.8942         2.0303         0.3579
       2585.50        27.1611         0.8940         2.0265         0.4060
       2586.00        25.9393         0.8756         2.0081         0.4012
       2586.50        23.9248         0.8652         1.9988         0.4139
       2587.00        20.8725         0.8669         2.0001         0.4015
       2587.50        20.1102         0.8600         2.0006         0.4225
       2588.00        21.3792         0.8263         2.0104         0.4089
       2588.50        22.8699         0.8351         2.0213         0.3788
       2589.00        23.1140         0.8715         2.0284         0.4013
       2589.50        24.6829         0.8769         2.0258         0.4154
       2590.00        28.9302         0.9104         2.0391         0.3690
       2590.50        42.0603         1.0052         2.0952         0.3587
       2591.00        57.2452         1.1745         2.1618         0.4076
       2591.50        70.1362         1.1931         2.2168         0.4311
       2592.00        73.8531         1.1779         2.2375         0.4264
       2592.50        74.9182         1.2445         2.2341         0.4421
       2593.00        75.1505         1.2854         2.2496         0.4795
       2593.50        75.6571         1.2979         2.2387         0.4701
       2594.00        74.4393         1.2340         2.2265         0.5049
       2594.50        75.2488         1.1800         2.2077         0.5195
       2595.00        75.8103         1.1399         2.2000         0.5277
       2595.50        76.7447         1.1020         2.1992         0.5355
       2596.00        78.6018         1.0885         2.2059         0.4333
       2596.50        78.8007         1.1625         2.2188         0.4682
       2597.00        76.9507         1.2598         2.2292         0.5332
       2597.50        74.6403         1.2358         2.2468         0.4798
       2598.00        75.2807         1.1946         2.2553         0.5057
       2598.50        77.6968         1.1829         2.2683         0.5077
       2599.00        78.2531         1.1481         2.2560         0.5115
       2599.50        79.7537         1.0860         2.2343         0.5224
       2600.00        78.7872         1.0612         2.2209         0.5041
       2600.50        80.0039         1.1292         2.2150         0.4013
       2601.00        77.9162         1.1671         2.2244         0.4410
       2601.50        79.5439         1.1567         2.2233         0.5055
       2602.00        77.4113         1.0751         2.2296         0.5241
       2602.50        77.2320         1.0476         2.2304         0.4802
       2603.00        78.2445         1.0783         2.2426         0.4263
       2603.50        79.2362         1.0998         2.2478         0.5161
       2604.00        81.8592         1.1274         2.2518         0.5208
       2604.50        79.0631         1.1247         2.2489         0.4781
       2605.00        80.0588         1.0884         2.2344         0.5032
       2605.50        78.2253         1.1210         2.2253         0.5302
       2606.00        82.8827         0.9725         2.2192         0.4554
       2606.50        83.5948         0.9008         2.2141         0.5098
       2607.00        84.4873         0.9327         2.2223         0.5588
       2607.50        83.7472         0.9926         2.2188         0.4692
       2608.00        82.8824         1.0553         2.2238         0.5329
       2608.50        83.8234         0.9979         2.2236         0.5027
       2609.00        83.4154         0.9942         2.2243         0.4611
       2609.50        86.7217         1.0726         2.2274         0.4757
       2610.00        90.5111         1.0699         2.2101         0.5361
       2610.50        94.9401         1.0729         2.2121         0.5322
       2611.00        97.1273         1.0244         2.1844         0.4868
       2611.50        96.5881         1.0030         2.1719         0.5302
       2612.00        98.6458         0.9590         2.1285         0.4933
       2612.50       104.0438         0.9321         2.1075         0.5492
       2613.00       112.4872         1.0623         2.0954         0.5765
       2613.50       121.6276         1.2026         2.0749         0.5569
       2614.00       127.8014         1.2156         2.0657         0.5314
       2614.50       134.9788         1.1855         2.0515         0.6169
       2615.00       138.4592         1.1779         2.0596         0.5236
       2615.50       141.6383         1.1077         2.0729         0.5904
       2616.00       143.7746         1.0594         2.0594         0.6318
       2616.50       143.7453         1.0042         2.0534         0.5939
       2617.00       149.8492         0.9239         2.0402         0.5912
       2617.50       156.4983         0.9154         2.0367         0.6094
       2618.00       166.5278         0.9715         2.0104         0.6416
       2618.50       168.8604         1.0124         1.9870         0.5967
       2619.00       162.6182         1.1037         1.9935         0.6563
       2619.50       148.2652         1.0892         2.0238         0.6785
       2620.00       134.1791         1.0542         2.0704         0.5174
       2620.50       128.5980         1.0018         2.1151         0.5316
       2621.00       130.2619         1.0620         2.1707         0.5151
       2621.50       129.4465         1.0185         2.2097         0.5180
       2622.00       122.4336         1.1357         2.2522         0.4106
       2622.50       111.3327         1.2886         2.2757         0.4034
       2623.00       101.0615         1.4985         2.2968         0.3623
       2623.50        93.1033         1.6614         2.2959         0.3435
       2624.00        86.3714         1.7940         2.3008         0.3673
       2624.50        80.5211         1.9707         2.2938         0.3664
       2625.00        72.5870         2.1366         2.2557         0.3581
       2625.50        65.1521         2.3288         2.1692         0.4086
       2626.00        56.6573         2.5193         2.0729         0.4052
       2626.50        50.4127         2.7600         1.9940         0.3435
       2627.00        45.3779         3.0228         1.9490         0.3139
       2627.50        40.9539         3.1856         1.9414         0.3137
