~Version Information Block
VERS .                  2.0:  CWLS LOG ASCII STANDARD - VERSION 2.0
WRAP .                   NO:  One line per depth step
~Well Information Block
#MNEM.UNIT        Data Type   Information
#---------- ----------------  -----------
STRT .FT            3121.50:  START DEPTH
STOP .FT            8357.50:  STOP DEPTH
STEP .FT               0.50:  STEP
NULL .              -999.25:  NULL VALUE
COMP .                     :  COMPANY
WELL .                SA-21:  WELL
FLD  .                     :  FIELD
LOC  .                     :  LOCATION
CTRY .                     :  COUNTRY
STAT .                     :  STATE
CNTY .                     :  COUNTY
SRVC .                     :  SERVICE COMPANY
DATE .                     :  DATE
API  .                     :  API NUMBER
UWI  .                     :  UNIQUE WELL ID
~Curve Information Block
#MNEM.UNIT         API CODE   Curve Description
#---------- ----------------  -----------------
DEPTH.FT                   :  DEPTH
GR   .GAPI                 :  Gamma Ray
RT   .OHMM                 :  Deep resistivity
RHOB .G/C3                 :  Bulk density
NPHI .V/V                  :  Neutron porosity
DT   .US/F                 :  Sonic
~Parameter Information Block
#MNEM.UNIT            Value   Description
#---------- ----------------  -----------
PROJECT.            SERANG_FE:  
~Other Information Block
# 
~A       DEPTH             GR             RT           RHOB           NPHI             DT 
# ...
       3477.50        27.7188         2.6900         2.1100       0.323700       102.3000
       3478.00        29.2344         2.6400         2.1300       0.361400       100.2000
       3478.50        30.4688         2.6400         2.1500       0.360800        99.5000
       3479.00        33.8125         2.6500         2.1500       0.365900        99.5000
       3479.50        34.8438         2.6900         2.1400       0.339200       100.7000
       3480.00        37.7812         2.7400         2.1400       0.335800        99.5000
       3480.50        35.3438         2.8100         2.1600       0.332000        97.5000
       3481.00        36.2500         2.8900         2.1800       0.326600        95.9000
       3481.50        33.7812         2.9700         2.2000       0.316200        94.5000
       3482.00        32.9688         3.0300         2.2200       0.316000        93.1000
       3482.50        29.8750         3.1000         2.2200       0.304000        94.2000
       3483.00        31.6094         3.1600         2.2300       0.298900        93.7000
       3483.50        35.0938         3.2000         2.2300       0.287800        94.7000
       3484.00        36.1250         3.2400         2.2300       0.281600        95.2000
       3484.50        36.3125         3.2700         2.2300       0.286300        94.7000
       3485.00        38.1250         3.2900         2.2200       0.288500        94.4000
       3485.50        39.7188         3.3100         2.2100       0.287000        94.9000
       3486.00        40.6250         3.3300         2.2200       0.288600        96.4000
       3486.50        37.3750         3.3400         2.2400       0.282100        93.4000
       3487.00        36.0625         3.3700         2.2700       0.271600        91.6000
       3487.50        35.4375         3.4100         2.3000       0.256200        91.5000
       3488.00        35.9688         3.4300         2.3300       0.254700        90.2000
       3488.50        36.5938         3.4600         2.3600       0.253200        90.4000
       3489.00        37.3750         3.4800         2.3700       0.238500        92.0000
       3489.50        37.4062         3.5000         2.3900       0.224500        93.2000
       3490.00        38.5625         3.5000         2.4000       0.228000        92.5000
       3490.50        40.1250         3.4800         2.3800       0.245800        94.6000
       3491.00        44.3750         3.4600         2.3700       0.259400        96.9000
       3491.50        43.0938         3.4500         2.3400       0.265700        98.8000
       3492.00        38.5312         3.4300         2.3000       0.301000       102.2000
       3492.50        34.5312         3.3400         2.2300       0.324600       100.0000
       3493.00        36.2812         3.2900         2.2000       0.349300       102.3000
       3493.50        39.2500         3.2600         2.1700       0.338300       104.1000
       3494.00        38.5938         3.2500         2.1800       0.307500        99.4000
       3494.50        36.8438         3.2600         2.1800       0.286800        96.9000
       3495.00        36.0625         3.2700         2.2100       0.260300        96.1000
       3495.50        37.4688         3.2700         2.2300       0.281400        95.7000
       3496.00        40.1875         3.2700         2.2800       0.273700        88.4000
       3496.50        42.6562         3.2800         2.3200       0.273000        88.2000
       3497.00        48.7812         3.3200         2.3700       0.258600        90.3000
       3497.50        52.8125         3.3600         2.3500       0.263600        92.0000
       3498.00        53.1250         3.4000         2.3300       0.256700        89.0000
       3498.50        48.3125         3.4500         2.3600       0.227200        79.0000
       3499.00        40.9375         3.5000         2.4200       0.185500        74.1000
       3499.50        36.0312         3.5200         2.4700       0.156800        73.8000
       3500.00        36.7188         3.5200         2.4800       0.172400        73.0000
       3500.50        39.8750         3.4600         2.4700       0.217500        84.3000
       3501.00        45.9062         3.4300         2.4300       0.262000        90.5000
       3501.50        47.0000         3.4000         2.4100       0.283800        92.0000
       3502.00        49.2812         3.3600         2.4100       0.270500        96.5000
       3502.50        50.7188         3.3200         2.4200       0.260900        96.8000
       3503.00        53.1875         3.2100         2.3700       0.272500       100.1000
       3503.50        52.8125         3.0200         2.3100       0.330100       107.9000
       3504.00        51.5938         2.8300         2.2700       0.353600       112.3000
       3504.50        46.3125         2.6600         2.2700       0.363600       114.6000
       3505.00        44.6250         2.5600         2.2800       0.361900       119.0000
       3505.50        41.0312         2.4900         2.2800       0.361900       116.0000
       3506.00        43.9688         2.4000         2.2700       0.403000       113.8000
       3506.50        42.6875         2.3000         2.2400       0.407500       115.3000
       3507.00        44.9062         2.2300         2.2000       0.441000       119.9000
       3507.50        40.6875         2.1900         2.1700       0.414700       121.2000
       3508.00        42.3438         2.1500         2.1700       0.424700       124.5000
       3508.50        39.5625         2.1200         2.1700       0.411600       123.6000
       3509.00        41.8750         2.0800         2.1700       0.431000       125.9000
       3509.50        42.3750         2.0300         2.1800       0.419200       128.1000
       3510.00        48.1875         2.0000         2.2100       0.418000       127.8000
       3510.50        48.6875         1.9700         2.2300       0.404600       125.4000
       3511.00        49.4375         1.9500         2.2600       0.406300       123.6000
       3511.50        46.1875         1.9400         2.2800       0.419200       121.2000
       3512.00        46.3125         1.9300         2.2900       0.401800       121.8000
       3512.50        52.8438         1.9000         2.2900       0.400900       123.2000
       3513.00        56.8750         1.8600         2.2700       0.392400       125.1000
       3513.50        60.3750         1.8200         2.2700       0.404900       125.3000
       3514.00        54.2188         1.8000         2.2700       0.406800       127.6000
       3514.50        52.4062         1.7800         2.2600       0.396800       125.9000
       3515.00        53.4688         1.7800         2.2600       0.434600       124.9000
       3515.50        54.4375         1.7500         2.2600       0.423800       125.7000
       3516.00        57.3750         1.7300         2.2300       0.425800       127.8000
       3516.50        54.2812         1.7000         2.2100       0.389600       127.6000
       3517.00        58.1250         1.6700         2.1900       0.390600       127.2000
       3517.50        57.3438         1.6600         2.1800       0.393900       128.1000
       3518.00        57.2500         1.6400         2.1900       0.421600       128.5000
       3518.50        54.4688         1.6200         2.2100       0.447200       127.4000
       3519.00        55.5000         1.6200         2.2500       0.439300       127.7000
       3519.50        56.1250         1.6100         2.2800       0.433500       126.3000
       3520.00        57.5938         1.6000         2.2600       0.395600       126.4000
       3520.50        51.8750         1.5900         2.2300       0.424700       127.1000
       3521.00        50.5625         1.5700         2.2000       0.437400       126.8000
       3521.50        45.3438         1.5600         2.1900       0.473400       125.7000
