~Version Information Block
VERS .                  2.0:  CWLS LOG ASCII STANDARD - VERSION 2.0
WRAP .                   NO:  One line per depth step
~Well Information Block
#MNEM.UNIT        Data Type   Information
#---------- ----------------  -----------
STRT .FT            2988.00:  START DEPTH
STOP .FT            9585.50:  STOP DEPTH
STEP .FT               0.50:  STEP
NULL .              -999.25:  NULL VALUE
COMP .                     :  COMPANY
WELL .              SA-24HZ:  WELL
FLD  .                     :  FIELD
LOC  .                     :  LOCATION
CTRY .                     :  COUNTRY
STAT .                     :  STATE
CNTY .                     :  COUNTY
SRVC .                     :  SERVICE COMPANY
DATE .                     :  DATE
API  .                     :  API NUMBER
UWI  .                     :  UNIQUE WELL ID
~Curve Information Block
#MNEM.UNIT         API CODE   Curve Description
#---------- ----------------  -----------------
DEPTH.FT                   :  DEPTH
GR   .GAPI                 :  Gamma Ray
RT   .OHMM                 :  Deep resistivity
RHOB .G/C3                 :  Bulk density
NPHI .V/V                  :  Neutron porosity
~Parameter Information Block
#MNEM.UNIT            Value   Description
#---------- ----------------  -----------
PROJECT.            SERANG_FE:  
~Other Information Block
# 
~A       DEPTH             GR             RT           RHOB           NPHI 
# ...
       3844.00        36.8700         2.8800         2.1000       0.180000
       3844.50        36.4300         2.8800         2.0900       0.180000
       3845.00        38.6500         3.0100         2.0800       0.180000
       3845.50        43.4200         3.0400         2.0700       0.190000
       3846.00        45.5600         2.9500         2.0700       0.200000
       3846.50        47.3900         2.9900         2.0900       0.210000
       3847.00        45.0000         3.0200         2.1200       0.210000
       3847.50        42.5800         2.9600         2.1300       0.210000
       3848.00        42.5000         2.9200         2.1300       0.200000
       3848.50        43.3300         2.9400         2.1200       0.200000
       3849.00        43.6500         2.9400         2.1100       0.200000
       3849.50        41.6700         2.6600         2.1100       0.200000
       3850.00        41.6200         2.5700         2.1300       0.200000
       3850.50        43.1300         2.6600         2.1600       0.200000
       3851.00        47.6800         2.6800         2.1900       0.210000
       3851.50        49.9700         2.5500         2.2100       0.230000
       3852.00        50.9300         2.5300         2.2100       0.270000
       3852.50        48.8000         2.6000         2.2200       0.290000
       3853.00        47.7100         2.5800         2.2200       0.310000
       3853.50        47.1900         2.5600         2.2300       0.310000
       3854.00        51.1500         2.7800         2.2400       0.320000
       3854.50        55.6300         2.8800         2.2500       0.320000
       3855.00        60.3300         3.0900         2.2700       0.320000
       3855.50        61.4300         3.1000         2.2800       0.320000
       3856.00        59.8300         3.3600         2.2500       0.310000
       3856.50        57.1100         3.3800         2.2200       0.310000
       3857.00        48.7500         3.5300         2.2000       0.300000
       3857.50        42.7900         3.7000         2.2200       0.270000
       3858.00        37.8000         3.7700         2.2100       0.230000
       3858.50        36.9900         4.1800         2.1000       0.200000
       3859.00        39.7700         4.2800         2.0100       0.190000
       3859.50        43.3000         4.8300         1.9800       0.180000
       3860.00        47.7800         5.0700         1.9800       0.180000
       3860.50        47.2900         5.3100         1.9900       0.170000
       3861.00        45.8200         5.3400         2.0100       0.170000
       3861.50        44.3500         5.3600         2.0100       0.160000
       3862.00        42.0000         5.3500         1.9800       0.150000
       3862.50        39.6600         4.9600         1.9500       0.130000
       3863.00        38.5500         4.8800         1.9100       0.120000
       3863.50        37.3400         4.8400         1.8800       0.110000
       3864.00        36.1700         4.9300         1.8700       0.100000
       3864.50        35.4400         4.7900         1.8700       0.100000
       3865.00        36.1700         4.7400         1.8800       0.090000
       3865.50        36.9000         4.4700         1.8800       0.090000
       3866.00        39.3900         4.4100         1.8900       0.080000
       3866.50        44.1300         4.3900         1.9100       0.090000
       3867.00        49.4900         4.8200         1.9500       0.100000
       3867.50        50.0100         4.3400         1.9900       0.110000
       3868.00        48.9300         4.1800         2.0400       0.130000
       3868.50        47.6000         4.0700         2.0800       0.140000
       3869.00        47.4500         3.8200         2.0900       0.150000
       3869.50        44.8800         3.7100         2.0900       0.160000
       3870.00        42.9000         3.2700         2.0900       0.160000
       3870.50        41.2900         3.1300         2.0900       0.170000
       3871.00        45.6300         3.1000         2.0900       0.170000
       3871.50        49.5300         2.6800         2.1200       0.180000
       3872.00        56.3500         2.7000         2.1500       0.190000
       3872.50        61.9200         2.7000         2.1800       0.210000
       3873.00        67.8000         2.4800         2.2100       0.220000
       3873.50        65.8900         2.3200         2.2400       0.240000
       3874.00        63.3100         2.3000         2.2800       0.250000
       3874.50        62.5400         2.1500         2.3300       0.260000
       3875.00        67.1500         2.0200         2.3900       0.270000
       3875.50        71.1900         2.0100         2.4300       0.290000
       3876.00        71.0000         1.9000         2.4400       0.310000
       3876.50        70.4400         1.8600         2.4300       0.320000
       3877.00        69.5600         1.8400         2.4300       0.340000
       3877.50        71.4500         1.8100         2.4300       0.360000
       3878.00        73.2800         1.8700         2.4400       0.380000
       3878.50        74.3000         1.8800         2.4400       0.390000
       3879.00        74.2400         1.9000         2.4300       0.410000
       3879.50        73.6000         1.9000         2.4100       0.410000
       3880.00        73.3200         1.8700         2.4000       0.410000
       3880.50        74.5700         1.8700         2.3900       0.400000
       3881.00        72.8900         1.8700         2.3800       0.390000
       3881.50        69.2200         1.8400         2.3600       0.380000
       3882.00        63.5700         1.8200         2.3500       0.380000
       3882.50        60.8200         1.8600         2.3400       0.380000
       3883.00        60.0100         1.8700         2.3200       0.380000
       3883.50        59.3100         1.8900         2.3100       0.380000
       3884.00        58.3500         1.9300         2.3000       0.370000
       3884.50        62.6300         1.9400         2.3100       0.360000
       3885.00        70.8200         1.8800         2.3200       0.350000
       3885.50        78.7100         1.8600         2.3200       0.360000
       3886.00        81.0300         1.9200         2.3300       0.380000
       3886.50        80.8200         1.8700         2.3300       0.410000
       3887.00        81.9600         1.8500         2.3300       0.440000
       3887.50        80.4300         1.8200         2.3200       0.460000
       3888.00        76.8200         1.8000         2.3000       0.460000
       3888.50        74.6600         1.7900         2.2900       0.460000
       3889.00        76.2700         1.8100         2.2800       0.460000
       3889.50        79.0600         1.8200         2.2700       0.460000
       3890.00        79.7500         1.8000         2.2900       0.470000
       3890.50        76.5500         1.7900         2.3100       0.490000
       3891.00        72.8000         1.7400         2.3300       0.500000
       3891.50        73.8200         1.7300         2.3500       0.500000
       3892.00        79.2300         1.7900         2.3700       0.490000
       3892.50        83.3100         1.7100         2.3800       0.470000
       3893.00        81.8500         1.6600         2.3700       0.440000
       3893.50        81.2700         1.7000         2.3600       0.420000
       3894.00        83.5100         1.7100         2.3500       0.410000
       3894.50        85.5500         1.7600         2.3600       0.410000
       3895.00        85.0400         1.7800         2.3700       0.420000
       3895.50        85.9200         1.7900         2.3800       0.440000
       3896.00        89.6000         1.8400         2.3700       0.450000
       3896.50        94.0000         1.8700         2.3200       0.460000
       3897.00       103.0900         1.9300         2.2500       0.470000
