~Version Information Block
VERS .                  2.0:  CWLS LOG ASCII STANDARD - VERSION 2.0
WRAP .                   NO:  One line per depth step
~Well Information Block
#MNEM.UNIT        Data Type   Information
#---------- ----------------  -----------
STRT .FT            2988.00:  START DEPTH
STOP .FT            9585.50:  STOP DEPTH
STEP .FT               0.50:  STEP
NULL .              -999.25:  NULL VALUE
COMP .                     :  COMPANY
WELL .              SA-24HZ:  WELL
FLD  .                     :  FIELD
LOC  .                     :  LOCATION
CTRY .                     :  COUNTRY
STAT .                     :  STATE
CNTY .                     :  COUNTY
SRVC .                     :  SERVICE COMPANY
DATE .                     :  DATE
API  .                     :  API NUMBER
UWI  .                     :  UNIQUE WELL ID
~Curve Information Block
#MNEM.UNIT         API CODE   Curve Description
#---------- ----------------  -----------------
DEPTH.FT                   :  DEPTH
GR   .GAPI                 :  Gamma Ray
RT   .OHMM                 :  Deep resistivity
RHOB .G/C3                 :  Bulk density
NPHI .V/V                  :  Neutron porosity
~Parameter Information Block
#MNEM.UNIT            Value   Description
#---------- ----------------  -----------
PROJECT.            SERANG_FE:  
~Other Information Block
# 
~A       DEPTH             GR             RT           RHOB           NPHI 
# ...
       6465.50        16.0500         0.5800         2.1800       0.380000
       6466.00        17.9600         0.5800         2.1800       0.400000
       6466.50        19.1300         0.5800         2.1700       0.410000
       6467.00        17.5100         0.5900         2.1600       0.400000
       6467.50        15.4600         0.6300         2.1500       0.390000
       6468.00        15.6100         0.6300         2.1400       0.380000
       6468.50        14.7300         0.6200         2.1400       0.380000
       6469.00        14.9500         0.6200         2.1600       0.390000
       6469.50        12.7200         0.6400         2.1900       0.390000
       6470.00        13.0900         0.6400         2.2000       0.390000
       6470.50        14.1800         0.6300         2.2000       0.390000
       6471.00        15.4600         0.6300         2.1900       0.380000
       6471.50        17.0700         0.6600         2.1800       0.370000
       6472.00        16.8500         0.6500         2.1800       0.370000
       6472.50        16.8100         0.6500         2.1900       0.370000
       6473.00        16.4500         0.6500         2.1900       0.360000
       6473.50        15.4900         0.6500         2.1900       0.360000
       6474.00        16.4900         0.6000         2.1900       0.350000
       6474.50        17.2200         0.6100         2.2000       0.350000
       6475.00        16.2900         0.6400         2.1900       0.360000
       6475.50        14.2300         0.6200         2.1900       0.380000
       6476.00        12.9100         0.6200         2.1800       0.390000
       6476.50        12.8100         0.6000         2.1800       0.380000
       6477.00        12.8800         0.6500         2.1800       0.360000
       6477.50        13.1100         0.6500         2.1800       0.360000
       6478.00        10.8400         0.7000         2.1900       0.370000
       6478.50        10.9900         0.7400         2.1900       0.340000
       6479.00        10.7600         0.8500         2.1800       0.330000
       6479.50        13.3200         0.8500         2.1700       0.340000
       6480.00        17.5000         0.9400         2.1600       0.370000
       6480.50        22.2800         0.9300         2.1300       0.370000
       6481.00        30.9400         0.9800         2.1400       0.360000
       6481.50        37.2600         0.9800         2.1600       0.380000
       6482.00        44.6000         0.9900         2.1500       0.420000
       6482.50        52.0900         0.9500         2.1600       0.410000
       6483.00        53.7000         0.9500         2.2300       0.390000
       6483.50        56.2600         0.9000         2.3200       0.350000
       6484.00        53.5500         0.9600         2.3600       0.340000
       6484.50        49.4200         0.9600         2.3600       0.340000
       6485.00        43.2200         0.9200         2.3100       0.340000
       6485.50        38.6000         0.9300         2.2900       0.350000
       6486.00        35.5400         1.0200         2.3900       0.370000
       6486.50        30.7300         1.0200         2.4800       0.380000
       6487.00        26.6900         1.0200         2.4100       0.390000
       6487.50        30.3600         1.1200         2.3400       0.390000
       6488.00        37.9200         1.1800         2.3200       0.390000
       6488.50        50.8400         1.3700         2.2300       0.390000
       6489.00        66.9900         1.4100         2.1600       0.380000
       6489.50        84.9700         1.3600         2.1600       0.380000
       6490.00       101.7800         1.4300         2.1500       0.380000
       6490.50       116.5300         1.4700         2.1400       0.390000
       6491.00       123.3600         1.4700         2.1900       0.400000
       6491.50       126.1500         1.5600         2.2500       0.400000
       6492.00       127.0500         1.6700         2.2800       0.400000
       6492.50       129.3900         1.7500         2.3100       0.410000
       6493.00       125.8700         1.9300         2.3200       0.420000
       6493.50       124.6000         1.8700         2.3400       0.450000
       6494.00       125.4800         1.7200         2.3500       0.450000
       6494.50       125.7000         1.6700         2.3800       0.450000
       6495.00       121.8100         1.6800         2.4200       0.450000
       6495.50       115.2100         1.6100         2.4100       0.460000
       6496.00       114.6200         1.7000         2.3600       0.470000
       6496.50       111.3200         1.7200         2.3100       0.470000
       6497.00       112.1200         1.8600         2.2800       0.470000
       6497.50       109.5600         1.9200         2.2400       0.460000
       6498.00       111.4600         1.9400         2.2400       0.450000
       6498.50       119.5400         1.9900         2.2700       0.430000
       6499.00       130.6200         2.0700         2.2900       0.400000
       6499.50       140.0800         1.9100         2.2900       0.410000
       6500.00       143.0200         1.9000         2.3200       0.440000
       6500.50       148.4500         1.8900         2.3400       0.510000
       6501.00       154.1400         1.7500         2.3000       0.550000
       6501.50       155.3900         1.8000         2.2500       0.550000
       6502.00       154.3200         1.7600         2.2300       0.520000
       6502.50       145.3300         1.7300         2.2500       0.470000
       6503.00       138.8700         1.7200         2.2700       0.460000
       6503.50       128.4100         1.5600         2.2800       0.470000
       6504.00       123.2800         1.5300         2.3100       0.430000
       6504.50       114.6900         1.5900         2.3700       0.380000
       6505.00       104.6300         1.5500         2.4300       0.340000
       6505.50        96.9300         1.4300         2.4500       0.340000
       6506.00        91.9300         1.3200         2.4700       0.340000
       6506.50        87.5300         1.2700         2.4900       0.350000
       6507.00        79.9700         1.2200         2.5000       0.350000
       6507.50        73.7400         1.1600         2.4800       0.340000
       6508.00        71.6800         1.1600         2.4500       0.320000
       6508.50        67.0400         1.1700         2.4600       0.320000
       6509.00        61.9000         1.0500         2.5000       0.330000
       6509.50        52.5800         1.0100         2.5000       0.350000
       6510.00        45.7800         0.9600         2.4400       0.370000
       6510.50        39.3900         0.8900         2.3500       0.380000
       6511.00        35.6500         0.8700         2.2600       0.370000
       6511.50        33.3700         0.8600         2.2200       0.340000
       6512.00        30.2900         0.8400         2.2300       0.310000
       6512.50        26.9900         0.8300         2.2200       0.310000
       6513.00        23.6900         0.8500         2.2000       0.320000
       6513.50        22.2900         0.8600         2.1900       0.340000
       6514.00        23.0200         0.8700         2.2000       0.360000
       6514.50        23.9600         0.9400         2.2100       0.360000
       6515.00        29.3300         1.0500         2.1900       0.390000
       6515.50        38.5800         1.1400         2.1900       0.420000
       6516.00        56.2000         1.2900         2.2200       0.490000
       6516.50        72.5600         1.3900         2.2500       0.510000
       6517.00        92.6700         1.4900         2.2300       0.540000
       6517.50       108.4500         1.6100         2.2300       0.530000
       6518.00       126.5800         1.6300         2.2300       0.530000
       6518.50       138.9100         1.6900         2.1600       0.520000
