~Version Information Block
VERS .                  2.0:  CWLS LOG ASCII STANDARD - VERSION 2.0
WRAP .                   NO:  One line per depth step
~Well Information Block
#MNEM.UNIT        Data Type   Information
#---------- ----------------  -----------
STRT .FT            2988.00:  START DEPTH
STOP .FT            9585.50:  STOP DEPTH
STEP .FT               0.50:  STEP
NULL .              -999.25:  NULL VALUE
COMP .                     :  COMPANY
WELL .              SA-24HZ:  WELL
FLD  .                     :  FIELD
LOC  .                     :  LOCATION
CTRY .                     :  COUNTRY
STAT .                     :  STATE
CNTY .                     :  COUNTY
SRVC .                     :  SERVICE COMPANY
DATE .                     :  DATE
API  .                     :  API NUMBER
UWI  .                     :  UNIQUE WELL ID
~Curve Information Block
#MNEM.UNIT         API CODE   Curve Description
#---------- ----------------  -----------------
DEPTH.FT                   :  DEPTH
GR   .GAPI                 :  Gamma Ray
RT   .OHMM                 :  Deep resistivity
RHOB .G/C3                 :  Bulk density
NPHI .V/V                  :  Neutron porosity
~Parameter Information Block
#MNEM.UNIT            Value   Description
#---------- ----------------  -----------
PROJECT.            SERANG_FE:  
~Other Information Block
# 
~A       DEPTH             GR             RT           RHOB           NPHI 
# ...
       3416.00        41.5500         1.5900         2.2800       0.480000
       3416.50        39.3800         1.5900         2.2900       0.490000
       3417.00        36.7800         1.5500         2.2700       0.480000
       3417.50        36.0800         1.5500         2.2700       0.460000
       3418.00        32.3400         1.5600         2.2700       0.450000
       3418.50        33.6200         1.5200         2.2600       0.460000
       3419.00        35.9400         1.5100         2.2400       0.490000
       3419.50        40.7100         1.5700         2.2200       0.500000
       3420.00        39.2400         1.6800         2.2300       0.480000
       3420.50        38.6500         1.7100         2.2400       0.470000
       3421.00        35.0900         1.6100         2.2400       0.480000
       3421.50        35.0900         1.6600         2.2600       0.490000
       3422.00        33.9900         1.6400         2.2800       0.470000
       3422.50        34.6100         1.6300         2.2900       0.470000
       3423.00        36.4100         1.5700         2.3000       0.500000
       3423.50        36.7800         1.5100         2.3000       0.540000
       3424.00        38.9800         1.5000         2.2800       0.540000
       3424.50        37.7300         1.5700         2.2700       0.530000
       3425.00        39.2000         1.5700         2.2700       0.520000
       3425.50        38.1700         1.5400         2.2800       0.500000
       3426.00        41.8800         1.5000         2.2600       0.490000
       3426.50        41.8800         1.5000         2.2400       0.500000
       3427.00        44.0100         1.5000         2.2300       0.510000
       3427.50        43.6500         1.4700         2.2200       0.520000
       3428.00        41.8100         1.5600         2.2300       0.530000
       3428.50        41.5200         1.5700         2.2300       0.520000
       3429.00        39.6100         1.5900         2.2400       0.520000
       3429.50        40.9300         1.6100         2.2600       0.520000
       3430.00        41.2900         1.6700         2.2800       0.520000
       3430.50        41.2900         1.7600         2.3100       0.520000
       3431.00        42.5400         1.7900         2.3300       0.510000
       3431.50        39.9000         1.9600         2.3300       0.500000
       3432.00        39.9800         1.9200         2.3200       0.480000
       3432.50        36.8900         2.0500         2.3000       0.440000
       3433.00        37.6300         2.1100         2.2900       0.390000
       3433.50        36.0900         2.1600         2.3100       0.360000
       3434.00        34.7600         2.2000         2.3200       0.340000
       3434.50        28.6000         2.2800         2.3400       0.340000
       3435.00        27.7200         2.3300         2.3800       0.340000
       3435.50        25.9200         2.3000         2.4300       0.350000
       3436.00        28.4200         2.3200         2.4400       0.340000
       3436.50        28.1600         2.2900         2.3900       0.310000
       3437.00        31.1400         2.3000         2.3500       0.310000
       3437.50        31.6500         2.2900         2.3400       0.330000
       3438.00        34.6900         2.2700         2.3400       0.360000
       3438.50        36.6000         2.2600         2.3400       0.380000
       3439.00        37.9900         2.2200         2.3200       0.420000
       3439.50        36.0800         2.1800         2.3000       0.480000
       3440.00        33.8100         2.1500         2.2800       0.490000
       3440.50        34.4700         2.0600         2.2700       0.450000
       3441.00        34.1000         2.1200         2.2700       0.410000
       3441.50        34.8300         2.0000         2.2700       0.400000
       3442.00        34.8000         2.0200         2.2800       0.410000
       3442.50        37.0000         1.9900         2.2800       0.430000
       3443.00        36.2700         1.9800         2.2800       0.440000
       3443.50        37.8100         1.9700         2.2800       0.450000
       3444.00        38.4000         1.9400         2.2900       0.460000
       3444.50        39.8300         1.8900         2.3000       0.460000
       3445.00        36.9300         1.8400         2.3000       0.460000
       3445.50        33.9900         1.8800         2.2800       0.460000
       3446.00        31.1000         1.8000         2.2500       0.470000
       3446.50        30.8800         1.8100         2.2300       0.480000
       3447.00        29.2700         1.7900         2.2300       0.490000
       3447.50        30.8800         1.7800         2.2300       0.510000
       3448.00        27.2100         1.8100         2.2200       0.510000
       3448.50        24.5600         1.8300         2.2100       0.510000
       3449.00        20.0400         1.8300         2.1900       0.500000
       3449.50        19.5200         1.8400         2.1900       0.480000
       3450.00        21.8000         1.8600         2.2200       0.440000
       3450.50        23.0200         1.8600         2.2500       0.420000
       3451.00        22.6500         1.8400         2.2700       0.420000
       3451.50        21.9100         1.8400         2.2700       0.440000
       3452.00        22.0600         1.8200         2.2600       0.420000
       3452.50        23.3600         1.9000         2.2500       0.390000
       3453.00        22.4100         1.8700         2.2500       0.360000
       3453.50        22.1100         1.8800         2.2500       0.370000
       3454.00        24.2700         1.9200         2.2600       0.410000
       3454.50        25.8800         1.9600         2.2800       0.460000
       3455.00        27.4700         1.9300         2.2900       0.480000
       3455.50        27.1000         1.9800         2.2700       0.480000
       3456.00        27.5500         1.9500         2.2400       0.470000
       3456.50        28.3100         1.9000         2.2200       0.460000
       3457.00        29.4100         1.8200         2.2000       0.450000
       3457.50        27.9400         1.8300         2.1900       0.420000
       3458.00        25.2300         1.8600         2.2100       0.380000
       3458.50        22.0700         1.8000         2.2400       0.340000
       3459.00        22.0000         1.6400         2.2300       0.330000
       3459.50        22.8800         1.7200         2.2200       0.360000
       3460.00        25.8800         1.6500         2.2200       0.430000
       3460.50        27.2800         1.6200         2.2000       0.470000
       3461.00        28.3800         1.6100         2.1800       0.480000
       3461.50        24.3400         1.5900         2.1600       0.450000
       3462.00        24.7800         1.5700         2.1500       0.440000
       3462.50        24.5600         1.5500         2.1400       0.430000
       3463.00        29.1200         1.4800         2.1500       0.430000
       3463.50        32.0500         1.5500         2.1800       0.440000
       3464.00        39.1400         1.5400         2.2000       0.450000
       3464.50        45.2300         1.5400         2.2000       0.470000
       3465.00        53.7400         1.5100         2.2300       0.480000
       3465.50        63.1700         1.5000         2.2500       0.480000
       3466.00        69.1800         1.5200         2.2500       0.490000
       3466.50        71.1700         1.5300         2.2700       0.480000
       3467.00        69.2800         1.5300         2.2900       0.480000
       3467.50        70.2300         1.4700         2.3000       0.490000
       3468.00        76.1000         1.4400         2.3100       0.490000
       3468.50        76.8100         1.4700         2.3100       0.490000
       3469.00        76.9500         1.4500         2.3100       0.500000
