~Version Information Block
VERS .                  2.0:  CWLS LOG ASCII STANDARD - VERSION 2.0
WRAP .                   NO:  One line per depth step
~Well Information Block
#MNEM.UNIT        Data Type   Information
#---------- ----------------  -----------
STRT .FT            3121.50:  START DEPTH
STOP .FT            8357.50:  STOP DEPTH
STEP .FT               0.50:  STEP
NULL .              -999.25:  NULL VALUE
COMP .                     :  COMPANY
WELL .                SA-21:  WELL
FLD  .                     :  FIELD
LOC  .                     :  LOCATION
CTRY .                     :  COUNTRY
STAT .                     :  STATE
CNTY .                     :  COUNTY
SRVC .                     :  SERVICE COMPANY
DATE .                     :  DATE
API  .                     :  API NUMBER
UWI  .                     :  UNIQUE WELL ID
~Curve Information Block
#MNEM.UNIT         API CODE   Curve Description
#---------- ----------------  -----------------
DEPTH.FT                   :  DEPTH
GR   .GAPI                 :  Gamma Ray
RT   .OHMM                 :  Deep resistivity
RHOB .G/C3                 :  Bulk density
NPHI .V/V                  :  Neutron porosity
DT   .US/F                 :  Sonic
~Parameter Information Block
#MNEM.UNIT            Value   Description
#---------- ----------------  -----------
PROJECT.            SERANG_FE:  
~Other Information Block
# 
~A       DEPTH             GR             RT           RHOB           NPHI             DT 
# ...
       3833.50        70.4375         1.7500         2.2100       0.420100       133.5000
       3834.00        59.4062         1.7800         2.1700       0.385300       131.6000
       3834.50        57.2500         1.8100         2.1700       0.366100       130.2000
       3835.00        52.1875         1.8600         2.1800       0.379500       128.7000
       3835.50        53.2812         1.8900         2.1900       0.374600       127.9000
       3836.00        57.6562         1.8900         2.2100       0.370800       129.0000
       3836.50        66.3750         1.8900         2.2200       0.349600       130.7000
       3837.00        73.8750         1.8700         2.2400       0.363000       131.6000
       3837.50        76.6875         1.8500         2.2500       0.379800       132.4000
       3838.00        78.5625         1.8200         2.2500       0.376700       131.8000
       3838.50        78.9375         1.8000         2.2500       0.384100       130.5000
       3839.00        80.7500         1.7900         2.2600       0.405500       129.9000
       3839.50        82.3750         1.7900         2.2700       0.415600       129.9000
       3840.00        82.0000         1.7900         2.2900       0.414000       128.5000
       3840.50        81.2500         1.8000         2.2900       0.368400       128.5000
       3841.00        82.1250         1.8200         2.2900       0.371200       126.9000
       3841.50        81.4375         1.8200         2.2900       0.345500       126.0000
       3842.00        83.1250         1.8200         2.2600       0.353700       125.8000
       3842.50        77.8125         1.8100         2.2300       0.357000       128.1000
       3843.00        86.1875         1.8000         2.2100       0.398500       131.4000
       3843.50        93.9375         1.7900         2.2100       0.438600       134.4000
       3844.00       105.5625         1.7700         2.2200       0.446200       137.9000
       3844.50       103.4375         1.7600         2.2300       0.435700       137.8000
       3845.00       102.0625         1.7400         2.2300       0.419100       137.8000
       3845.50       100.4375         1.7300         2.2200       0.426500       135.9000
       3846.00       106.0625         1.7200         2.2000       0.439700       137.4000
       3846.50       112.3750         1.7300         2.1800       0.433900       137.4000
       3847.00       115.6875         1.7300         2.1500       0.440800       140.4000
       3847.50       120.0625         1.7300         2.1300       0.432800       141.4000
       3848.00       117.8750         1.7300         2.1400       0.465900       142.4000
       3848.50       117.6875         1.7400         2.1600       0.462700       142.9000
       3849.00       113.0625         1.7400         2.1800       0.458400       141.6000
       3849.50       109.6875         1.7400         2.1700       0.413000       140.9000
       3850.00       110.1250         1.7400         2.1600       0.413500       140.9000
       3850.50       104.2500         1.7400         2.1600       0.443800       140.2000
       3851.00       104.4375         1.7400         2.1900       0.450000       140.0000
       3851.50        97.2500         1.7400         2.1900       0.444400       139.8000
       3852.00       100.8125         1.7300         2.2000       0.408200       139.1000
       3852.50        97.1875         1.7400         2.2000       0.422200       138.0000
       3853.00        97.2500         1.7500         2.2200       0.415200       135.9000
       3853.50        90.7500         1.7600         2.2400       0.398200       133.5000
       3854.00        90.0000         1.7800         2.2600       0.380300       133.1000
       3854.50        90.5000         1.8000         2.2700       0.376200       141.6000
       3855.00        89.5625         1.8200         2.2700       0.375300       132.9000
       3855.50        87.6875         1.8400         2.2700       0.373400       141.2000
       3856.00        86.4375         1.8700         2.2600       0.375300       144.0000
       3856.50        85.6875         1.8900         2.2600       0.373800       147.9000
       3857.00        79.2500         1.9300         2.2500       0.373300       154.5000
       3857.50        75.0000         1.9700         2.2500       0.375000       156.3056
       3858.00        73.6250         2.0100         2.2100       0.374100       160.8016
       3858.50        74.7500         2.0800         2.1500       0.359300       168.6696
       3859.00        67.0000         2.1500         2.0800       0.314900       177.2868
       3859.50        60.4062         2.2300         2.0600       0.303600       179.8345
       3860.00        55.4688         2.3200         2.0400       0.297000       182.2324
       3860.50        54.0312         2.3900         2.0200       0.287700       184.7801
       3861.00        54.9062         2.4400         1.9800       0.267400       184.0308
       3861.50        58.3125         2.4900         1.9800       0.253100       183.2815
       3862.00        62.9062         2.5000         2.0100       0.273000       173.5402
       3862.50        62.1562         2.4800         2.0600       0.293900       171.2922
       3863.00        58.4062         2.4200         2.0600       0.311200       172.0415
       3863.50        54.0312         2.3300         2.0500       0.318900       172.7909
       3864.00        51.9688         2.2200         2.0400       0.306700       178.7000
       3864.50        50.0312         2.1200         2.0400       0.299700       180.0000
       3865.00        49.5625         2.0300         2.0400       0.282900       175.2000
       3865.50        47.6250         1.9200         2.0400       0.311500       169.0000
       3866.00        46.4062         1.8300         2.0700       0.320000       166.4000
       3866.50        46.8750         1.7400         2.0900       0.350300       166.5000
       3867.00        47.5000         1.6500         2.1100       0.351300       165.3000
       3867.50        45.4688         1.6000         2.0900       0.355800       166.6000
       3868.00        41.8438         1.5700         2.0800       0.350100       166.5000
       3868.50        37.7188         1.5300         2.0800       0.335800       156.0000
       3869.00        38.4375         1.5100         2.1000       0.350400       157.5000
       3869.50        40.0938         1.5100         2.1100       0.358200       153.9000
       3870.00        47.5000         1.5100         2.1300       0.378600       152.8000
       3870.50        50.4062         1.5200         2.1400       0.364700       151.3000
       3871.00        52.7188         1.5200         2.1600       0.362100       149.4000
       3871.50        53.7500         1.5300         2.1600       0.391900       148.3000
       3872.00        55.6875         1.5400         2.1700       0.401300       153.3000
       3872.50        59.7500         1.5400         2.1900       0.433300       178.9000
       3873.00        63.4375         1.5300         2.2000       0.407500       182.8000
       3873.50        67.3125         1.5300         2.2000       0.409300       178.9000
       3874.00        69.2500         1.5200         2.1900       0.371000       180.5000
       3874.50        67.5625         1.5200         2.1400       0.351000       208.3000
       3875.00        64.5625         1.5100         2.1000       0.358400       210.0000
       3875.50        56.1875         1.5000         2.0600       0.358600       207.1000
       3876.00        53.8750         1.4900         2.0700       0.377700       204.8000
       3876.50        50.7500         1.4800         2.0800       0.370500       201.1000
       3877.00        55.5000         1.4700         2.0900       0.379400       193.7000
       3877.50        53.5938         1.4700         2.0800       0.379400       196.8999
