~Version Information Block
VERS .                  2.0:  CWLS LOG ASCII STANDARD - VERSION 2.0
WRAP .                   NO:  One line per depth step
~Well Information Block
#MNEM.UNIT        Data Type   Information
#---------- ----------------  -----------
STRT .FT            2988.00:  START DEPTH
STOP .FT            9585.50:  STOP DEPTH
STEP .FT               0.50:  STEP
NULL .              -999.25:  NULL VALUE
COMP .                     :  COMPANY
WELL .              SA-24HZ:  WELL
FLD  .                     :  FIELD
LOC  .                     :  LOCATION
CTRY .                     :  COUNTRY
STAT .                     :  STATE
CNTY .                     :  COUNTY
SRVC .                     :  SERVICE COMPANY
DATE .                     :  DATE
API  .                     :  API NUMBER
UWI  .                     :  UNIQUE WELL ID
~Curve Information Block
#MNEM.UNIT         API CODE   Curve Description
#---------- ----------------  -----------------
DEPTH.FT                   :  DEPTH
GR   .GAPI                 :  Gamma Ray
RT   .OHMM                 :  Deep resistivity
RHOB .G/C3                 :  Bulk density
NPHI .V/V                  :  Neutron porosity
~Parameter Information Block
#MNEM.UNIT            Value   Description
#---------- ----------------  -----------
PROJECT.            SERANG_FE:  
~Other Information Block
# 
~A       DEPTH             GR             RT           RHOB           NPHI 
# ...
       7749.50        72.9600         1.7100         2.5700       0.380000
       7750.00        74.7200         1.6200         2.5800       0.370000
       7750.50        74.4000         1.8000         2.5600       0.370000
       7751.00        74.4000         1.6100         2.5600       0.360000
       7751.50        75.6500         1.7100         2.5800       0.370000
       7752.00        75.1400         1.6400         2.5800       0.390000
       7752.50        75.4300         1.6300         2.5400       0.400000
       7753.00        74.9900         1.6700         2.5000       0.420000
       7753.50        75.9800         1.6800         2.5100       0.440000
       7754.00        76.0800         1.6200         2.5200       0.420000
       7754.50        74.9000         1.6900         2.5100       0.410000
       7755.00        73.1800         1.7100         2.5100       0.400000
       7755.50        73.6900         1.6500         2.5200       0.400000
       7756.00        75.7500         1.7000         2.5300       0.400000
       7756.50        74.3600         1.7200         2.5500       0.400000
       7757.00        71.9400         1.6500         2.5500       0.410000
       7757.50        70.3600         1.7100         2.5400       0.390000
       7758.00        71.9000         1.7900         2.5200       0.360000
       7758.50        75.1300         1.7700         2.5000       0.330000
       7759.00        75.2400         1.8400         2.4900       0.340000
       7759.50        73.7000         1.8200         2.5300       0.350000
       7760.00        70.3200         1.8000         2.5900       0.350000
       7760.50        69.5500         1.8200         2.5900       0.340000
       7761.00        68.6000         1.8700         2.5600       0.340000
       7761.50        68.7400         1.9200         2.5600       0.350000
       7762.00        68.3400         1.8800         2.5500       0.340000
       7762.50        66.7300         1.8700         2.5700       0.340000
       7763.00        65.2600         1.8500         2.6200       0.320000
       7763.50        61.3000         1.9000         2.6400       0.320000
       7764.00        59.0200         1.8900         2.6100       0.330000
       7764.50        59.3900         1.8600         2.5700       0.350000
       7765.00        60.7500         1.9000         2.5400       0.390000
       7765.50        63.8300         1.8900         2.5600       0.400000
       7766.00        63.0200         1.9100         2.5700       0.380000
       7766.50        61.6600         1.8400         2.5300       0.350000
       7767.00        65.1100         1.8500         2.5000       0.310000
       7767.50        68.5600         1.8000         2.5700       0.320000
       7768.00        68.5600         1.8600         2.6000       0.340000
       7768.50        68.5900         1.8700         2.5800       0.330000
       7769.00        66.2800         1.8600         2.5800       0.330000
       7769.50        70.5400         1.8300         2.5900       0.320000
       7770.00        67.5700         1.8400         2.5900       0.330000
       7770.50        67.5700         1.8000         2.5800       0.330000
       7771.00        66.2500         1.8100         2.5500       0.340000
       7771.50        67.4600         1.8000         2.5600       0.370000
       7772.00        68.9300         1.7900         2.6000       0.360000
       7772.50        67.6400         1.8200         2.6100       0.340000
       7773.00        68.1200         1.7900         2.6200       0.320000
       7773.50        68.2700         1.8000         2.6000       0.340000
       7774.00        69.3700         1.7900         2.6000       0.360000
       7774.50        70.6100         1.8100         2.6000       0.380000
       7775.00        70.3900         1.7700         2.5600       0.380000
       7775.50        69.9900         1.7400         2.5200       0.390000
       7776.00        69.2300         1.8700         2.5400       0.410000
       7776.50        69.7000         1.8100         2.5500       0.410000
       7777.00        71.9000         1.7300         2.5400       0.380000
       7777.50        73.4400         1.7900         2.5400       0.360000
       7778.00        73.0300         1.8400         2.5400       0.360000
       7778.50        71.6400         1.7600         2.5300       0.400000
       7779.00        67.4200         1.7500         2.5400       0.420000
       7779.50        65.5900         1.7100         2.5800       0.440000
       7780.00        68.0500         1.7900         2.5900       0.430000
       7780.50        67.6100         1.8400         2.5500       0.420000
       7781.00        72.3100         1.7800         2.5300       0.400000
       7781.50        71.7200         1.8000         2.5300       0.380000
       7782.00        74.9100         1.7600         2.5200       0.380000
       7782.50        73.2900         1.8200         2.5200       0.380000
       7783.00        71.5500         1.7800         2.5200       0.380000
       7783.50        71.3600         1.8100         2.5200       0.370000
       7784.00        70.8100         1.7700         2.5200       0.370000
       7784.50        72.8200         1.6900         2.5300       0.380000
       7785.00        72.6700         1.7500         2.5600       0.400000
       7785.50        73.8800         1.7500         2.5400       0.400000
       7786.00        73.0000         1.8200         2.5000       0.390000
       7786.50        74.9100         1.7800         2.5000       0.390000
       7787.00        73.2200         1.7200         2.5400       0.380000
       7787.50        71.2400         1.8000         2.5500       0.380000
       7788.00        69.2300         1.8000         2.5400       0.390000
       7788.50        73.0500         1.7700         2.5500       0.390000
       7789.00        74.8500         1.7700         2.5500       0.380000
       7789.50        77.3700         1.8100         2.5300       0.370000
       7790.00        72.7500         1.7000         2.5100       0.370000
       7790.50        73.5400         1.7500         2.5100       0.370000
       7791.00        73.7300         1.8000         2.5100       0.370000
       7791.50        76.4000         1.7500         2.5300       0.370000
       7792.00        76.5300         1.7400         2.5400       0.390000
       7792.50        73.9600         1.7800         2.5400       0.380000
       7793.00        72.8200         1.7900         2.5400       0.370000
       7793.50        71.8200         1.7600         2.5300       0.370000
       7794.00        74.1400         1.7400         2.5000       0.380000
       7794.50        77.5500         1.8100         2.4700       0.410000
       7795.00        81.3300         1.8100         2.4800       0.400000
       7795.50        80.2300         1.7600         2.5200       0.410000
       7796.00        78.7300         1.7600         2.5400       0.390000
       7796.50        75.0600         1.7800         2.5500       0.390000
       7797.00        80.4100         1.7800         2.5500       0.390000
       7797.50        81.0700         1.8000         2.5400       0.380000
       7798.00        84.0100         1.7700         2.5400       0.370000
       7798.50        80.8600         1.7700         2.5400       0.350000
       7799.00        81.1600         1.7800         2.5400       0.360000
       7799.50        77.2700         1.7700         2.5200       0.370000
       7800.00        74.7000         1.7500         2.5000       0.390000
       7800.50        74.9100         1.7400         2.5000       0.410000
       7801.00        77.2600         1.7400         2.5000       0.420000
       7801.50        80.1900         1.7200         2.5100       0.410000
       7802.00        77.4800         1.7400         2.5000       0.400000
       7802.50        76.4200         1.7300         2.4800       0.380000
