~Version Information Block
VERS .                  2.0:  CWLS LOG ASCII STANDARD - VERSION 2.0
WRAP .                   NO:  One line per depth step
~Well Information Block
#MNEM.UNIT        Data Type   Information
#---------- ----------------  -----------
STRT .FT            2988.00:  START DEPTH
STOP .FT            9585.50:  STOP DEPTH
STEP .FT               0.50:  STEP
NULL .              -999.25:  NULL VALUE
COMP .                     :  COMPANY
WELL .              SA-24HZ:  WELL
FLD  .                     :  FIELD
LOC  .                     :  LOCATION
CTRY .                     :  COUNTRY
STAT .                     :  STATE
CNTY .                     :  COUNTY
SRVC .                     :  SERVICE COMPANY
DATE .                     :  DATE
API  .                     :  API NUMBER
UWI  .                     :  UNIQUE WELL ID
~Curve Information Block
#MNEM.UNIT         API CODE   Curve Description
#---------- ----------------  -----------------
DEPTH.FT                   :  DEPTH
GR   .GAPI                 :  Gamma Ray
RT   .OHMM                 :  Deep resistivity
RHOB .G/C3                 :  Bulk density
NPHI .V/V                  :  Neutron porosity
~Parameter Information Block
#MNEM.UNIT            Value   Description
#---------- ----------------  -----------
PROJECT.            SERANG_FE:  
~Other Information Block
# 
~A       DEPTH             GR             RT           RHOB           NPHI 
# ...
       8659.00        15.8100        47.4600         2.1900       0.070000
       8659.50        15.2300        44.0300         2.2000       0.070000
       8660.00        15.6800        45.7900         2.1800       0.070000
       8660.50        14.3000        44.7800         2.1500       0.070000
       8661.00        15.6900        56.6600         2.1500       0.060000
       8661.50        15.2800        40.7900         2.1600       0.060000
       8662.00        14.5400        46.1400         2.1500       0.060000
       8662.50        13.2800        37.4200         2.1300       0.060000
       8663.00        13.0600        41.8900         2.1400       0.060000
       8663.50        13.1900        50.3700         2.1500       0.060000
       8664.00        14.3600        43.8200         2.1600       0.060000
       8664.50        14.8700        52.2500         2.1700       0.060000
       8665.00        14.3900        45.2200         2.1700       0.060000
       8665.50        13.5300        45.2800         2.1500       0.060000
       8666.00        12.2400        43.3100         2.1400       0.060000
       8666.50        14.4900        37.8900         2.1500       0.060000
       8667.00        14.2200        42.3200         2.1700       0.060000
       8667.50        15.1000        44.2200         2.1600       0.060000
       8668.00        15.2100        46.3100         2.1500       0.070000
       8668.50        15.2800        46.4200         2.1300       0.070000
       8669.00        14.8100        43.5100         2.1300       0.060000
       8669.50        12.9700        41.1900         2.1300       0.060000
       8670.00        11.2100        46.1400         2.1100       0.060000
       8670.50        11.3600        44.1400         2.0900       0.060000
       8671.00        11.6200        40.1300         2.0800       0.060000
       8671.50        13.5500        42.4200         2.0900       0.060000
       8672.00        12.6000        38.1000         2.0800       0.050000
       8672.50        11.5200        36.2100         2.0700       0.050000
       8673.00        11.1900        41.1400         2.0800       0.050000
       8673.50        12.3400        37.9400         2.0900       0.050000
       8674.00        13.1400        37.5700         2.1000       0.050000
       8674.50        12.1900        38.7600         2.1000       0.060000
       8675.00        11.3200        34.4400         2.1100       0.060000
       8675.50        11.6400        30.9000         2.1000       0.060000
       8676.00        12.2900        32.0900         2.0900       0.050000
       8676.50        11.7100        28.1300         2.0800       0.050000
       8677.00        12.3900        33.9500         2.0800       0.060000
       8677.50        12.0600        31.4500         2.0900       0.060000
       8678.00        13.8200        29.3000         2.1000       0.060000
       8678.50        13.9000        34.7200         2.1200       0.060000
       8679.00        14.7300        30.2700         2.1300       0.060000
       8679.50        13.9900        26.4700         2.1400       0.060000
       8680.00        13.0600        27.4900         2.1500       0.060000
       8680.50        12.5500        25.2600         2.1400       0.050000
       8681.00        12.9300        26.3200         2.1300       0.050000
       8681.50        13.0000        22.8800         2.1500       0.050000
       8682.00        13.2400        20.8500         2.1300       0.060000
       8682.50        13.3400        19.5300         2.0900       0.060000
       8683.00        16.0400        20.5200         2.0900       0.060000
       8683.50        21.8500        17.8100         2.1500       0.070000
       8684.00        32.2600        18.5100         2.2600       0.090000
       8684.50        41.6000        24.2700         2.3600       0.110000
       8685.00        49.0200        20.9700         2.3800       0.130000
       8685.50        48.9600        20.5800         2.3600       0.120000
       8686.00        45.6700        19.9200         2.3200       0.120000
       8686.50        36.5000        15.6400         2.2300       0.110000
       8687.00        30.4000        13.3200         2.1900       0.110000
       8687.50        28.9700        13.4200         2.1900       0.120000
       8688.00        34.0000        14.4800         2.2300       0.120000
       8688.50        36.4700        12.7700         2.2900       0.130000
       8689.00        34.1500        11.4200         2.3200       0.120000
       8689.50        27.6000        12.3500         2.2600       0.110000
       8690.00        22.8300        10.3400         2.1800       0.100000
       8690.50        21.7200         9.1900         2.1300       0.090000
       8691.00        25.0000         8.9600         2.1200       0.090000
       8691.50        31.1200         8.0700         2.1500       0.090000
       8692.00        42.1300         7.1900         2.2300       0.120000
       8692.50        54.5800         6.5300         2.3300       0.170000
       8693.00        67.8300         6.3300         2.4500       0.220000
       8693.50        76.4700         5.4900         2.5600       0.270000
       8694.00        80.6600         5.5000         2.6400       0.280000
       8694.50        83.5500         5.3000         2.6600       0.300000
       8695.00        83.6000         4.9700         2.6400       0.310000
       8695.50        86.4800         4.6100         2.5800       0.330000
       8696.00        86.4900         4.5900         2.5800       0.330000
       8696.50        88.4000         4.4400         2.6200       0.340000
       8697.00        88.3600         4.5700         2.6400       0.330000
       8697.50        90.1200         4.3700         2.6200       0.330000
       8698.00        90.6700         4.2100         2.5700       0.340000
       8698.50        89.6200         4.4800         2.4700       0.340000
       8699.00        89.5600         4.5200         2.4200       0.350000
       8699.50        91.0500         4.4400         2.4300       0.360000
       8700.00        94.1300         4.4200         2.4200       0.380000
       8700.50        96.8500         4.4700         2.4400       0.370000
       8701.00       100.0100         4.5600         2.5100       0.340000
       8701.50       104.4200         4.4500         2.5700       0.320000
       8702.00       107.0600         4.2500         2.6000       0.310000
       8702.50       108.2300         3.9700         2.5900       0.300000
       8703.00       106.9400         4.2200         2.5900       0.290000
       8703.50       104.1200         4.2600         2.6000       0.300000
       8704.00        99.7700         4.2400         2.6200       0.310000
       8704.50        94.6100         4.2300         2.6200       0.310000
       8705.00        88.6400         4.0500         2.5900       0.290000
       8705.50        83.6500         4.0100         2.6200       0.280000
       8706.00        77.3900         4.0100         2.6500       0.280000
       8706.50        72.1900         4.0600         2.6100       0.260000
       8707.00        66.2900         4.0300         2.5900       0.240000
       8707.50        62.2100         4.2400         2.6100       0.220000
       8708.00        58.4200         4.0700         2.6400       0.220000
       8708.50        56.2400         4.0700         2.6700       0.210000
       8709.00        54.8000         4.0500         2.6700       0.210000
       8709.50        55.7800         4.1800         2.6600       0.210000
       8710.00        56.6900         4.0700         2.6200       0.220000
       8710.50        57.1400         4.0800         2.5800       0.220000
       8711.00        57.2900         4.2000         2.5900       0.220000
       8711.50        58.9300         4.0700         2.6600       0.210000
       8712.00        61.7500         4.1400         2.6600       0.220000
