~Version Information Block
VERS .                  2.0:  CWLS LOG ASCII STANDARD - VERSION 2.0
WRAP .                   NO:  One line per depth step
~Well Information Block
#MNEM.UNIT        Data Type   Information
#---------- ----------------  -----------
STRT .FT            2988.00:  START DEPTH
STOP .FT            9585.50:  STOP DEPTH
STEP .FT               0.50:  STEP
NULL .              -999.25:  NULL VALUE
COMP .                     :  COMPANY
WELL .              SA-24HZ:  WELL
FLD  .                     :  FIELD
LOC  .                     :  LOCATION
CTRY .                     :  COUNTRY
STAT .                     :  STATE
CNTY .                     :  COUNTY
SRVC .                     :  SERVICE COMPANY
DATE .                     :  DATE
API  .                     :  API NUMBER
UWI  .                     :  UNIQUE WELL ID
~Curve Information Block
#MNEM.UNIT         API CODE   Curve Description
#---------- ----------------  -----------------
DEPTH.FT                   :  DEPTH
GR   .GAPI                 :  Gamma Ray
RT   .OHMM                 :  Deep resistivity
RHOB .G/C3                 :  Bulk density
NPHI .V/V                  :  Neutron porosity
~Parameter Information Block
#MNEM.UNIT            Value   Description
#---------- ----------------  -----------
PROJECT.            SERANG_FE:  
~Other Information Block
# 
~A       DEPTH             GR             RT           RHOB           NPHI 
# ...
       5181.50        41.9400         1.0400         2.3200       0.290000
       5182.00        42.1600         1.0200         2.3200       0.300000
       5182.50        39.5100         1.0200         2.3200       0.310000
       5183.00        35.1100         1.0200         2.3200       0.320000
       5183.50        30.9900         0.9300         2.3100       0.330000
       5184.00        26.7800         0.9100         2.2800       0.330000
       5184.50        23.6200         0.8800         2.2700       0.340000
       5185.00        21.2800         0.8800         2.2400       0.340000
       5185.50        19.4000         0.8400         2.2300       0.350000
       5186.00        17.3500         0.8300         2.2100       0.350000
       5186.50        14.9900         0.7900         2.1900       0.350000
       5187.00        14.4900         0.7700         2.1600       0.350000
       5187.50        15.0800         0.7500         2.1500       0.350000
       5188.00        15.7100         0.7300         2.1400       0.350000
       5188.50        14.9800         0.7200         2.1300       0.350000
       5189.00        12.9100         0.7200         2.1300       0.350000
       5189.50        11.4800         0.7200         2.1300       0.340000
       5190.00        10.4400         0.7200         2.1400       0.340000
       5190.50         9.9500         0.7000         2.1400       0.340000
       5191.00         9.6700         0.6900         2.1600       0.360000
       5191.50         9.3900         0.7100         2.2100       0.360000
       5192.00         8.6100         0.7100         2.2300       0.370000
       5192.50         7.6400         0.7100         2.1800       0.380000
       5193.00         7.8200         0.7200         2.1600       0.390000
       5193.50         9.1800         0.7100         2.1800       0.400000
       5194.00         9.3200         0.7000         2.1800       0.420000
       5194.50         7.3900         0.7000         2.1500       0.430000
       5195.00         5.7700         0.7000         2.1300       0.430000
       5195.50         5.2200         0.6900         2.1400       0.420000
       5196.00         5.9900         0.6900         2.1500       0.410000
       5196.50         7.8200         0.7100         2.1600       0.410000
       5197.00        10.4700         0.6900         2.1600       0.420000
       5197.50        11.5100         0.6900         2.1500       0.430000
       5198.00        11.9200         0.6700         2.1400       0.430000
       5198.50        12.7200         0.6800         2.1300       0.430000
       5199.00        13.6000         0.6900         2.1300       0.430000
       5199.50        12.5100         0.6700         2.1200       0.420000
       5200.00        10.7600         0.6600         2.1200       0.410000
       5200.50         9.0400         0.6500         2.1100       0.390000
       5201.00         8.9000         0.6400         2.0800       0.380000
       5201.50         9.3500         0.6700         2.0600       0.390000
       5202.00         9.8200         0.6800         2.1100       0.390000
       5202.50         9.0300         0.6600         2.1700       0.400000
       5203.00         7.6200         0.6500         2.1800       0.400000
       5203.50         6.9700         0.6800         2.1700       0.380000
       5204.00         7.6200         0.6900         2.1700       0.370000
       5204.50         8.0600         0.7200         2.2000       0.370000
       5205.00         6.7100         0.7300         2.2000       0.380000
       5205.50         7.0900         0.7700         2.1900       0.390000
       5206.00         9.6600         0.7900         2.1900       0.410000
       5206.50        15.6600         0.8100         2.1900       0.430000
       5207.00        21.1000         0.8200         2.2000       0.430000
       5207.50        28.6300         0.9400         2.2000       0.410000
       5208.00        34.5200         1.0300         2.2000       0.410000
       5208.50        42.0800         1.0500         2.2000       0.420000
       5209.00        51.4300         1.0700         2.1800       0.450000
       5209.50        59.5000         1.1000         2.1700       0.470000
       5210.00        67.2100         1.1200         2.2500       0.470000
       5210.50        67.9400         1.1300         2.3500       0.470000
       5211.00        70.1400         1.1400         2.3900       0.460000
       5211.50        71.1600         1.1400         2.4100       0.440000
       5212.00        71.9000         1.2300         2.4500       0.420000
       5212.50        71.9000         1.2500         2.4500       0.410000
       5213.00        70.5100         1.2700         2.4500       0.400000
       5213.50        73.4400         1.2800         2.4500       0.400000
       5214.00        72.9600         1.2900         2.4700       0.400000
       5214.50        72.1400         1.3000         2.4900       0.420000
       5215.00        67.5300         1.3000         2.4800       0.440000
       5215.50        70.1200         1.3000         2.4400       0.470000
       5216.00        75.4800         1.3200         2.4100       0.460000
       5216.50        76.8100         1.4000         2.4000       0.440000
       5217.00        69.5700         1.3800         2.4300       0.420000
       5217.50        60.6600         1.3700         2.4500       0.410000
       5218.00        57.8100         1.3100         2.4500       0.410000
       5218.50        60.4100         1.2800         2.4200       0.420000
       5219.00        59.9300         1.3600         2.3900       0.420000
       5219.50        61.3000         1.3800         2.3700       0.420000
       5220.00        60.6000         1.3900         2.3700       0.420000
       5220.50        62.1500         1.2900         2.3800       0.430000
       5221.00        61.0500         1.3600         2.3900       0.460000
       5221.50        64.2700         1.3900         2.3700       0.490000
       5222.00        67.8400         1.3800         2.3600       0.500000
       5222.50        71.4300         1.3700         2.3500       0.500000
       5223.00        69.6800         1.3800         2.3400       0.490000
       5223.50        69.0400         1.3900         2.3200       0.500000
       5224.00        68.3800         1.3700         2.3200       0.520000
       5224.50        69.8500         1.3600         2.3200       0.520000
       5225.00        73.1500         1.3700         2.3400       0.520000
       5225.50        72.7800         1.3500         2.3400       0.500000
       5226.00        72.3500         1.3500         2.3500       0.510000
       5226.50        68.6100         1.3200         2.3700       0.510000
       5227.00        67.2900         1.3300         2.3900       0.520000
       5227.50        65.0800         1.3400         2.4100       0.510000
       5228.00        65.6700         1.3600         2.4000       0.500000
       5228.50        65.3000         1.3800         2.4000       0.480000
       5229.00        66.4200         1.3800         2.4000       0.480000
       5229.50        64.7300         1.3700         2.4000       0.500000
       5230.00        63.1200         1.3600         2.4100       0.520000
       5230.50        68.6000         1.3700         2.4000       0.530000
       5231.00        70.5100         1.3900         2.3900       0.530000
       5231.50        74.8400         1.3700         2.3600       0.530000
       5232.00        72.7300         1.3800         2.3500       0.520000
       5232.50        74.3500         1.3800         2.3500       0.520000
       5233.00        74.7100         1.3900         2.3500       0.510000
       5233.50        71.5400         1.3800         2.3400       0.510000
       5234.00        65.6700         1.3800         2.3300       0.510000
       5234.50        63.0100         1.3300         2.3200       0.500000
