~Version Information Block
VERS .                  2.0:  CWLS LOG ASCII STANDARD - VERSION 2.0
WRAP .                   NO:  One line per depth step
~Well Information Block
#MNEM.UNIT        Data Type   Information
#---------- ----------------  -----------
STRT .FT            3121.50:  START DEPTH
STOP .FT            8357.50:  STOP DEPTH
STEP .FT               0.50:  STEP
NULL .              -999.25:  NULL VALUE
COMP .                     :  COMPANY
WELL .                SA-21:  WELL
FLD  .                     :  FIELD
LOC  .                     :  LOCATION
CTRY .                     :  COUNTRY
STAT .                     :  STATE
CNTY .                     :  COUNTY
SRVC .                     :  SERVICE COMPANY
DATE .                     :  DATE
API  .                     :  API NUMBER
UWI  .                     :  UNIQUE WELL ID
~Curve Information Block
#MNEM.UNIT         API CODE   Curve Description
#---------- ----------------  -----------------
DEPTH.FT                   :  DEPTH
GR   .GAPI                 :  Gamma Ray
RT   .OHMM                 :  Deep resistivity
RHOB .G/C3                 :  Bulk density
NPHI .V/V                  :  Neutron porosity
DT   .US/F                 :  Sonic
~Parameter Information Block
#MNEM.UNIT            Value   Description
#---------- ----------------  -----------
PROJECT.            SERANG_FE:  
~Other Information Block
# 
~A       DEPTH             GR             RT           RHOB           NPHI             DT 
# ...
       5213.00        87.1875         1.7000         2.3100       0.377000       119.2000
       5213.50        84.5625         1.7000         2.3100       0.377900       119.9000
       5214.00        81.3750         1.6900         2.3100       0.366100       119.8000
       5214.50        79.5000         1.6900         2.3100       0.369500       120.1000
       5215.00        78.9375         1.6800         2.3100       0.380600       119.8000
       5215.50        80.2500         1.6800         2.3100       0.370100       119.8000
       5216.00        82.2500         1.6700         2.3100       0.360900       119.8000
       5216.50        85.9375         1.6700         2.3200       0.362200       120.3000
       5217.00        82.9375         1.6600         2.3200       0.366200       120.7000
       5217.50        81.3750         1.6600         2.3100       0.388900       120.9000
       5218.00        78.3750         1.6500         2.3100       0.375400       120.3000
       5218.50        75.7500         1.6500         2.3100       0.378100       119.9000
       5219.00        75.5000         1.6400         2.3000       0.354900       119.9000
       5219.50        78.5625         1.6300         2.3100       0.344400       120.0000
       5220.00        82.2500         1.6300         2.3100       0.340900       120.8000
       5220.50        85.1875         1.6200         2.3100       0.357700       120.8000
       5221.00        83.6875         1.6100         2.3100       0.366300       121.7000
       5221.50        82.2500         1.6100         2.3200       0.372900       121.8000
       5222.00        78.3750         1.6000         2.3100       0.373700       121.4000
       5222.50        81.7500         1.6000         2.3300       0.380200       121.9000
       5223.00        84.8125         1.6000         2.3400       0.388200       122.0000
       5223.50        90.0625         1.6000         2.3400       0.392800       121.4000
       5224.00        87.1250         1.6000         2.3200       0.377400       121.8000
       5224.50        88.5000         1.6000         2.3100       0.383100       121.7000
       5225.00        83.0000         1.6000         2.3100       0.390700       121.7000
       5225.50        82.7500         1.6000         2.3200       0.404500       122.1000
       5226.00        80.4375         1.6000         2.3300       0.388200       121.6000
       5226.50        84.1875         1.6000         2.3100       0.385600       122.1000
       5227.00        81.6875         1.5900         2.3200       0.381100       122.6000
       5227.50        83.7500         1.5900         2.3100       0.379400       121.7000
       5228.00        80.8750         1.5900         2.3300       0.365400       121.6000
       5228.50        84.6250         1.5900         2.3500       0.364100       121.7000
       5229.00        80.8750         1.5800         2.3400       0.368900       121.7000
       5229.50        87.1875         1.5800         2.3200       0.360800       122.3000
       5230.00        85.7500         1.5800         2.3000       0.349000       122.4000
       5230.50        90.4375         1.5900         2.3100       0.358000       122.3000
       5231.00        84.8125         1.5900         2.3000       0.364400       121.8000
       5231.50        86.0625         1.5900         2.3000       0.391700       121.8000
       5232.00        81.6875         1.5900         2.3100       0.394400       121.4000
       5232.50        85.0000         1.5900         2.3200       0.408200       121.6000
       5233.00        84.0000         1.5900         2.3200       0.402200       122.2000
       5233.50        85.6250         1.5900         2.3300       0.393800       122.1000
       5234.00        85.6250         1.5800         2.3400       0.373700       122.7000
       5234.50        85.7500         1.5800         2.3500       0.368100       122.9000
       5235.00        87.2500         1.5800         2.3500       0.363000       123.0000
       5235.50        86.6875         1.5800         2.3400       0.382000       122.8000
       5236.00        86.1875         1.5800         2.3200       0.369000       122.3000
       5236.50        84.6875         1.5800         2.3300       0.382700       122.5000
       5237.00        86.8125         1.5700         2.3200       0.354100       122.5000
       5237.50        88.6875         1.5800         2.3200       0.364100       122.0000
       5238.00        88.9375         1.5800         2.3100       0.363800       122.1000
       5238.50        87.6875         1.5800         2.3100       0.383000       122.2000
       5239.00        83.7500         1.5800         2.3100       0.366500       122.1000
       5239.50        83.6250         1.5800         2.3100       0.355100       122.5000
       5240.00        83.6250         1.5800         2.3200       0.349700       122.6000
       5240.50        84.3750         1.5700         2.3100       0.374200       122.7000
       5241.00        84.1250         1.5700         2.3100       0.400900       123.2000
       5241.50        81.5000         1.5600         2.3100       0.397000       123.8000
       5242.00        83.8125         1.5600         2.3100       0.379900       123.7000
       5242.50        88.0625         1.5600         2.3100       0.361400       123.5000
       5243.00        88.5000         1.5600         2.3100       0.368500       123.3000
       5243.50        85.8125         1.5600         2.3200       0.385600       123.0000
       5244.00        86.4375         1.5600         2.3300       0.375300       123.4000
       5244.50        88.3125         1.5600         2.3300       0.384900       123.3000
       5245.00        92.3125         1.5600         2.3300       0.363800       122.5000
       5245.50        86.8750         1.5600         2.3300       0.385500       123.3000
       5246.00        86.8750         1.5500         2.3300       0.385300       123.5000
       5246.50        85.5625         1.5500         2.3200       0.409100       123.6000
       5247.00        86.7500         1.5500         2.3100       0.413700       124.1000
       5247.50        83.1875         1.5400         2.3100       0.403900       124.3000
       5248.00        82.3125         1.5400         2.3100       0.398200       124.0000
       5248.50        81.1875         1.5400         2.3000       0.361700       123.8000
       5249.00        82.8125         1.5300         2.3100       0.364600       124.1000
       5249.50        85.7500         1.5300         2.3100       0.377100       123.8000
       5250.00        88.0625         1.5300         2.3100       0.406100       124.1000
       5250.50        88.0000         1.5300         2.3100       0.394800       123.8000
       5251.00        85.9375         1.5300         2.3100       0.369200       124.5000
       5251.50        83.9375         1.5300         2.3100       0.377000       124.8000
       5252.00        85.0000         1.5200         2.3100       0.405600       124.9000
       5252.50        87.1875         1.5200         2.3100       0.414200       125.0000
       5253.00        86.3750         1.5200         2.3100       0.390400       124.7000
       5253.50        87.6875         1.5100         2.3100       0.357800       124.3000
       5254.00        86.9375         1.5100         2.3200       0.353200       124.0000
       5254.50        93.3750         1.5100         2.3300       0.355300       124.4000
       5255.00        91.1875         1.5100         2.3300       0.360400       124.7000
       5255.50        88.6250         1.5100         2.3200       0.374900       124.5000
       5256.00        83.1250         1.5000         2.3100       0.396600       124.4000
       5256.50        83.3125         1.5000         2.3100       0.422400       124.9000
       5257.00        83.3750         1.4900         2.3100       0.421400       125.1000
