~Version Information Block
VERS .                  2.0:  CWLS LOG ASCII STANDARD - VERSION 2.0
WRAP .                   NO:  One line per depth step
~Well Information Block
#MNEM.UNIT        Data Type   Information
#---------- ----------------  -----------
STRT .FT             410.50:  START DEPTH
STOP .FT           11980.00:  STOP DEPTH
STEP .FT               0.50:  STEP
NULL .              -999.25:  NULL VALUE
COMP .                     :  COMPANY
WELL .             SA-35ST1:  WELL
FLD  .                     :  FIELD
LOC  .                     :  LOCATION
CTRY .                     :  COUNTRY
STAT .                     :  STATE
CNTY .                     :  COUNTY
SRVC .                     :  SERVICE COMPANY
DATE .                     :  DATE
API  .                     :  API NUMBER
UWI  .                     :  UNIQUE WELL ID
~Curve Information Block
#MNEM.UNIT         API CODE   Curve Description
#---------- ----------------  -----------------
DEPTH.FT                   :  
GR   .GAPI                 :  Merged WIRE with WIRE_ST at 6750.00 F
RT   .OHMM                 :  Merged WIRE with WIRE_ST at 6750.00 F
RHOB .G/C3                 :  Merged WIRE with WIRE_ST at 6750.00 F
NPHI .V/V                  :  Merged WIRE with WIRE_ST at 6750.00 F
~Parameter Information Block
#MNEM.UNIT            Value   Description
#---------- ----------------  -----------
PROJECT.            SERANG_FE:  
~Other Information Block
# 
~A       DEPTH             GR             RT           RHOB           NPHI 
# ...
       7686.50        66.6600         1.1794         2.4200       0.420000
       7687.00        66.2500         1.1378         2.4209       0.419900
       7687.50        63.8000         1.0900         2.4315       0.410000
       7688.00        62.5700         1.1005         2.4400       0.420000
       7688.50        60.5300         1.1927         2.4373       0.459400
       7689.00        62.5700         1.2051         2.4235       0.450200
       7689.50        63.8000         1.1684         2.4100       0.430700
       7690.00        65.4400         1.1222         2.4100       0.391700
       7690.50        66.6600         1.1427         2.4201       0.409000
       7691.00        69.1200         1.1772         2.4357       0.419400
       7691.50        72.8000         1.1544         2.4400       0.447900
       7692.00        75.6600         1.1132         2.4400       0.459200
       7692.50        79.3400         1.1000         2.4400       0.496500
       7693.00        82.2100         1.0960         2.4400       0.491000
       7693.50        84.2500         1.0900         2.4227       0.481100
       7694.00        82.6100         1.1173         2.4259       0.442100
       7694.50        78.9300         1.2024         2.4345       0.429500
       7695.00        76.0700         1.3794         2.4459       0.420000
       7695.50        73.2100         1.5104         2.4610       0.417600
       7696.00        70.3400         1.6764         2.4781       0.410000
       7696.50        67.0700         1.8268         2.4902       0.396700
       7697.00        64.2100         1.7528         2.5008       0.369100
       7697.50        61.7600         1.6900         2.5065       0.347100
       7698.00        59.3000         1.6775         2.5155       0.332600
       7698.50        60.1200         1.7473         2.5295       0.330000
       7699.00        65.0300         1.8232         2.4763       0.330000
       7699.50        70.3400         1.8400         2.4098       0.330000
       7700.00        78.5200         1.7268         2.3822       0.348600
       7700.50        85.0700         1.6072         2.3769       0.372200
       7701.00        93.2500         1.4976         2.3198       0.399500
       7701.50        97.7500         1.4238         2.2629       0.440400
       7702.00       100.6100         1.2280         2.2310       0.471000
       7702.50       101.0200         1.0826         2.2117       0.489200
       7703.00        99.3800         1.0600         2.2293       0.480400
       7703.50        93.2500         1.0515         2.2637       0.471600
       7704.00        87.9300         1.0325         2.3493       0.477200
       7704.50        80.9800         1.1196         2.4340       0.480000
       7705.00        77.3000         1.2584         2.5035       0.460900
       7705.50        72.8000         1.2231         2.5436       0.425700
       7706.00        70.7500         1.1241         2.5476       0.392900
       7706.50        69.5300         1.1200         2.5366       0.368900
       7707.00        67.8900         1.2400         2.5102       0.360100
       7707.50        65.4400         1.2429         2.4838       0.368700
       7708.00        63.8000         1.3700         2.4650       0.377500
       7708.50        64.6200         1.3751         2.4285       0.373700
       7709.00        67.0700         1.4500         2.3998       0.364900
       7709.50        70.3400         1.4437         2.3822       0.348000
       7710.00        72.8000         1.3799         2.3756       0.330000
       7710.50        75.2500         1.3144         2.3936       0.333900
       7711.00        75.2500         1.3484         2.4123       0.340000
       7711.50        75.2500         1.3502         2.4393       0.335400
       7712.00        76.8900         1.1716         2.4663       0.330000
       7712.50        80.9800         1.2235         2.4700       0.335200
       7713.00        84.6600         1.5379         2.4564       0.351200
       7713.50        90.3800         1.6719         2.4442       0.377800
       7714.00        96.5200         1.7889         2.4352       0.402600
       7714.50       102.6500         1.8921         2.3960       0.443100
       7715.00       107.1500         1.6856         2.2984       0.494900
       7715.50       111.2400         1.3828         2.1669       0.531900
       7716.00       115.3300         1.2724         2.0558       0.555300
       7716.50       116.5600         1.2400         2.0129       0.550500
       7717.00       115.3300         1.2058         2.0976       0.533600
       7717.50       111.6500         1.1691         2.2548       0.505200
       7718.00       106.3300         1.1161         2.3038       0.492600
       7718.50       102.2500         1.1000         2.3262       0.460000
       7719.00        98.9700         1.0748         2.3795       0.427400
       7719.50        95.7000         1.0185         2.4233       0.425200
       7720.00        92.0200         0.9244         2.4400       0.437900
       7720.50        90.7900         0.8700         2.4400       0.459000
       7721.00        92.0200         0.9230         2.4590       0.443100
       7721.50        95.7000         0.9600         2.4460       0.450000
       7722.00       104.7000         0.9096         2.3945       0.466700
       7722.50       121.8800         1.1730         2.2953       0.501000
       7723.00       137.0100         1.3300         2.2150       0.517100
       7723.50       152.9600         1.4547         2.1900       0.536200
       7724.00       164.0000         1.4172         2.1458       0.548800
       7724.50       181.5900         1.4976         1.9906       0.572900
       7725.00       194.2700         2.5989         1.6997       0.606200
       7725.50       198.7600         3.8566         1.6071       0.636000
       7726.00       186.9000         2.9046         1.6458       0.628000
       7726.50       153.3700         2.1164         1.8076       0.609200
       7727.00       119.0100         1.9600         1.9922       0.590500
       7727.50        92.4300         1.7539         2.1399       0.580000
       7728.00        86.2900         1.3790         2.2056       0.569700
       7728.50        84.6600         1.0580         2.2609       0.541600
       7729.00        82.6100         0.7865         2.2799       0.511400
       7729.50        78.1200         0.7049         2.2800       0.472400
       7730.00        75.2500         1.0347         2.2890       0.423100
       7730.50        72.3900         1.2500         2.3241       0.348700
       7731.00        67.0700         1.3037         2.3943       0.292600
       7731.50        58.4800         1.5990         2.4478       0.254300
       7732.00        51.1200         1.8969         2.4883       0.233400
       7732.50        47.8500         2.0002         2.5066       0.230000
       7733.00        47.8500         2.0191         2.5161       0.236600
       7733.50        48.6700         1.9482         2.5256       0.240000
       7734.00        48.6700         1.8978         2.5197       0.240000
       7734.50        47.8500         1.8427         2.4960       0.240000
       7735.00        47.0300         1.7347         2.4507       0.242800
       7735.50        44.9900         1.5915         2.3878       0.250000
       7736.00        41.3100         1.3905         2.3242       0.250800
       7736.50        35.1700         1.1806         2.2481       0.259900
       7737.00        29.0400         0.9513         2.1742       0.277800
       7737.50        22.4900         0.7558         2.1147       0.295900
       7738.00        18.8100         0.6679         2.0887       0.300000
       7738.50        16.3600         0.6848         2.0800       0.300000
       7739.00        15.1300         0.7206         2.0807       0.294900
       7739.50        13.5000         0.6404         2.0997       0.290000
