~Version Information Block
VERS .                  2.0:  CWLS LOG ASCII STANDARD - VERSION 2.0
WRAP .                   NO:  One line per depth step
~Well Information Block
#MNEM.UNIT        Data Type   Information
#---------- ----------------  -----------
STRT .FT             410.50:  START DEPTH
STOP .FT           11980.00:  STOP DEPTH
STEP .FT               0.50:  STEP
NULL .              -999.25:  NULL VALUE
COMP .                     :  COMPANY
WELL .             SA-35ST1:  WELL
FLD  .                     :  FIELD
LOC  .                     :  LOCATION
CTRY .                     :  COUNTRY
STAT .                     :  STATE
CNTY .                     :  COUNTY
SRVC .                     :  SERVICE COMPANY
DATE .                     :  DATE
API  .                     :  API NUMBER
UWI  .                     :  UNIQUE WELL ID
~Curve Information Block
#MNEM.UNIT         API CODE   Curve Description
#---------- ----------------  -----------------
DEPTH.FT                   :  
GR   .GAPI                 :  Merged WIRE with WIRE_ST at 6750.00 F
RT   .OHMM                 :  Merged WIRE with WIRE_ST at 6750.00 F
RHOB .G/C3                 :  Merged WIRE with WIRE_ST at 6750.00 F
NPHI .V/V                  :  Merged WIRE with WIRE_ST at 6750.00 F
~Parameter Information Block
#MNEM.UNIT            Value   Description
#---------- ----------------  -----------
PROJECT.            SERANG_FE:  
~Other Information Block
# 
~A       DEPTH             GR             RT           RHOB           NPHI 
# ...
       4155.50        80.6344         1.8928         2.1115       0.535900
       4156.00        81.5019         1.8879         2.1126       0.525400
       4156.50        82.3244         1.8827         2.1133       0.524200
       4157.00        82.9956         1.8708         2.1122       0.532300
       4157.50        83.5169         1.8521         2.1087       0.541100
       4158.00        84.0819         1.8370         2.1026       0.532500
       4158.50        84.6894         1.8271         2.0925       0.512800
       4159.00        85.0156         1.8123         2.0780       0.500200
       4159.50        84.8863         1.7935         2.0621       0.496800
       4160.00        84.3006         1.7875         2.0526       0.490600
       4160.50        83.6913         1.8082         2.0563       0.476600
       4161.00        83.4731         1.8501         2.0735       0.462400
       4161.50        83.6469         1.8871         2.1006       0.458800
       4162.00        84.4075         1.9056         2.1326       0.461300
       4162.50        85.4062         1.9147         2.1695       0.466900
       4163.00        85.8631         1.9210         2.2073       0.470100
       4163.50        85.6031         1.9230         2.2397       0.470400
       4164.00        84.5831         1.9235         2.2630       0.468200
       4164.50        83.3887         1.9258         2.2778       0.463400
       4165.00        82.0000         1.9342         2.2876       0.454600
       4165.50        80.1131         1.9438         2.2945       0.443100
       4166.00        78.1175         1.9500         2.2965       0.433200
       4166.50        76.8369         1.9509         2.2876       0.428300
       4167.00        76.6625         1.9444         2.2635       0.426900
       4167.50        77.1825         1.9287         2.2406       0.431300
       4168.00        78.0081         1.9081         2.2310       0.442900
       4168.50        78.8556         1.8859         2.2101       0.453700
       4169.00        79.8538         1.8563         2.1734       0.464400
       4169.50        81.0456         1.8161         2.1448       0.487300
       4170.00        82.1719         1.7712         2.1320       0.511900
       4170.50        82.9300         1.7268         2.1303       0.521700
       4171.00        83.2550         1.6928         2.1279       0.520600
       4171.50        83.2769         1.6790         2.1223       0.518400
       4172.00        83.0612         1.6767         2.1181       0.518200
       4172.50        82.5212         1.6741         2.1163       0.520800
       4173.00        81.5900         1.6741         2.1121       0.524700
       4173.50        80.3969         1.6885         2.1073       0.525900
       4174.00        79.2688         1.7175         2.1082       0.518700
       4174.50        78.5100         1.7418         2.1130       0.501800
       4175.00        78.1413         1.7535         2.1138       0.485500
       4175.50        77.7931         1.7593         2.1114       0.485100
       4176.00        76.9894         1.7638         2.1147       0.502100
       4176.50        75.6656         1.7744         2.1268       0.522500
       4177.00        74.3631         1.7867         2.1384       0.533400
       4177.50        73.8412         1.7958         2.1388       0.531700
       4178.00        74.1444         1.7977         2.1316       0.519900
       4178.50        75.3594         1.7942         2.1176       0.503500
       4179.00        76.7487         1.7912         2.0983       0.487100
       4179.50        77.6837         1.7950         2.0765       0.473000
       4180.00        78.0544         1.8044         2.0563       0.466800
       4180.50        78.1200         1.8123         2.0420       0.475800
       4181.00        78.0762         1.8184         2.0343       0.500600
       4181.50        77.8581         1.8255         2.0396       0.528400
       4182.00        77.3144         1.8305         2.0589       0.541900
       4182.50        76.3806         1.8282         2.0861       0.538600
       4183.00        75.1869         1.8210         2.1095       0.523800
       4183.50        74.0150         1.8164         2.1244       0.508000
       4184.00        72.9731         1.8164         2.1369       0.501500
       4184.50        71.8444         1.8165         2.1475       0.506400
       4185.00        70.4556         1.8127         2.1562       0.515300
       4185.50        69.0669         1.8076         2.1692       0.516800
       4186.00        68.1775         1.8035         2.1881       0.504900
       4186.50        68.0700         1.7984         2.2049       0.491200
       4187.00        68.5713         1.7954         2.2126       0.484900
       4187.50        69.3087         1.8005         2.2138       0.488200
       4188.00        69.6750         1.8051         2.2133       0.487400
       4188.50        69.4569         1.7985         2.2150       0.477000
       4189.00        68.5244         1.7895         2.2183       0.457000
       4189.50        67.2450         1.7952         2.2183       0.451400
       4190.00        65.6606         1.8126         2.2111       0.468900
       4190.50        63.3819         1.8288         2.1989       0.491300
       4191.00        60.3881         1.8334         2.1905       0.495200
       4191.50        57.2637         1.8217         2.1918       0.474100
       4192.00        54.5938         1.7939         2.2014       0.450900
       4192.50        52.4450         1.7619         2.2150       0.442000
       4193.00        50.4500         1.7372         2.2293       0.445500
       4193.50        48.3469         1.7198         2.2430       0.452800
       4194.00        46.4162         1.7041         2.2519       0.460700
       4194.50        45.2444         1.6903         2.2530       0.469800
       4195.00        45.1575         1.6840         2.2508       0.476000
       4195.50        45.8294         1.6875         2.2495       0.476200
       4196.00        46.8044         1.6950         2.2477       0.469700
       4196.50        47.9319         1.7012         2.2468       0.455500
       4197.00        49.3219         1.7061         2.2536       0.443800
       4197.50        50.7556         1.7130         2.2711       0.438400
       4198.00        51.9706         1.7223         2.2921       0.440500
       4198.50        53.1413         1.7305         2.3021       0.447500
       4199.00        54.5294         1.7348         2.2951       0.457000
       4199.50        55.9188         1.7368         2.2780       0.464500
       4200.00        56.8537         1.7378         2.2636       0.466800
       4200.50        57.2244         1.7368         2.2574       0.461500
       4201.00        57.2900         1.7290         2.2548       0.448000
       4201.50        57.3981         1.7101         2.2512       0.435800
       4202.00        57.9394         1.6875         2.2474       0.429800
       4202.50        59.2400         1.6726         2.2420       0.429100
       4203.00        61.3013         1.6675         2.2366       0.431600
       4203.50        63.7325         1.6722         2.2285       0.440400
       4204.00        66.0338         1.6924         2.2173       0.453300
       4204.50        67.9219         1.7297         2.2069       0.462700
       4205.00        69.2006         1.7703         2.2007       0.462600
       4205.50        69.6750         1.7992         2.2006       0.453500
       4206.00        69.4569         1.8155         2.2072       0.442700
       4206.50        68.5031         1.8284         2.2194       0.438500
       4207.00        67.2906         1.8354         2.2297       0.445200
       4207.50        66.3375         1.8292         2.2304       0.467000
       4208.00        65.7069         1.8252         2.2204       0.487400
       4208.50        65.2919         1.8471         2.2079       0.496900
