~Version Information Block
VERS .                  2.0:  CWLS LOG ASCII STANDARD - VERSION 2.0
WRAP .                   NO:  One line per depth step
~Well Information Block
#MNEM.UNIT        Data Type   Information
#---------- ----------------  -----------
STRT .FT             950.00:  START DEPTH
STOP .FT           11598.00:  STOP DEPTH
STEP .FT               0.50:  STEP
NULL .              -999.25:  NULL VALUE
COMP .                     :  COMPANY
WELL .          SA-32RD1ST1:  WELL
FLD  .                     :  FIELD
LOC  .                     :  LOCATION
CTRY .                     :  COUNTRY
STAT .                     :  STATE
CNTY .                     :  COUNTY
SRVC .                     :  SERVICE COMPANY
DATE .                     :  DATE
API  .                     :  API NUMBER
UWI  .                     :  UNIQUE WELL ID
~Curve Information Block
#MNEM.UNIT         API CODE   Curve Description
#---------- ----------------  -----------------
DEPTH.FT                   :  
GR   .GAPI                 :  Merged WIRE with WIRE_ST at 7550.00 F
RT   .OHMM                 :  Merged WIRE with WIRE_ST at 7550.00 F
RHOB .G/C3                 :  Merged WIRE with WIRE_ST at 7550.00 F
NPHI .V/V                  :  Merged WIRE with WIRE_ST at 7550.00 F
~Parameter Information Block
#MNEM.UNIT            Value   Description
#---------- ----------------  -----------
PROJECT.            SERANG_FE:  
~Other Information Block
# 
~A       DEPTH             GR             RT           RHOB           NPHI 
# ...
       6621.00        94.0000         1.6200         2.2500         0.4100
       6621.50        94.8700         1.6200         2.2500         0.4900
       6622.00        95.4900         1.6400         2.2400         0.4900
       6622.50        96.1100         1.6400         2.2200         0.4800
       6623.00        96.1000         1.6600         2.2200         0.4500
       6623.50        94.4000         1.6600         2.2200         0.4400
       6624.00        92.7100         1.6700         2.2200         0.4600
       6624.50        91.8400         1.6700         2.2300         0.5200
       6625.00        93.9900         1.6700         2.2400         0.5500
       6625.50        95.5600         1.6500         2.2500         0.5000
       6626.00        96.3000         1.6400         2.2500         0.4200
       6626.50        95.0900         1.6100         2.2500         0.3500
       6627.00        94.4600         1.6100         2.2500         0.3500
       6627.50        93.8400         1.6200         2.2600         0.3700
       6628.00        94.4100         1.6200         2.2600         0.3900
       6628.50        94.9800         1.6100         2.2700         0.4400
       6629.00        96.3000         1.6100         2.2700         0.4600
       6629.50        97.0500         1.6100         2.2700         0.4600
       6630.00        97.8100         1.6100         2.2600         0.4300
       6630.50        97.8100         1.6100         2.2600         0.4200
       6631.00        97.8100         1.6100         2.2700         0.4200
       6631.50        97.8100         1.6100         2.2600         0.4200
       6632.00        97.8100         1.6100         2.2500         0.4200
       6632.50        97.8100         1.6100         2.2500         0.4300
       6633.00        98.0600         1.5800         2.2600         0.4600
       6633.50        98.3000         1.5800         2.2700         0.4900
       6634.00        98.5500         1.6100         2.2700         0.5000
       6634.50        97.8100         1.6100         2.2600         0.4600
       6635.00        97.0700         1.5800         2.2500         0.4200
       6635.50        96.3400         1.5800         2.2400         0.4200
       6636.00        96.3400         1.5800         2.2400         0.4600
       6636.50        93.2400         1.5800         2.2500         0.5000
       6637.00        90.1400         1.5800         2.2600         0.4700
       6637.50        87.0400         1.5500         2.2700         0.4600
       6638.00        87.1000         1.5500         2.2700         0.4500
       6638.50        87.1600         1.5300         2.2800         0.4600
       6639.00        87.7800         1.5300         2.2800         0.4700
       6639.50        88.3500         1.5300         2.2700         0.4700
       6640.00        88.9100         1.5100         2.2600         0.5000
       6640.50        89.7500         1.5100         2.2500         0.5200
       6641.00        90.5800         1.5600         2.2500         0.5400
       6641.50        93.2400         1.5600         2.2400         0.5400
       6642.00        95.0700         1.5600         2.2400         0.5200
       6642.50        99.1500         1.5600         2.2400         0.4900
       6643.00       101.4000         1.5600         2.2400         0.4500
       6643.50       103.6500         1.5100         2.2300         0.4400
       6644.00       103.6500         1.5100         2.2500         0.4200
       6644.50       104.7200         1.5100         2.2700         0.4000
       6645.00       105.8000         1.5100         2.3000         0.4100
       6645.50       105.9300         1.5200         2.3000         0.4800
       6646.00       104.9800         1.5200         2.3000         0.5500
       6646.50       102.2800         1.5200         2.3100         0.5400
       6647.00       100.5300         1.5200         2.3100         0.5100
       6647.50        96.1900         1.8600         2.2900         0.3900
       6648.00        93.6000         1.8600         2.2800         0.3500
       6648.50        91.0100         1.8800         2.2600         0.3200
       6649.00        91.0100         1.8800         2.2700         0.3500
       6649.50        90.9500         1.8800         2.2800         0.3900
       6650.00        90.9000         1.8800         2.2800         0.3900
       6650.50        91.0900         1.8200         2.2900         0.3700
       6651.00        91.3400         1.8200         2.2800         0.3700
       6651.50        93.4200         1.7900         2.2800         0.4000
       6652.00        95.2500         1.7900         2.2700         0.4000
       6652.50        97.0700         1.3600         2.2600         0.3800
       6653.00        98.7800         1.3600         2.2600         0.3700
       6653.50       100.4800         1.4900         2.2600         0.3700
       6654.00       103.7500         1.4900         2.2700         0.3600
       6654.50       105.3100         1.7300         2.2800         0.3600
       6655.00       106.8800         1.7300         2.2800         0.3800
       6655.50       106.8800         1.7300         2.2900         0.4600
       6656.00       106.8800         1.7300         2.3000         0.4700
       6656.50       106.4900         1.7300         2.3000         0.4500
       6657.00       106.1000         1.7600         2.2800         0.3800
       6657.50       103.6500         1.7600         2.2700         0.3400
       6658.00       101.5800         1.7600         2.2700         0.3200
       6658.50        99.5100         1.7100         2.2600         0.2900
       6659.00        96.9300         1.7100         2.2500         0.2900
       6659.50        94.3600         1.6400         2.2400         0.3000
       6660.00        88.9400         1.6400         2.2200         0.3200
       6660.50        86.0900         1.6100         2.2100         0.3000
       6661.00        82.0000         1.6100         2.2200         0.2700
       6661.50        80.7500         1.6500         2.2500         0.2800
       6662.00        78.8100         1.6500         2.2700         0.3200
       6662.50        78.1100         1.6100         2.2700         0.3700
       6663.00        77.4100         1.6100         2.2600         0.3500
       6663.50        77.4100         1.6100         2.2500         0.3300
       6664.00        76.2800         1.6100         2.2200         0.3100
       6664.50        75.1500         1.6600         2.2000         0.3000
       6665.00        74.9600         1.6600         2.1900         0.2700
       6665.50        75.9000         1.6000         2.1900         0.3000
       6666.00        78.7300         1.6000         2.1900         0.3500
       6666.50        80.6200         1.3900         2.2200         0.4300
       6667.00        85.7200         1.3900         2.2600         0.4200
       6667.50        88.9300         1.4300         2.2500         0.4800
       6668.00        92.1400         1.4300         2.2200         0.5300
       6668.50        92.1400         1.4300         2.1900         0.6100
       6669.00        94.4200         1.4300         2.1900         0.5600
       6669.50        96.7000         1.4300         2.1900         0.5200
       6670.00       102.1800         1.3400         2.2000         0.4500
       6670.50       105.3800         1.3400         2.2300         0.4000
       6671.00       108.5800         1.4700         2.2500         0.4100
       6671.50       109.2200         1.4700         2.2700         0.4700
       6672.00       109.8600         1.5400         2.2500         0.5100
       6672.50       111.8800         1.5400         2.2800         0.5300
       6673.00       110.4800         1.6700         2.2900         0.5200
       6673.50       109.0800         1.6700         2.3200         0.4400
       6674.00       105.3100         1.6400         2.3000         0.3600
