~Version Information Block
VERS .                  2.0:  CWLS LOG ASCII STANDARD - VERSION 2.0
WRAP .                   NO:  One line per depth step
~Well Information Block
#MNEM.UNIT        Data Type   Information
#---------- ----------------  -----------
STRT .FT             410.50:  START DEPTH
STOP .FT           11980.00:  STOP DEPTH
STEP .FT               0.50:  STEP
NULL .              -999.25:  NULL VALUE
COMP .                     :  COMPANY
WELL .             SA-35ST1:  WELL
FLD  .                     :  FIELD
LOC  .                     :  LOCATION
CTRY .                     :  COUNTRY
STAT .                     :  STATE
CNTY .                     :  COUNTY
SRVC .                     :  SERVICE COMPANY
DATE .                     :  DATE
API  .                     :  API NUMBER
UWI  .                     :  UNIQUE WELL ID
~Curve Information Block
#MNEM.UNIT         API CODE   Curve Description
#---------- ----------------  -----------------
DEPTH.FT                   :  
GR   .GAPI                 :  Merged WIRE with WIRE_ST at 6750.00 F
RT   .OHMM                 :  Merged WIRE with WIRE_ST at 6750.00 F
RHOB .G/C3                 :  Merged WIRE with WIRE_ST at 6750.00 F
NPHI .V/V                  :  Merged WIRE with WIRE_ST at 6750.00 F
~Parameter Information Block
#MNEM.UNIT            Value   Description
#---------- ----------------  -----------
PROJECT.            SERANG_FE:  
~Other Information Block
# 
~A       DEPTH             GR             RT           RHOB           NPHI 
# ...
      10522.00        42.6300         2.7881         2.4600       0.210000
      10522.50        43.4400         2.7857         2.4751       0.200000
      10523.00        44.2000         2.8158         2.4877       0.200000
      10523.50        44.1900         2.8400         2.4744       0.210000
      10524.00        45.0100         2.8359         2.4541       0.220000
      10524.50        45.8300         2.8179         2.4581       0.220000
      10525.00        46.5700         2.8142         2.4846       0.210000
      10525.50        45.3400         2.8300         2.4983       0.210000
      10526.00        44.5700         2.8409         2.4831       0.220000
      10526.50        45.0500         2.8867         2.4542       0.210000
      10527.00        47.1000         2.9190         2.4500       0.210000
      10527.50        49.9300         2.9661         2.4500       0.210000
      10528.00        52.0000         3.0200         2.4860       0.220000
      10528.50        55.6800         3.0176         2.4809       0.220000
      10529.00        60.1700         3.0268         2.4800       0.240000
      10529.50        64.6400         3.0849         2.4800       0.250000
      10530.00        68.3100         3.0801         2.4991       0.250000
      10530.50        68.3100         3.0327         2.4806       0.250000
      10531.00        66.6700         3.0932         2.4702       0.249500
      10531.50        62.9900         3.1731         2.4601       0.240000
      10532.00        61.7500         3.2020         2.4902       0.240000
      10532.50        62.1400         3.1746         2.5106       0.240000
      10533.00        63.7500         3.1546         2.5397       0.237700
      10533.50        65.8100         3.1538         2.5281       0.230000
      10534.00        67.0600         3.1816         2.4894       0.226800
      10534.50        67.5100         3.1543         2.4830       0.223700
      10535.00        66.6900         3.1314         2.5218       0.230000
      10535.50        65.9200         3.0984         2.5440       0.234500
      10536.00        64.2200         3.0700         2.5834       0.235000
      10536.50        63.8400         3.0550         2.6151       0.230000
      10537.00        62.9400         2.9988         2.6444       0.230000
      10537.50        63.8000         2.9408         2.6054       0.230000
      10538.00        64.9300         2.9044         2.5783       0.236800
      10538.50        67.7400         2.8479         2.5718       0.247200
      10539.00        71.3800         2.7587         2.5819       0.265300
      10539.50        74.2400         2.6700         2.5942       0.278100
      10540.00        76.3600         2.6472         2.6056       0.297100
      10540.50        77.2700         2.5770         2.5853       0.300000
      10541.00        76.9600         2.5495         2.5625       0.300000
      10541.50        76.1800         2.6122         2.5400       0.291700
      10542.00        74.9500         2.6662         2.5455       0.290000
      10542.50        73.7300         2.6770         2.5687       0.282200
      10543.00        72.1800         2.6553         2.5900       0.265000
      10543.50        69.6900         2.6428         2.5963       0.245600
      10544.00        68.4300         2.7222         2.6067       0.233100
      10544.50        66.6600         2.7854         2.5966       0.236700
      10545.00        66.2500         2.8000         2.5900       0.246400
      10545.50        65.4400         2.8050         2.5826       0.250000
      10546.00        65.4400         2.8273         2.5738       0.244100
      10546.50        64.6200         2.8547         2.5641       0.234400
      10547.00        61.7600         2.8723         2.5482       0.224700
      10547.50        58.0800         2.8756         2.5558       0.220000
      10548.00        54.8000         2.8664         2.5544       0.215200
      10548.50        53.1700         2.8879         2.5375       0.210000
      10549.00        53.9900         2.8859         2.5100       0.214600
      10549.50        56.4400         2.9119         2.5100       0.220000
      10550.00        59.7100         2.9200         2.5198       0.225100
      10550.50        62.5700         2.9183         2.5250       0.235300
      10551.00        65.0300         2.9083         2.5097       0.240000
      10551.50        65.4400         2.8984         2.5106       0.234200
      10552.00        66.2500         2.8840         2.5363       0.230000
      10552.50        66.6600         2.8514         2.5946       0.236200
      10553.00        68.3000         2.8693         2.6243       0.240000
      10553.50        70.7500         2.9238         2.5967       0.246700
      10554.00        73.6200         2.8556         2.5621       0.250000
      10554.50        77.7100         2.6579         2.5622       0.242900
      10555.00        80.5700         2.5539         2.6012       0.247400
      10555.50        82.6100         2.4953         2.6327       0.257600
      10556.00        83.0200         2.4542         2.6140       0.260000
      10556.50        81.8000         2.5038         2.6133       0.268100
      10557.00        80.9800         2.5445         2.6065       0.270000
      10557.50        79.7500         2.4682         2.6069       0.270000
      10558.00        79.3400         2.4400         2.5818       0.278800
      10558.50        78.1200         2.4409         2.5628       0.289000
      10559.00        76.8900         2.4619         2.5673       0.290000
      10559.50        76.4800         2.5094         2.5700       0.299500
      10560.00        76.8900         2.4902         2.5700       0.300000
      10560.50        78.1200         2.5009         2.5623       0.290100
      10561.00        78.5200         2.5700         2.5757       0.270000
      10561.50        77.7100         2.5800         2.5880       0.270000
      10562.00        75.2500         2.5701         2.6144       0.270000
      10562.50        71.9800         2.5798         2.6282       0.269200
      10563.00        69.1200         2.5897         2.6049       0.258900
      10563.50        69.1200         2.6382         2.5830       0.250000
      10564.00        70.7500         2.7070         2.5800       0.250000
      10564.50        72.8000         2.7385         2.6239       0.250000
      10565.00        75.2500         2.7118         2.6211       0.248000
      10565.50        76.0700         2.7193         2.5928       0.242200
      10566.00        77.3000         2.7200         2.5808       0.250000
      10566.50        76.4800         2.7383         2.6173       0.252700
      10567.00        77.7100         2.7127         2.6295       0.262900
      10567.50        78.9300         2.5569         2.5917       0.273100
      10568.00        79.3400         2.4864         2.5317       0.280000
      10568.50        77.7100         2.5449         2.5497       0.277100
      10569.00        75.6600         2.5500         2.5600       0.267400
      10569.50        75.6600         2.6625         2.5999       0.257800
      10570.00        75.6600         2.7442         2.5903       0.248100
      10570.50        74.0300         2.8047         2.5992       0.240000
      10571.00        69.9400         2.9130         2.5789       0.238800
      10571.50        66.2500         2.9748         2.5593       0.230000
      10572.00        64.6200         2.9900         2.5500       0.229600
      10572.50        62.9800         2.9866         2.5509       0.219900
      10573.00        60.9400         2.9800         2.5611       0.210300
      10573.50        58.4800         2.9890         2.5724       0.210000
      10574.00        57.2600         2.9950         2.5860       0.210000
      10574.50        58.0800         2.9845         2.5571       0.210000
      10575.00        58.0800         2.9982         2.5384       0.210000
