~Version Information Block
VERS .                  2.0:  CWLS LOG ASCII STANDARD - VERSION 2.0
WRAP .                   NO:  One line per depth step
~Well Information Block
#MNEM.UNIT        Data Type   Information
#---------- ----------------  -----------
STRT .FT             950.00:  START DEPTH
STOP .FT           11598.00:  STOP DEPTH
STEP .FT               0.50:  STEP
NULL .              -999.25:  NULL VALUE
COMP .                     :  COMPANY
WELL .          SA-32RD1ST1:  WELL
FLD  .                     :  FIELD
LOC  .                     :  LOCATION
CTRY .                     :  COUNTRY
STAT .                     :  STATE
CNTY .                     :  COUNTY
SRVC .                     :  SERVICE COMPANY
DATE .                     :  DATE
API  .                     :  API NUMBER
UWI  .                     :  UNIQUE WELL ID
~Curve Information Block
#MNEM.UNIT         API CODE   Curve Description
#---------- ----------------  -----------------
DEPTH.FT                   :  
GR   .GAPI                 :  Merged WIRE with WIRE_ST at 7550.00 F
RT   .OHMM                 :  Merged WIRE with WIRE_ST at 7550.00 F
RHOB .G/C3                 :  Merged WIRE with WIRE_ST at 7550.00 F
NPHI .V/V                  :  Merged WIRE with WIRE_ST at 7550.00 F
~Parameter Information Block
#MNEM.UNIT            Value   Description
#---------- ----------------  -----------
PROJECT.            SERANG_FE:  
~Other Information Block
# 
~A       DEPTH             GR             RT           RHOB           NPHI 
# ...
       1003.50        39.4300         0.7800      -999.2500      -999.2500
       1004.00        37.6400         0.8000      -999.2500      -999.2500
       1004.50        35.8500         0.8300      -999.2500      -999.2500
       1005.00        35.1300         0.8400      -999.2500      -999.2500
       1005.50        35.1300         0.8500      -999.2500      -999.2500
       1006.00        36.9200         0.8600      -999.2500      -999.2500
       1006.50        39.4300         0.8700      -999.2500      -999.2500
       1007.00        45.5300         0.8700      -999.2500      -999.2500
       1007.50        48.3900         0.8500      -999.2500      -999.2500
       1008.00        51.9800         0.8200      -999.2500      -999.2500
       1008.50        52.3400         0.7000      -999.2500      -999.2500
       1009.00        51.2600         0.6400      -999.2500      -999.2500
       1009.50        51.2600         0.6700      -999.2500      -999.2500
       1010.00        51.2600         0.6900      -999.2500      -999.2500
       1010.50        51.2600         0.6500      -999.2500      -999.2500
       1011.00        49.4700         0.6300      -999.2500      -999.2500
       1011.50        51.9800         0.6100      -999.2500      -999.2500
       1012.00        55.5600         0.6100      -999.2500      -999.2500
       1012.50        59.1500         0.7000      -999.2500      -999.2500
       1013.00        59.1500         0.6500      -999.2500      -999.2500
       1013.50        57.3500         0.6400      -999.2500      -999.2500
       1014.00        57.3500         0.6400      -999.2500      -999.2500
       1014.50        57.3500         0.6500      -999.2500      -999.2500
       1015.00        58.4300         0.6400      -999.2500      -999.2500
       1015.50        58.4300         0.6000      -999.2500      -999.2500
       1016.00        56.6400         0.5500      -999.2500      -999.2500
       1016.50        53.7700         0.5600      -999.2500      -999.2500
       1017.00        53.0500         0.5700      -999.2500      -999.2500
       1017.50        53.0500         0.5900      -999.2500      -999.2500
       1018.00        54.8500         0.6300      -999.2500      -999.2500
       1018.50        55.5600         0.7300      -999.2500      -999.2500
       1019.00        56.2800         0.6500      -999.2500      -999.2500
       1019.50        57.3500         0.6100      -999.2500      -999.2500
       1020.00        57.3500         0.5900      -999.2500      -999.2500
       1020.50        58.4300         0.6000      -999.2500      -999.2500
       1021.00        59.1500         0.6000      -999.2500      -999.2500
       1021.50        57.3500         0.6200      -999.2500      -999.2500
       1022.00        55.5600         0.6000      -999.2500      -999.2500
       1022.50        53.7700         0.5700      -999.2500      -999.2500
       1023.00        55.5600         0.5500      -999.2500      -999.2500
       1023.50        55.5600         0.5900      -999.2500      -999.2500
       1024.00        55.5600         0.6100      -999.2500      -999.2500
       1024.50        53.7700         0.6000      -999.2500      -999.2500
       1025.00        55.5600         0.5800      -999.2500      -999.2500
       1025.50        57.3500         0.5500      -999.2500      -999.2500
       1026.00        59.1500         0.5400      -999.2500      -999.2500
       1026.50        57.3500         0.5100      -999.2500      -999.2500
       1027.00        56.2800         0.5300      -999.2500      -999.2500
       1027.50        56.2800         0.5500      -999.2500      -999.2500
       1028.00        59.1500         0.5900      -999.2500      -999.2500
       1028.50        60.2200         0.6200      -999.2500      -999.2500
       1029.00        58.4300         0.6000      -999.2500      -999.2500
       1029.50        56.2800         0.6000      -999.2500      -999.2500
       1030.00        56.2800         0.6000      -999.2500      -999.2500
       1030.50        58.0700         0.5800      -999.2500      -999.2500
       1031.00        59.1500         0.5700      -999.2500      -999.2500
       1031.50        59.1500         0.5700      -999.2500      -999.2500
       1032.00        58.4300         0.5700      -999.2500      -999.2500
       1032.50        56.6400         0.5700      -999.2500      -999.2500
       1033.00        56.6400         0.5600      -999.2500      -999.2500
       1033.50        57.3500         0.5300      -999.2500      -999.2500
       1034.00        59.1500         0.5300      -999.2500      -999.2500
       1034.50        59.1500         0.5100      -999.2500      -999.2500
       1035.00        57.3500         0.5100      -999.2500      -999.2500
       1035.50        55.5600         0.5200      -999.2500      -999.2500
       1036.00        54.4900         0.5400      -999.2500      -999.2500
       1036.50        55.2000         0.5200      -999.2500      -999.2500
       1037.00        55.9200         0.5300      -999.2500      -999.2500
       1037.50        55.2000         0.5400      -999.2500      -999.2500
       1038.00        54.4900         0.5300      -999.2500      -999.2500
       1038.50        51.9800         0.6000      -999.2500      -999.2500
       1039.00        50.1900         0.6100      -999.2500      -999.2500
       1039.50        50.1900         0.5900      -999.2500      -999.2500
       1040.00        52.6900         0.5600      -999.2500      -999.2500
       1040.50        58.7900         0.6000      -999.2500      -999.2500
       1041.00        62.3700         0.6500      -999.2500      -999.2500
       1041.50        65.2400         0.6300      -999.2500      -999.2500
       1042.00        64.5200         0.5500      -999.2500      -999.2500
       1042.50        62.7300         0.5500      -999.2500      -999.2500
       1043.00        58.4300         0.5800      -999.2500      -999.2500
       1043.50        51.2600         0.6100      -999.2500      -999.2500
       1044.00        49.4700         0.6390      -999.2500      -999.2500
       1044.50        51.9800         0.4310      -999.2500      -999.2500
       1045.00        57.3500         0.5600      -999.2500      -999.2500
       1045.50        59.8600         0.5890      -999.2500      -999.2500
       1046.00        61.6600         0.4890      -999.2500      -999.2500
       1046.50        61.6600         0.4000      -999.2500      -999.2500
       1047.00        60.9400         0.3200      -999.2500      -999.2500
       1047.50        59.1500         0.2500      -999.2500      -999.2500
       1048.00        57.3500         0.2600      -999.2500      -999.2500
       1048.50        53.7700         0.2500      -999.2500      -999.2500
       1049.00        50.9000         0.2400      -999.2500      -999.2500
       1049.50        50.1900         0.2490      -999.2500      -999.2500
       1050.00        50.1900         0.1700      -999.2500      -999.2500
       1050.50        50.5400         0.1500      -999.2500      -999.2500
       1051.00        49.4700         0.1700      -999.2500      -999.2500
       1051.50        49.4700         0.1800      -999.2500      -999.2500
       1052.00        48.3900         0.1900      -999.2500      -999.2500
       1052.50        48.3900         0.2000      -999.2500      -999.2500
       1053.00        48.3900         0.2200      -999.2500      -999.2500
       1053.50        48.3900         0.2200      -999.2500      -999.2500
       1054.00        46.6000         0.2100      -999.2500      -999.2500
       1054.50        46.6000         0.2700      -999.2500      -999.2500
       1055.00        44.8100         0.2600      -999.2500      -999.2500
       1055.50        47.3200         0.3200      -999.2500      -999.2500
       1056.00        47.3200         0.3700      -999.2500      -999.2500
       1056.50        49.1100         0.4100      -999.2500      -999.2500
