~Version Information Block
VERS .                  2.0:  CWLS LOG ASCII STANDARD - VERSION 2.0
WRAP .                   NO:  One line per depth step
~Well Information Block
#MNEM.UNIT        Data Type   Information
#---------- ----------------  -----------
STRT .FT             950.00:  START DEPTH
STOP .FT           11637.50:  STOP DEPTH
STEP .FT               0.50:  STEP
NULL .              -999.25:  NULL VALUE
COMP .                     :  COMPANY
WELL .                SA-32:  WELL
FLD  .                     :  FIELD
LOC  .                     :  LOCATION
CTRY .                     :  COUNTRY
STAT .                     :  STATE
CNTY .                     :  COUNTY
SRVC .                     :  SERVICE COMPANY
DATE .                     :  DATE
API  .                     :  API NUMBER
UWI  .                     :  UNIQUE WELL ID
~Curve Information Block
#MNEM.UNIT         API CODE   Curve Description
#---------- ----------------  -----------------
DEPTH.FT                   :  DEPTH
GR   .GAPI                 :  Gamma Ray
RT   .OHMM                 :  Deep resistivity
RHOB .G/C3                 :  Bulk density
NPHI .V/V                  :  NEUT*100
~Parameter Information Block
#MNEM.UNIT            Value   Description
#---------- ----------------  -----------
PROJECT.            SERANG_FE:  
~Other Information Block
# 
~A       DEPTH             GR             RT           RHOB           NPHI 
# ...
       8065.50        69.9000         1.9830         2.4470       0.269000
       8066.00        69.9000         2.0000         2.4370       0.264000
       8066.50        71.6900         1.9720         2.4300       0.261000
       8067.00        73.3300         2.0070         2.4270       0.266000
       8067.50        77.0700         1.9740         2.4230       0.270000
       8068.00        79.0300         2.0140         2.4330       0.270000
       8068.50        77.4000         2.0430         2.4400       0.270000
       8069.00        73.6600         2.0870         2.4430       0.270000
       8069.50        69.9000         2.2040         2.4500       0.270000
       8070.00        69.9000         2.2170         2.4470       0.270000
       8070.50        71.5000         2.0950         2.4370       0.270000
       8071.00        73.2900         1.9890         2.4330       0.272000
       8071.50        75.0800         1.8830         2.4430       0.279000
       8072.00        78.6500         1.8640         2.4530       0.289000
       8072.50        80.6600         1.8860         2.4570       0.299000
       8073.00        82.4500         1.9020         2.4470       0.307000
       8073.50        80.8700         1.8700         2.4430       0.308000
       8074.00        78.8600         1.8620         2.4530       0.300000
       8074.50        78.8600         1.8170         2.4630       0.290000
       8075.00        80.6600         1.8140         2.4700       0.282000
       8075.50        84.2400         1.8880         2.4670       0.282000
       8076.00        86.0300         1.8160         2.4530       0.295000
       8076.50        84.4900         1.8620         2.4400       0.319000
       8077.00        82.4400         1.8820         2.4370       0.339000
       8077.50        82.1700         1.8920         2.4300       0.348000
       8078.00        83.7100         1.8130         2.4270       0.347000
       8078.50        85.7700         1.8490         2.4200       0.334000
       8079.00        84.5200         1.8300         2.4200       0.308000
       8079.50        80.9400         1.8280         2.4200       0.292000
       8080.00        78.8600         1.7800         2.4200       0.298000
       8080.50        78.5800         1.7810         2.4200       0.329000
       8081.00        81.8600         1.8390         2.4230       0.365000
       8081.50        85.4300         1.7600         2.4330       0.379000
       8082.00        92.2900         1.7990         2.4370       0.353000
       8082.50        96.1700         1.7800         2.4300       0.331000
       8083.00        98.2700         1.7320         2.4300       0.336000
       8083.50        94.9900         1.7110         2.4330       0.359000
       8084.00        93.2000         1.7190         2.4400       0.383000
       8084.50        91.4100         1.7660         2.4400       0.380000
       8085.00        91.4100         1.7610         2.4400       0.353000
       8085.50        93.2000         1.6870         2.4430       0.337000
       8086.00        93.5600         1.6530         2.4470       0.334000
       8086.50        95.3500         1.6410         2.4370       0.347000
       8087.00        95.3500         1.6490         2.4300       0.360000
       8087.50        96.7900         1.6330         2.4330       0.356000
       8088.00        95.3700         1.6470         2.4370       0.346000
       8088.50        93.5800         1.7000         2.4300       0.340000
       8089.00        91.7900         1.6440         2.4300       0.344000
       8089.50        91.4100         1.6050         2.4300       0.350000
       8090.00        91.4100         1.5520         2.4300       0.351000
       8090.50        91.4100         1.5800         2.4300       0.355000
       8091.00        92.7900         1.6530         2.4330       0.364000
       8091.50        94.5800         1.6470         2.4400       0.364000
       8092.00        96.3700         1.6480         2.4370       0.354000
       8092.50        95.4200         1.6200         2.4270       0.339000
       8093.00        94.9900         1.6620         2.4170       0.325000
       8093.50        94.5500         1.7240         2.4100       0.320000
       8094.00        95.9100         1.7330         2.4130       0.321000
       8094.50        97.6900         1.6670         2.4270       0.325000
       8095.00        98.5800         1.6190         2.4430       0.331000
       8095.50        96.7900         1.6240         2.4500       0.338000
       8096.00        93.6500         1.6500         2.4500       0.352000
       8096.50        91.4100         1.6340         2.4530       0.359000
       8097.00        89.6200         1.6010         2.4600       0.353000
       8097.50        87.8200         1.6090         2.4600       0.343000
       8098.00        86.0300         1.6510         2.4630       0.332000
       8098.50        87.3300         1.6390         2.4700       0.322000
       8099.00        88.6100         1.6140         2.4700       0.314000
       8099.50        89.1400         1.6040         2.4670       0.312000
       8100.00        89.6300         1.6170         2.4600       0.320000
       8100.50        91.3900         1.6130         2.4600       0.335000
       8101.00        94.4400         1.6060         2.4600       0.345000
       8101.50        95.0100         1.5770         2.4630       0.343000
       8102.00        95.5600         1.5710         2.4700       0.338000
       8102.50        94.3400         1.5950         2.4670       0.333000
       8103.00        93.7800         1.5950         2.4570       0.330000
       8103.50        93.1900         1.6050         2.4430       0.328000
       8104.00        92.6100         1.6150         2.4300       0.318000
       8104.50        91.4300         1.6050         2.4370       0.303000
       8105.00        88.4300         1.6190         2.4530       0.292000
       8105.50        88.4300         1.6580         2.4600       0.288000
       8106.00        89.6200         1.6980         2.4600       0.282000
       8106.50        91.4100         1.7330         2.4630       0.278000
       8107.00        90.4600         1.7840         2.4700       0.277000
       8107.50        87.7200         1.8380         2.4730       0.287000
       8108.00        84.1400         1.8420         2.4800       0.290000
       8108.50        81.5100         1.8140         2.4770       0.293000
       8109.00        81.5800         1.8090         2.4700       0.299000
       8109.50        82.4500         1.8330         2.4670       0.303000
       8110.00        84.2500         1.8340         2.4570       0.309000
       8110.50        85.1100         1.8460         2.4470       0.304000
       8111.00        86.0300         1.8200         2.4400       0.289000
       8111.50        86.0300         1.8010         2.4470       0.284000
       8112.00        85.1300         1.7540         2.4670       0.292000
       8112.50        83.3400         1.7370         2.4800       0.299000
       8113.00        82.4400         1.7390         2.4770       0.300000
       8113.50        83.3400         1.7660         2.4670       0.300000
       8114.00        85.1400         1.7640         2.4630       0.303000
       8114.50        86.9100         1.7200         2.4800       0.307000
       8115.00        91.3500         1.7100         2.5100       0.300000
       8115.50        94.9400         1.6870         2.5370       0.300000
       8116.00        96.8000         1.7250         2.5470       0.300000
       8116.50        94.1400         1.7570         2.5340       0.300000
       8117.00        91.5000         1.6600         2.5110       0.300000
       8117.50        89.6100         1.6200         2.4850       0.300000
       8118.00        87.8200         1.6370         2.4700       0.300000
       8118.50        87.7200         1.7150         2.4720       0.300000
