~Version Information Block
VERS .                  2.0:  CWLS LOG ASCII STANDARD - VERSION 2.0
WRAP .                   NO:  One line per depth step
~Well Information Block
#MNEM.UNIT        Data Type   Information
#---------- ----------------  -----------
STRT .FT             950.00:  START DEPTH
STOP .FT           11637.50:  STOP DEPTH
STEP .FT               0.50:  STEP
NULL .              -999.25:  NULL VALUE
COMP .                     :  COMPANY
WELL .                SA-32:  WELL
FLD  .                     :  FIELD
LOC  .                     :  LOCATION
CTRY .                     :  COUNTRY
STAT .                     :  STATE
CNTY .                     :  COUNTY
SRVC .                     :  SERVICE COMPANY
DATE .                     :  DATE
API  .                     :  API NUMBER
UWI  .                     :  UNIQUE WELL ID
~Curve Information Block
#MNEM.UNIT         API CODE   Curve Description
#---------- ----------------  -----------------
DEPTH.FT                   :  DEPTH
GR   .GAPI                 :  Gamma Ray
RT   .OHMM                 :  Deep resistivity
RHOB .G/C3                 :  Bulk density
NPHI .V/V                  :  NEUT*100
~Parameter Information Block
#MNEM.UNIT            Value   Description
#---------- ----------------  -----------
PROJECT.            SERANG_FE:  
~Other Information Block
# 
~A       DEPTH             GR             RT           RHOB           NPHI 
# ...
       3839.00        26.1700         5.4510         2.3700       0.250000
       3839.50        24.3800         5.8030         2.3700       0.231000
       3840.00        22.5800         5.6450         2.3890       0.230000
       3840.50        21.5100         5.1950         2.3900       0.220000
       3841.00        21.5100         5.6250         2.4000       0.210000
       3841.50        21.5100         5.4460         2.3810       0.210000
       3842.00        21.5100         5.3400         2.3800       0.210000
       3842.50        21.5100         5.3160         2.3900       0.210000
       3843.00        21.5100         5.2100         2.4000       0.220000
       3843.50        21.5100         5.3750         2.4190       0.220000
       3844.00        21.5100         6.0290         2.4200       0.230000
       3844.50        22.2300         5.5670         2.4300       0.230000
       3845.00        24.0200         5.1870         2.4110       0.230000
       3845.50        25.8100         5.5020         2.4000       0.230000
       3846.00        26.8900         5.5000         2.3900       0.230000
       3846.50        26.8900         6.0300         2.3900       0.240000
       3847.00        26.8900         5.9360         2.4000       0.240000
       3847.50        26.8900         5.5530         2.4100       0.259000
       3848.00        26.8900         5.6480         2.4100       0.270000
       3848.50        26.8900         5.4200         2.4000       0.280000
       3849.00        26.8900         5.4050         2.3610       0.280000
       3849.50        26.8900         5.4340         2.3410       0.290000
       3850.00        26.8900         5.8720         2.3210       0.309000
       3850.50        27.6000         5.8850         2.3200       0.310000
       3851.00        29.3900         5.4950         2.3300       0.310000
       3851.50        31.1900         5.3640         2.3400       0.300000
       3852.00        32.2600         4.8840         2.3400       0.300000
       3852.50        32.9800         4.0600         2.3400       0.300000
       3853.00        34.7700         3.9290         2.3400       0.290000
       3853.50        36.5600         3.2390         2.3400       0.300000
       3854.00        37.6400         2.7190         2.3400       0.300000
       3854.50        37.6400         2.6040         2.3210       0.300000
       3855.00        37.6400         2.7100         2.2910       0.310000
       3855.50        37.6400         2.6920         2.2900       0.320000
       3856.00        37.6400         2.6100         2.2610       0.339000
       3856.50        37.6400         2.5670         2.2210       0.340000
       3857.00        37.6400         2.3800         2.1620       0.359000
       3857.50        37.6400         2.3690         2.1500       0.360000
       3858.00        37.6400         2.3200         2.1400       0.408000
       3858.50        37.6400         2.3050         2.1400       0.429000
       3859.00        37.6400         2.2160         2.1300       0.459000
       3859.50        37.6400         2.1100         2.1400       0.450000
       3860.00        37.6400         2.0820         2.1500       0.450000
       3860.50        37.6400         1.9600         2.1600       0.440000
       3861.00        38.3500         1.9400         2.1600       0.430000
       3861.50        40.1500         1.8500         2.1600       0.430000
       3862.00        41.9400         1.8390         2.1600       0.420000
       3862.50        43.0200         1.7810         2.1600       0.410000
       3863.00        43.0200         1.7400         2.1600       0.400000
       3863.50        43.0200         1.7400         2.1600       0.390000
       3864.00        43.0200         1.7400         2.1600       0.390000
       3864.50        43.0200         1.7590         2.1600       0.371000
       3865.00        43.0200         1.8160         2.1790       0.351000
       3865.50        43.0200         1.7100         2.1990       0.350000
       3866.00        43.0200         1.7100         2.2100       0.340000
       3866.50        43.7300         1.7100         2.2000       0.350000
       3867.00        44.4500         1.6970         2.2000       0.340000
       3867.50        46.2400         1.6310         2.2000       0.340000
       3868.00        47.3200         1.5900         2.2190       0.340000
       3868.50        49.1100         1.5810         2.2200       0.340000
       3869.00        50.9000         1.5400         2.2300       0.369000
       3869.50        52.7000         1.5620         2.2300       0.399000
       3870.00        53.7700         1.6660         2.2400       0.429000
       3870.50        53.7700         1.6900         2.2400       0.372000
       3871.00        53.7700         1.7030         2.2300       0.331000
       3871.50        53.7700         1.7600         2.2400       0.291000
       3872.00        53.7700         1.7660         2.2400       0.290000
       3872.50        53.7700         1.7920         2.2400       0.300000
       3873.00        53.7700         1.8000         2.2500       0.310000
       3873.50        53.0500         1.8020         2.2500       0.329000
       3874.00        51.2600         1.8100         2.2310       0.340000
       3874.50        49.4700         1.8160         2.2200       0.369000
       3875.00        48.3900         1.8330         2.2010       0.380000
       3875.50        47.6800         1.8000         2.1900       0.399000
       3876.00        46.9600         1.8000         2.2090       0.410000
       3876.50        45.1600         1.7940         2.2100       0.400000
       3877.00        44.0900         1.7700         2.2580       0.390000
       3877.50        43.0200         1.7660         2.2790       0.351000
       3878.00        43.0200         1.7390         2.3190       0.340000
       3878.50        43.7300         1.6900         2.3200       0.330000
       3879.00        45.5300         1.6940         2.3300       0.330000
       3879.50        48.0400         1.6970         2.3200       0.330000
       3880.00        49.8300         1.6490         2.3100       0.340000
       3880.50        51.6200         1.6900         2.3000       0.340000
       3881.00        52.7000         1.7200         2.2810       0.330000
       3881.50        53.7700         1.8690         2.2700       0.330000
       3882.00        53.7700         1.9430         2.2600       0.330000
       3882.50        53.7700         1.9100         2.2410       0.349000
       3883.00        53.7700         1.9010         2.2210       0.350000
       3883.50        53.0500         1.8660         2.2200       0.350000
       3884.00        51.2600         1.8750         2.2010       0.321000
       3884.50        49.4700         1.8100         2.1900       0.310000
       3885.00        47.6800         1.8060         2.1710       0.300000
       3885.50        45.1700         1.7900         2.1600       0.300000
       3886.00        42.6600         1.7710         2.1790       0.310000
       3886.50        39.7900         1.6840         2.1900       0.310000
       3887.00        38.7100         1.6600         2.2000       0.320000
       3887.50        37.6400         1.6490         2.2000       0.320000
       3888.00        37.6400         1.5980         2.1900       0.320000
       3888.50        37.6400         1.5900         2.1900       0.310000
       3889.00        38.3600         1.5690         2.1800       0.320000
       3889.50        39.0700         1.4800         2.1800       0.320000
       3890.00        41.5800         1.4740         2.1700       0.339000
       3890.50        45.1700         1.4500         2.1890       0.350000
       3891.00        48.7600         1.4500         2.1610       0.360000
       3891.50        51.6200         1.4350         2.1600       0.350000
       3892.00        52.7000         1.3700         2.1020       0.350000
