~Version Information Block
VERS .                  2.0:  CWLS LOG ASCII STANDARD - VERSION 2.0
WRAP .                   NO:  One line per depth step
~Well Information Block
#MNEM.UNIT        Data Type   Information
#---------- ----------------  -----------
STRT .FT             950.00:  START DEPTH
STOP .FT           11637.50:  STOP DEPTH
STEP .FT               0.50:  STEP
NULL .              -999.25:  NULL VALUE
COMP .                     :  COMPANY
WELL .                SA-32:  WELL
FLD  .                     :  FIELD
LOC  .                     :  LOCATION
CTRY .                     :  COUNTRY
STAT .                     :  STATE
CNTY .                     :  COUNTY
SRVC .                     :  SERVICE COMPANY
DATE .                     :  DATE
API  .                     :  API NUMBER
UWI  .                     :  UNIQUE WELL ID
~Curve Information Block
#MNEM.UNIT         API CODE   Curve Description
#---------- ----------------  -----------------
DEPTH.FT                   :  DEPTH
GR   .GAPI                 :  Gamma Ray
RT   .OHMM                 :  Deep resistivity
RHOB .G/C3                 :  Bulk density
NPHI .V/V                  :  NEUT*100
~Parameter Information Block
#MNEM.UNIT            Value   Description
#---------- ----------------  -----------
PROJECT.            SERANG_FE:  
~Other Information Block
# 
~A       DEPTH             GR             RT           RHOB           NPHI 
# ...
       8761.00        77.0600         2.0100         2.4300       0.310000
       8761.50        77.5800         2.0500         2.4360       0.310000
       8762.00        78.8700         2.0830         2.4400       0.305000
       8762.50        78.3700         2.1660         2.4310       0.297000
       8763.00        76.1000         2.2690         2.4100       0.288000
       8763.50        73.0000         2.2770         2.4100       0.282000
       8764.00        73.0000         2.5510         2.4100       0.280000
       8764.50        73.4900         2.4460         2.4100       0.280000
       8765.00        77.0700         2.2060         2.4060       0.286000
       8765.50        79.2400         2.0210         2.4000       0.290000
       8766.00        82.8300         1.8790         2.4000       0.293000
       8766.50        86.4100         1.8590         2.4000       0.305000
       8767.00        89.6200         1.8300         2.3910       0.310000
       8767.50        92.8500         1.7900         2.3900       0.310000
       8768.00        92.8500         1.8000         2.4100       0.310000
       8768.50        92.5000         1.7810         2.4100       0.310000
       8769.00        89.2700         1.9400         2.3850       0.304000
       8769.50        87.4800         2.0330         2.3590       0.289000
       8770.00        86.0300         2.6270         2.3380       0.281000
       8770.50        86.3700         2.7340         2.3210       0.286000
       8771.00        88.1600         2.7660         2.3070       0.300000
       8771.50        88.1600         2.6170         2.3000       0.319000
       8772.00        87.8200         2.6150         2.3020       0.330000
       8772.50        87.9600         2.8000         2.3190       0.325000
       8773.00        87.9600         2.9200         2.3280       0.315000
       8773.50        86.0200         2.8850         2.3370       0.300000
       8774.00        86.0400         2.7940         2.3460       0.281000
       8774.50        88.0000         2.7700         2.3590       0.266000
       8775.00        89.9400         2.7850         2.3700       0.256000
       8775.50        87.9900         2.7400         2.3700       0.255000
       8776.00        86.2000         2.7200         2.3670       0.265000
       8776.50        84.4100         2.6860         2.3630       0.270000
       8777.00        82.7900         2.5970         2.3700       0.271000
       8777.50        81.0000         2.5730         2.3700       0.275000
       8778.00        79.2100         2.5050         2.3700       0.263000
       8778.50        77.2400         2.4110         2.3700       0.259000
       8779.00        74.9100         2.3800         2.3700       0.250000
       8779.50        78.1300         2.3800         2.3710       0.254000
       8780.00        81.7100         2.3690         2.3790       0.267000
       8780.50        84.0600         2.3920         2.3700       0.279000
       8781.00        82.6400         2.4150         2.3700       0.280000
       8781.50        80.8400         2.3850         2.3800       0.280000
       8782.00        79.0600         2.3110         2.3900       0.279000
       8782.50        77.2700         2.2650         2.3990       0.262000
       8783.00        73.8900         2.2750         2.4000       0.252000
       8783.50        71.9000         2.2800         2.3910       0.243000
       8784.00        68.5300         2.2880         2.3900       0.240000
       8784.50        68.1000         2.2800         2.3900       0.240000
       8785.00        68.1000         2.2500         2.3980       0.245000
       8785.50        68.1100         2.2390         2.4000       0.245000
       8786.00        66.5300         2.2170         2.4080       0.237000
       8786.50        64.7400         2.2030         2.4170       0.231000
       8787.00        64.5200         2.1930         2.4200       0.230000
       8787.50        64.5200         2.1970         2.4200       0.228000
       8788.00        66.0800         2.1900         2.4130       0.223000
       8788.50        67.8700         2.1800         2.4040       0.220000
       8789.00        68.1200         2.1670         2.3940       0.220000
       8789.50        68.1100         2.2060         2.3960       0.220000
       8790.00        68.1100         2.1600         2.4000       0.220000
       8790.50        68.1200         2.1580         2.3950       0.215000
       8791.00        66.5700         2.1470         2.3900       0.210000
       8791.50        64.7800         2.1210         2.3900       0.210000
       8792.00        64.5200         2.0740         2.3900       0.213000
       8792.50        62.7300         2.0990         2.3860       0.218000
       8793.00        62.7300         2.0910         2.3800       0.220000
       8793.50        62.7300         2.0990         2.3880       0.222000
       8794.00        64.5200         2.0850         2.4110       0.230000
       8794.50        66.0400         2.0220         2.4400       0.245000
       8795.00        67.8300         2.0500         2.4630       0.260000
       8795.50        69.6300         2.0480         2.4730       0.265000
       8796.00        69.9000         1.9500         2.4770       0.260000
       8796.50        69.9000         1.8910         2.4700       0.260000
       8797.00        71.4100         2.0060         2.4700       0.263000
       8797.50        72.9100         2.0100         2.4700       0.270000
       8798.00        74.7000         2.0940         2.4720       0.270000
       8798.50        74.9900         2.0270         2.4800       0.270000
       8799.00        76.7700         2.0470         2.4790       0.269000
       8799.50        78.5700         2.0680         2.4680       0.263000
       8800.00        81.8500         2.1820         2.4500       0.268000
       8800.50        83.9400         1.9970         2.4500       0.284000
       8801.00        85.7300         1.9600         2.4600       0.296000
       8801.50        86.0300         1.9200         2.4800       0.305000
       8802.00        86.0300         1.9420         2.4800       0.306000
       8802.50        84.5500         1.9040         2.4710       0.308000
       8803.00        84.2400         1.8980         2.4700       0.319000
       8803.50        82.7600         2.1000         2.4790       0.322000
       8804.00        82.4500         2.0470         2.4800       0.329000
       8804.50        80.9800         1.9860         2.4800       0.330000
       8805.00        80.6600         1.9800         2.4800       0.330000
       8805.50        80.6600         1.9530         2.4800       0.330000
       8806.00        82.1200         2.0250         2.4800       0.323000
       8806.50        83.5800         2.0700         2.4730       0.327000
       8807.00        85.3700         2.0820         2.4630       0.330000
       8807.50        85.7000         2.0900         2.4530       0.330000
       8808.00        86.0300         2.1070         2.4500       0.325000
       8808.50        86.0300         2.1200         2.4500       0.321000
       8809.00        84.5800         2.1310         2.4560       0.323000
       8809.50        82.7900         2.0820         2.4660       0.328000
       8810.00        82.4500         2.0400         2.4750       0.328000
       8810.50        82.4500         2.0500         2.4750       0.323000
       8811.00        82.8000         2.1220         2.4650       0.323000
       8811.50        81.3500         2.1310         2.4600       0.334000
       8812.00        81.0000         2.0500         2.4640       0.346000
       8812.50        80.6600         2.0710         2.4830       0.355000
       8813.00        82.0900         2.1000         2.4960       0.360000
       8813.50        82.4500         2.0450         2.4860       0.364000
       8814.00        82.4500         1.9600         2.4700       0.369000
