~Version Information Block
VERS .                  2.0:  CWLS LOG ASCII STANDARD - VERSION 2.0
WRAP .                   NO:  One line per depth step
~Well Information Block
#MNEM.UNIT        Data Type   Information
#---------- ----------------  -----------
STRT .FT             410.50:  START DEPTH
STOP .FT           11980.00:  STOP DEPTH
STEP .FT               0.50:  STEP
NULL .              -999.25:  NULL VALUE
COMP .                     :  COMPANY
WELL .             SA-35ST1:  WELL
FLD  .                     :  FIELD
LOC  .                     :  LOCATION
CTRY .                     :  COUNTRY
STAT .                     :  STATE
CNTY .                     :  COUNTY
SRVC .                     :  SERVICE COMPANY
DATE .                     :  DATE
API  .                     :  API NUMBER
UWI  .                     :  UNIQUE WELL ID
~Curve Information Block
#MNEM.UNIT         API CODE   Curve Description
#---------- ----------------  -----------------
DEPTH.FT                   :  
GR   .GAPI                 :  Merged WIRE with WIRE_ST at 6750.00 F
RT   .OHMM                 :  Merged WIRE with WIRE_ST at 6750.00 F
RHOB .G/C3                 :  Merged WIRE with WIRE_ST at 6750.00 F
NPHI .V/V                  :  Merged WIRE with WIRE_ST at 6750.00 F
~Parameter Information Block
#MNEM.UNIT            Value   Description
#---------- ----------------  -----------
PROJECT.            SERANG_FE:  
~Other Information Block
# 
~A       DEPTH             GR             RT           RHOB           NPHI 
# ...
       9773.00        85.0700         3.5563         2.4747       0.293200
       9773.50        81.3900         3.5870         2.4611       0.272100
       9774.00        80.5700         3.5787         2.4505       0.251000
       9774.50        78.1200         3.6356         2.4600       0.250000
       9775.00        74.8400         3.6660         2.4726       0.250500
       9775.50        70.7500         3.6336         2.5242       0.260000
       9776.00        67.4800         3.5875         2.5521       0.260000
       9776.50        67.4800         3.5700         2.4953       0.260000
       9777.00        69.5300         3.5588         2.4505       0.260000
       9777.50        73.6200         3.4573         2.4990       0.263200
       9778.00        77.3000         3.3401         2.5547       0.266300
       9778.50        78.5200         3.2351         2.5674       0.264200
       9779.00        79.3400         3.0775         2.5405       0.270000
       9779.50        80.1600         2.9508         2.5405       0.280500
       9780.00        83.4300         2.9615         2.5500       0.290000
       9780.50        85.0700         2.9779         2.5563       0.296300
       9781.00        84.2500         2.9500         2.5600       0.294200
       9781.50        79.3400         2.9662         2.5511       0.285600
       9782.00        73.6200         3.2394         2.5261       0.274400
       9782.50        67.4800         3.5929         2.4867       0.256700
       9783.00        60.9400         3.8517         2.4617       0.231700
       9783.50        52.7600         3.8863         2.4211       0.222200
       9784.00        45.4000         3.7915         2.4100       0.213900
       9784.50        41.7200         3.8420         2.4100       0.210000
       9785.00        42.5300         3.9210         2.4163       0.213100
       9785.50        44.9900         3.9704         2.4300       0.220000
       9786.00        47.4400         3.9996         2.4262       0.220000
       9786.50        49.0800         3.9500         2.4100       0.218700
       9787.00        51.1200         3.9300         2.4121       0.210000
       9787.50        53.9900         3.9796         2.4400       0.210000
       9788.00        57.2600         4.0293         2.4400       0.210000
       9788.50        60.1200         4.1671         2.4577       0.210000
       9789.00        61.7600         4.2578         2.4518       0.210000
       9789.50        63.3900         4.2891         2.4576       0.217600
       9790.00        65.4400         4.3863         2.4600       0.220000
       9790.50        69.5300         4.4091         2.4600       0.232800
       9791.00        72.3900         4.4005         2.4600       0.245800
       9791.50        74.0300         4.3811         2.4548       0.260300
       9792.00        74.0300         4.4740         2.4500       0.274600
       9792.50        74.8400         4.4520         2.4421       0.284000
       9793.00        76.0700         4.4686         2.4267       0.290000
       9793.50        76.4800         4.3592         2.4227       0.290000
       9794.00        77.3000         4.4142         2.4300       0.290000
       9794.50        78.5200         4.3836         2.4300       0.291500
       9795.00        79.3400         4.3437         2.4291       0.300900
       9795.50        79.3400         4.3940         2.4206       0.310000
       9796.00        80.1600         4.4626         2.4401       0.310000
       9796.50        82.6100         4.4611         2.4601       0.328300
       9797.00        85.0700         4.5307         2.4702       0.330000
       9797.50        85.0700         4.5927         2.4800       0.338000
       9798.00        83.0200         4.8266         2.4796       0.332500
       9798.50        82.2100         4.8773         2.4691       0.330000
       9799.00        82.2100         4.7250         2.4495       0.336300
       9799.50        83.0200         4.7000         2.4388       0.345800
       9800.00        82.2100         4.7934         2.4200       0.344400
       9800.50        81.3900         4.9617         2.4192       0.334200
       9801.00        78.5200         5.1576         2.4100       0.324000
       9801.50        74.8400         5.3981         2.4100       0.320000
       9802.00        70.3400         5.5474         2.4110       0.307200
       9802.50        68.3000         5.4880         2.4211       0.293400
       9803.00        67.8500         5.4374         2.4289       0.283300
       9803.50        68.9800         5.4300         2.4188       0.273100
       9804.00        70.9300         5.4139         2.4087       0.270000
       9804.50        71.1700         5.4817         2.3986       0.270000
       9805.00        70.0800         5.5159         2.3871       0.270000
       9805.50        66.3300         5.5908         2.3669       0.270000
       9806.00        61.9100         5.6022         2.3435       0.262100
       9806.50        58.0300         5.4761         2.3066       0.252000
       9807.00        53.2400         5.4400         2.2865       0.233600
       9807.50        49.4100         5.1573         2.2682       0.238400
       9808.00        44.0500         4.9942         2.2619       0.240000
       9808.50        40.8800         4.8648         2.2680       0.240000
       9809.00        37.6700         4.6881         2.2517       0.240000
       9809.50        35.9900         4.6400         2.2135       0.249100
       9810.00        34.3500         4.5003         2.1855       0.250000
       9810.50        32.3700         4.0929         2.1700       0.250000
       9811.00        29.8100         3.6414         2.1700       0.240300
       9811.50        27.7100         3.3476         2.1700       0.230100
       9812.00        27.0600         3.1019         2.1700       0.230000
       9812.50        26.9900         2.8111         2.1753       0.230000
       9813.00        26.3100         2.5940         2.1927       0.230400
       9813.50        25.4900         2.4636         2.2000       0.239400
       9814.00        24.6700         2.3611         2.1971       0.230800
       9814.50        23.8600         2.2753         2.1900       0.240000
       9815.00        23.0400         2.2500         2.1900       0.241200
       9815.50        22.5600         2.2030         2.1869       0.248700
       9816.00        23.1700         2.1400         2.1768       0.238500
       9816.50        23.9100         2.1464         2.1667       0.231700
       9817.00        24.3900         2.1600         2.1633       0.241900
       9817.50        24.1300         2.2120         2.1769       0.252100
       9818.00        24.4600         2.2400         2.1935       0.257800
       9818.50        24.7200         2.2591         2.2036       0.250000
       9819.00        24.8000         2.2953         2.2137       0.247400
       9819.50        24.8000         2.3852         2.2200       0.240000
       9820.00        24.6200         2.4300         2.2162       0.240000
       9820.50        24.9500         2.4730         2.2100       0.236800
       9821.00        25.3600         2.5548         2.2100       0.233300
       9821.50        26.0900         2.6504         2.2100       0.236500
       9822.00        26.8300         2.6900         2.2183       0.230000
       9822.50        26.9900         2.7255         2.2384       0.226100
       9823.00        26.9900         2.7734         2.2543       0.220000
       9823.50        27.6400         2.7784         2.2644       0.220000
       9824.00        28.4600         2.7700         2.2651       0.220000
       9824.50        28.9500         2.7871         2.2536       0.220000
       9825.00        27.7600         2.8451         2.2418       0.220000
       9825.50        26.8500         2.9023         2.2300       0.220000
       9826.00        26.6700         2.9200         2.2400       0.220000
