~Version Information Block
VERS .                  2.0:  CWLS LOG ASCII STANDARD - VERSION 2.0
WRAP .                   NO:  One line per depth step
~Well Information Block
#MNEM.UNIT        Data Type   Information
#---------- ----------------  -----------
STRT .FT             410.50:  START DEPTH
STOP .FT           11980.00:  STOP DEPTH
STEP .FT               0.50:  STEP
NULL .              -999.25:  NULL VALUE
COMP .                     :  COMPANY
WELL .             SA-35ST1:  WELL
FLD  .                     :  FIELD
LOC  .                     :  LOCATION
CTRY .                     :  COUNTRY
STAT .                     :  STATE
CNTY .                     :  COUNTY
SRVC .                     :  SERVICE COMPANY
DATE .                     :  DATE
API  .                     :  API NUMBER
UWI  .                     :  UNIQUE WELL ID
~Curve Information Block
#MNEM.UNIT         API CODE   Curve Description
#---------- ----------------  -----------------
DEPTH.FT                   :  
GR   .GAPI                 :  Merged WIRE with WIRE_ST at 6750.00 F
RT   .OHMM                 :  Merged WIRE with WIRE_ST at 6750.00 F
RHOB .G/C3                 :  Merged WIRE with WIRE_ST at 6750.00 F
NPHI .V/V                  :  Merged WIRE with WIRE_ST at 6750.00 F
~Parameter Information Block
#MNEM.UNIT            Value   Description
#---------- ----------------  -----------
PROJECT.            SERANG_FE:  
~Other Information Block
# 
~A       DEPTH             GR             RT           RHOB           NPHI 
# ...
       5546.50        57.2250         1.1142         2.1938       0.445000
       5547.00        57.2463         1.1017         2.1874       0.445800
       5547.50        57.0275         1.0921         2.1816       0.448700
       5548.00        56.4819         1.0679         2.1794       0.445800
       5548.50        55.5031         1.0242         2.1783       0.432800
       5549.00        53.9837         0.9750         2.1786       0.415600
       5549.50        51.8356         0.9321         2.1810       0.407000
       5550.00        49.1231         0.8963         2.1807       0.414100
       5550.50        45.9113         0.8737         2.1712       0.432000
       5551.00        42.1138         0.8717         2.1464       0.446700
       5551.50        37.9706         0.8844         2.1194       0.445900
       5552.00        34.3713         0.9031         2.1063       0.431100
       5552.50        32.1819         0.9162         2.1107       0.414000
       5553.00        31.3800         0.9321         2.1262       0.411900
       5553.50        31.2931         0.9748         2.1376       0.428200
       5554.00        31.5094         1.0510         2.1379       0.458600
       5554.50        32.0513         1.1275         2.1311       0.483200
       5555.00        32.9837         1.1665         2.1253       0.490700
       5555.50        34.2194         1.1669         2.1258       0.479700
       5556.00        35.6287         1.1483         2.1339       0.448400
       5556.50        37.1906         1.1213         2.1501       0.407400
       5557.00        38.8394         1.0915         2.1737       0.374700
       5557.50        40.2069         1.0656         2.1979       0.364700
       5558.00        40.8162         1.0498         2.2119       0.376000
       5558.50        40.7525         1.0398         2.2118       0.395000
       5559.00        40.3413         1.0302         2.2007       0.408200
       5559.50        40.2544         1.0231         2.1828       0.413500
       5560.00        40.3394         1.0202         2.1573       0.418600
       5560.50        40.1213         1.0181         2.1271       0.427100
       5561.00        39.1213         1.0142         2.1043       0.434600
       5561.50        37.8175         1.0115         2.0980       0.429400
       5562.00        36.8838         1.0150         2.1056       0.411500
       5562.50        36.5150         1.0254         2.1185       0.390500
       5563.00        36.4500         1.0371         2.1254       0.378600
       5563.50        36.4938         1.0465         2.1236       0.382300
       5564.00        36.7119         1.0575         2.1189       0.403800
       5564.50        37.2556         1.0800         2.1202       0.437600
       5565.00        38.2325         1.1163         2.1303       0.469600
       5565.50        39.7075         1.1548         2.1476       0.484700
       5566.00        41.6813         1.1860         2.1713       0.478900
       5566.50        44.0462         1.2165         2.1938       0.454300
       5567.00        46.5644         1.2546         2.2032       0.422900
       5567.50        48.9313         1.2912         2.1960       0.400600
       5568.00        50.9069         1.3090         2.1780       0.394800
       5568.50        52.4475         1.3029         2.1625       0.403300
       5569.00        53.7925         1.2831         2.1599       0.421200
       5569.50        55.2894         1.2665         2.1738       0.442600
       5570.00        56.9381         1.2604         2.2002       0.463100
       5570.50        58.2612         1.2610         2.2242       0.476900
       5571.00        58.8025         1.2629         2.2343       0.478500
       5571.50        58.6931         1.2583         2.2316       0.469200
       5572.00        57.8462         1.2383         2.2214       0.450200
       5572.50        56.1981         1.2008         2.2090       0.424800
       5573.00        53.7262         1.1627         2.1974       0.397200
       5573.50        50.6250         1.1394         2.1902       0.372100
       5574.00        47.3063         1.1313         2.1927       0.356100
       5574.50        44.3981         1.1298         2.2063       0.353800
       5575.00        42.5300         1.1296         2.2238       0.360800
       5575.50        41.7906         1.1308         2.2334       0.375000
       5576.00        41.7038         1.1342         2.2266       0.394900
       5576.50        42.0306         1.1377         2.2067       0.419200
       5577.00        43.0737         1.1356         2.1875       0.447600
       5577.50        44.9175         1.1217         2.1786       0.474700
       5578.00        46.7812         1.0879         2.1776       0.494200
       5578.50        47.4744         1.0367         2.1794       0.503800
       5579.00        47.0406         0.9806         2.1831       0.503700
       5579.50        45.3925         0.9373         2.1913       0.492500
       5580.00        43.5706         0.9148         2.2015       0.469100
       5580.50        42.2687         0.9083         2.2051       0.439400
       5581.00        41.5094         0.9104         2.1958       0.416100
       5581.50        40.8587         0.9156         2.1791       0.410000
       5582.00        39.8825         0.9194         2.1672       0.417300
       5582.50        38.4719         0.9185         2.1624       0.421100
       5583.00        36.8000         0.9162         2.1572       0.405400
       5583.50        35.1069         0.9158         2.1493       0.375000
       5584.00        33.5894         0.9208         2.1456       0.350500
       5584.50        32.4844         0.9337         2.1532       0.346400
       5585.00        32.0075         0.9529         2.1706       0.359900
       5585.50        32.1594         0.9719         2.1879       0.377800
       5586.00        32.9837         0.9915         2.1978       0.388900
       5586.50        34.1756         1.0219         2.1994       0.395200
       5587.00        35.3456         1.0669         2.1907       0.406000
       5587.50        36.3225         1.1187         2.1686       0.424500
       5588.00        37.2369         1.1652         2.1391       0.442600
       5588.50        38.4550         1.2040         2.1177       0.448700
       5589.00        40.1263         1.2469         2.1149       0.443500
       5589.50        41.9263         1.2927         2.1275       0.439900
       5590.00        43.4881         1.3321         2.1421       0.442400
       5590.50        44.7463         1.3725         2.1448       0.439900
       5591.00        45.8519         1.4171         2.1323       0.426400
       5591.50        47.0013         1.4671         2.1141       0.412300
       5592.00        48.2819         1.5362         2.1059       0.406800
       5592.50        49.5631         1.6110         2.1145       0.408900
       5593.00        50.6488         1.6610         2.1360       0.417600
       5593.50        51.7331         1.6906         2.1590       0.433800
       5594.00        53.2506         1.7140         2.1771       0.452300
       5594.50        55.1162         1.7260         2.1903       0.466700
       5595.00        56.7663         1.7227         2.1980       0.477700
       5595.50        57.8956         1.7081         2.1981       0.485800
       5596.00        58.7425         1.6908         2.1925       0.487000
       5596.50        59.7625         1.6777         2.1855       0.483200
       5597.00        61.1725         1.6675         2.1814       0.480200
       5597.50        62.7994         1.6612         2.1827       0.483900
       5598.00        64.3181         1.6644         2.1873       0.495300
       5598.50        65.5762         1.6746         2.1857       0.509700
       5599.00        66.6387         1.6890         2.1693       0.525000
       5599.50        67.5719         1.7106         2.1437       0.538300
