~Version Information Block
VERS .                  2.0:  CWLS LOG ASCII STANDARD - VERSION 2.0
WRAP .                   NO:  One line per depth step
~Well Information Block
#MNEM.UNIT        Data Type   Information
#---------- ----------------  -----------
STRT .FT             950.00:  START DEPTH
STOP .FT           11598.00:  STOP DEPTH
STEP .FT               0.50:  STEP
NULL .              -999.25:  NULL VALUE
COMP .                     :  COMPANY
WELL .          SA-32RD1ST1:  WELL
FLD  .                     :  FIELD
LOC  .                     :  LOCATION
CTRY .                     :  COUNTRY
STAT .                     :  STATE
CNTY .                     :  COUNTY
SRVC .                     :  SERVICE COMPANY
DATE .                     :  DATE
API  .                     :  API NUMBER
UWI  .                     :  UNIQUE WELL ID
~Curve Information Block
#MNEM.UNIT         API CODE   Curve Description
#---------- ----------------  -----------------
DEPTH.FT                   :  
GR   .GAPI                 :  Merged WIRE with WIRE_ST at 7550.00 F
RT   .OHMM                 :  Merged WIRE with WIRE_ST at 7550.00 F
RHOB .G/C3                 :  Merged WIRE with WIRE_ST at 7550.00 F
NPHI .V/V                  :  Merged WIRE with WIRE_ST at 7550.00 F
~Parameter Information Block
#MNEM.UNIT            Value   Description
#---------- ----------------  -----------
PROJECT.            SERANG_FE:  
~Other Information Block
# 
~A       DEPTH             GR             RT           RHOB           NPHI 
# ...
      10847.50        86.8400         2.7600         2.3900         0.2500
      10848.00        95.9400         2.9800         2.4000         0.2900
      10848.50       107.0300         2.9800         2.3900         0.3300
      10849.00       117.4800         4.5700         2.2900         0.3300
      10849.50       125.3900         4.5700         2.2100         0.3600
      10850.00       131.3100         4.2900         2.1000         0.4200
      10850.50       138.5900         4.2900         2.0700         0.5700
      10851.00       142.5800         4.6700         2.0500         0.6100
      10851.50       146.0300         4.6700         2.0700         0.5400
      10852.00       145.1200         3.2500         2.0900         0.5100
      10852.50       143.6700         3.2500         2.1200         0.5000
      10853.00       141.3900         2.9000         2.1500         0.5200
      10853.50       136.0300         2.9000         2.2300         0.5100
      10854.00       131.5800         2.3600         2.3300         0.5100
      10854.50       123.8600         2.3600         2.4400         0.5400
      10855.00       116.6600         1.9800         2.5000         0.5700
      10855.50       105.6600         1.9800         2.5000         0.5100
      10856.00        98.2000         2.3200         2.4500         0.4000
      10856.50        90.7500         2.3200         2.4100         0.3300
      10857.00        85.9300         2.3200         2.4000         0.3300
      10857.50        82.4700         2.3700         2.3800         0.3100
      10858.00        84.2900         2.3700         2.3600         0.3300
      10858.50        87.6500         2.3700         2.3900         0.3200
      10859.00        91.2900         2.6500         2.3700         0.3500
      10859.50        92.0200         2.6500         2.3600         0.3900
      10860.00        92.1100         2.2200         2.3400         0.4800
      10860.50        91.2000         2.2200         2.3900         0.5100
      10861.00        89.5600         2.2200         2.4600         0.4500
      10861.50        86.8400         2.4500         2.4700         0.4200
      10862.00        83.6500         2.4500         2.4600         0.3800
      10862.50        80.0200         2.4500         2.4400         0.3900
      10863.00        77.3800         2.4300         2.4700         0.3300
      10863.50        75.1100         2.4300         2.4700         0.3400
      10864.00        73.8300         2.4100         2.4900         0.3100
      10864.50        72.3800         2.4200         2.4800         0.2900
      10865.00        71.6500         2.3700         2.4900         0.2800
      10865.50        71.5600         2.4200         2.5200         0.2900
      10866.00        71.4700         2.4200         2.5300         0.3000
      10866.50        70.3800         2.3400         2.5300         0.3100
      10867.00        69.7400         2.3100         2.5100         0.2700
      10867.50        70.7400         2.3100         2.4800         0.2700
      10868.00        72.9300         2.3600         2.4700         0.2900
      10868.50        74.9200         2.3600         2.4500         0.3100
      10869.00        75.8300         2.3400         2.4600         0.3400
      10869.50        77.1100         2.3400         2.4800         0.3400
      10870.00        78.9300         2.1700         2.5000         0.3600
      10870.50        79.3800         2.1300         2.5200         0.3600
      10871.00        79.1100         2.1300         2.5000         0.3300
      10871.50        77.3800         2.0300         2.4700         0.3300
      10872.00        76.2900         2.0300         2.4700         0.3400
      10872.50        74.9300         2.0900         2.4700         0.3700
      10873.00        74.2900         2.0900         2.4700         0.3300
      10873.50        74.9300         2.1000         2.4800         0.3500
      10874.00        76.0200         2.1000         2.5000         0.3400
      10874.50        77.0200         2.0500         2.5200         0.3800
      10875.00        77.8400         2.0500         2.5100         0.3700
      10875.50        78.4700         2.0000         2.4900         0.4000
      10876.00        79.3800         2.0000         2.4800         0.4100
      10876.50        79.9300         2.0000         2.4900         0.3800
      10877.00        80.4700         1.9600         2.4900         0.4000
      10877.50        80.6500         1.9600         2.4900         0.4200
      10878.00        80.8400         1.9900         2.4800         0.4100
      10878.50        81.2900         1.9900         2.4900         0.4000
      10879.00        81.7500         1.9500         2.5000         0.4000
      10879.50        82.4700         1.9500         2.5100         0.4000
      10880.00        82.3800         1.9600         2.4900         0.4100
      10880.50        81.2900         1.9600         2.4700         0.3700
      10881.00        77.6500         2.0900         2.4700         0.3800
      10881.50        72.0100         2.0900         2.5100         0.3500
      10882.00        63.3700         2.3800         2.5200         0.3300
      10882.50        55.9200         2.3800         2.5700         0.3400
      10883.00        49.3800         4.5100         2.5600         0.3000
      10883.50        46.6500         4.5100         2.5800         0.2500
      10884.00        44.8300         4.5100         2.5000         0.1900
      10884.50        44.3700         3.3800         2.4200         0.1700
      10885.00        43.9200         3.3800         2.3500         0.1700
      10885.50        43.6500         4.2700         2.3000         0.1900
      10886.00        43.6500         4.2700         2.2500         0.2000
      10886.50        44.0100         4.5100         2.2100         0.1700
      10887.00        44.9200         4.5100         2.1900         0.1700
      10887.50        46.1900         4.7300         2.2000         0.1600
      10888.00        47.6500         4.7300         2.2000         0.1500
      10888.50        48.5600         5.2800         2.2100         0.1500
      10889.00        49.1000         5.2800         2.2300         0.1600
      10889.50        47.7400         5.9200         2.2200         0.1600
      10890.00        46.1900         5.9200         2.2100         0.1600
      10890.50        44.3700         6.2900         2.1700         0.1500
      10891.00        43.7400         6.2900         2.1600         0.1400
      10891.50        43.0100         6.4600         2.1500         0.1300
      10892.00        42.5500         6.4600         2.1500         0.1200
      10892.50        42.2800         6.1900         2.2200         0.1300
      10893.00        42.2800         6.1900         2.2100         0.1300
      10893.50        42.4600         6.0000         2.2200         0.1400
      10894.00        43.3700         5.7200         2.1600         0.1400
      10894.50        46.1000         5.7200         2.2100         0.1500
      10895.00        50.0100         4.7700         2.2600         0.1500
      10895.50        54.2900         4.7700         2.3200         0.1700
      10896.00        58.3800         3.7000         2.3500         0.2000
      10896.50        61.1100         3.7000         2.3800         0.2300
      10897.00        62.7400         2.7700         2.4100         0.2600
      10897.50        62.3800         2.7700         2.4300         0.2800
      10898.00        61.4700         2.4700         2.4300         0.2800
      10898.50        60.5600         2.2400         2.4400         0.2900
      10899.00        61.3800         2.2400         2.4400         0.2900
      10899.50        63.6500         2.3300         2.4300         0.3100
      10900.00        67.2900         2.3300         2.4200         0.3200
      10900.50        71.8400         2.3300         2.4200         0.3500
