~Version Information Block
VERS .                  2.0:  CWLS LOG ASCII STANDARD - VERSION 2.0
WRAP .                   NO:  One line per depth step
~Well Information Block
#MNEM.UNIT        Data Type   Information
#---------- ----------------  -----------
STRT .FT             410.50:  START DEPTH
STOP .FT           11980.00:  STOP DEPTH
STEP .FT               0.50:  STEP
NULL .              -999.25:  NULL VALUE
COMP .                     :  COMPANY
WELL .             SA-35ST1:  WELL
FLD  .                     :  FIELD
LOC  .                     :  LOCATION
CTRY .                     :  COUNTRY
STAT .                     :  STATE
CNTY .                     :  COUNTY
SRVC .                     :  SERVICE COMPANY
DATE .                     :  DATE
API  .                     :  API NUMBER
UWI  .                     :  UNIQUE WELL ID
~Curve Information Block
#MNEM.UNIT         API CODE   Curve Description
#---------- ----------------  -----------------
DEPTH.FT                   :  
GR   .GAPI                 :  Merged WIRE with WIRE_ST at 6750.00 F
RT   .OHMM                 :  Merged WIRE with WIRE_ST at 6750.00 F
RHOB .G/C3                 :  Merged WIRE with WIRE_ST at 6750.00 F
NPHI .V/V                  :  Merged WIRE with WIRE_ST at 6750.00 F
~Parameter Information Block
#MNEM.UNIT            Value   Description
#---------- ----------------  -----------
PROJECT.            SERANG_FE:  
~Other Information Block
# 
~A       DEPTH             GR             RT           RHOB           NPHI 
# ...
       2015.50        75.6212         1.3980         2.1388       0.546700
       2016.00        77.8356         1.3961         2.1300       0.570000
       2016.50        79.7669         1.3948         2.1253       0.579700
       2017.00        80.5025         1.4010         2.1267       0.561000
       2017.50        80.0237         1.4189         2.1346       0.525400
       2018.00        77.9619         1.4414         2.1435       0.508100
       2018.50        74.9681         1.4639         2.1503       0.512000
       2019.00        71.8875         1.4861         2.1552       0.522600
       2019.50        69.6744         1.5055         2.1584       0.527100
       2020.00        69.1106         1.5174         2.1601       0.542000
       2020.50        69.6756         1.5237         2.1607       0.579600
       2021.00        70.9769         1.5298         2.1623       0.601800
       2021.50        71.8006         1.5281         2.1658       0.590400
       2022.00        71.6269         1.5345         2.1677       0.571100
       2022.50        70.4125         1.5360         2.1650       0.554100
       2023.00        68.7425         1.5396         2.1598       0.544200
       2023.50        67.0069         1.5350         2.1552       0.543700
       2024.00        65.3131         1.5353         2.1505       0.543100
       2024.50        63.8575         1.5409         2.1447       0.541000
       2025.00        62.9238         1.5596         2.1391       0.534000
       2025.50        62.5550         1.5699         2.1360       0.519100
       2026.00        62.4900         1.5676         2.1332       0.499200
       2026.50        62.4469         1.5541         2.1301       0.475900
       2027.00        62.1656         1.5518         2.1220       0.455900
       2027.50        61.4069         1.5591         2.1141       0.442900
       2028.00        60.4094         1.5718         2.1134       0.437900
       2028.50        59.9550         1.5784         2.1206       0.444300
       2029.00        60.2156         1.5815         2.1338       0.459800
       2029.50        61.2344         1.5847         2.1468       0.470800
       2030.00        62.3406         1.5883         2.1584       0.479400
       2030.50        63.2313         1.5899         2.1671       0.485900
       2031.00        63.8613         1.5886         2.1714       0.480100
       2031.50        64.2081         1.5863         2.1712       0.459200
       2032.00        64.5544         1.5877         2.1668       0.437200
       2032.50        65.3131         1.5900         2.1595       0.431200
       2033.00        66.4631         1.5896         2.1545       0.437500
       2033.50        67.5912         1.5840         2.1567       0.439000
       2034.00        68.3500         1.5777         2.1664       0.422000
       2034.50        68.5019         1.5716         2.1787       0.386200
       2035.00        68.0906         1.5672         2.1853       0.358200
       2035.50        66.8331         1.5721         2.1813       0.367200
       2036.00        64.9881         1.5851         2.1671       0.416400
       2036.50        63.1425         1.5961         2.1544       0.476600
       2037.00        62.0137         1.6044         2.1558       0.517000
       2037.50        61.8838         1.6157         2.1713       0.529000
       2038.00        62.4919         1.6365         2.1880       0.518200
       2038.50        63.5556         1.6493         2.1871       0.497600
       2039.00        64.9881         1.6345         2.1662       0.484100
       2039.50        66.7038         1.5827         2.1322       0.483900
       2040.00        68.7237         1.5329         2.1012       0.494000
       2040.50        71.2631         1.5076         2.0828       0.509700
       2041.00        74.3219         1.4978         2.0800       0.525100
       2041.50        77.4025         1.4919         2.0857       0.535800
       2042.00        79.7019         1.4914         2.0924       0.538500
       2042.50        80.5025         1.4838         2.0928       0.533600
       2043.00        80.0675         1.4847         2.0902       0.523700
       2043.50        78.2887         1.4804         2.0900       0.512900
       2044.00        76.0987         1.4870         2.0942       0.507000
       2044.50        74.3419         1.4894         2.1059       0.512200
       2045.00        73.3869         1.4904         2.1216       0.532200
       2045.50        73.3213         1.4850         2.1331       0.563000
       2046.00        74.0800         1.4853         2.1377       0.598500
       2046.50        75.6862         1.4920         2.1424       0.631500
       2047.00        77.8788         1.5071         2.1525       0.655400
       2047.50        80.0919         1.5250         2.1608       0.663900
       2048.00        81.4794         1.5388         2.1554       0.649500
       2048.50        81.3925         1.5396         2.1372       0.613700
       2049.00        79.6575         1.5301         2.1181       0.577700
       2049.50        77.0325         1.5191         2.1065       0.560200
       2050.00        74.7106         1.5123         2.0998       0.559800
       2050.50        73.4088         1.5075         2.0921       0.560000
       2051.00        72.9750         1.5072         2.0824       0.549400
       2051.50        72.9100         1.5151         2.0750       0.531900
       2052.00        72.9531         1.5342         2.0740       0.523400
       2052.50        73.2344         1.5450         2.0807       0.535600
       2053.00        74.0362         1.5431         2.0929       0.572800
       2053.50        75.3594         1.5268         2.1019       0.625800
       2054.00        76.7487         1.5083         2.1021       0.666300
       2054.50        77.6837         1.4947         2.0967       0.664700
       2055.00        78.0544         1.4874         2.0947       0.618500
       2055.50        78.0762         1.4857         2.1040       0.559500
       2056.00        77.7931         1.4888         2.1182       0.518900
       2056.50        77.0325         1.4896         2.1265       0.502000
       2057.00        75.9463         1.4971         2.1289       0.498400
       2057.50        75.0762         1.5047         2.1305       0.500100
       2058.00        74.6625         1.5153         2.1339       0.503700
       2058.50        74.3594         1.5272         2.1388       0.508600
       2059.00        73.9269         1.5362         2.1435       0.517900
       2059.50        73.7756         1.5360         2.1497       0.533400
       2060.00        74.1444         1.5285         2.1593       0.549000
       2060.50        75.3594         1.5187         2.1674       0.551300
       2061.00        76.7487         1.5163         2.1648       0.539200
       2061.50        77.6837         1.5194         2.1468       0.525900
       2062.00        78.0544         1.5207         2.1237       0.520400
       2062.50        78.0762         1.5231         2.1111       0.521400
       2063.00        77.7931         1.5244         2.1107       0.527900
       2063.50        76.9894         1.5274         2.1154       0.541400
       2064.00        75.6656         1.5224         2.1177       0.558500
       2064.50        74.2331         1.5174         2.1150       0.568300
       2065.00        73.0819         1.5107         2.1104       0.563100
       2065.50        72.2131         1.5119         2.1072       0.545200
       2066.00        71.5406         1.5139         2.1063       0.523500
       2066.50        71.3019         1.5252         2.1067       0.506100
       2067.00        71.6706         1.5401         2.1083       0.495800
       2067.50        73.0600         1.5450         2.1091       0.491300
       2068.00        74.9931         1.5450         2.1053       0.489700
       2068.50        76.6875         1.5425         2.0931       0.490200
