~Version Information Block
VERS .                  2.0:  CWLS LOG ASCII STANDARD - VERSION 2.0
WRAP .                   NO:  One line per depth step
~Well Information Block
#MNEM.UNIT        Data Type   Information
#---------- ----------------  -----------
STRT .FT             950.00:  START DEPTH
STOP .FT           11637.50:  STOP DEPTH
STEP .FT               0.50:  STEP
NULL .              -999.25:  NULL VALUE
COMP .                     :  COMPANY
WELL .                SA-32:  WELL
FLD  .                     :  FIELD
LOC  .                     :  LOCATION
CTRY .                     :  COUNTRY
STAT .                     :  STATE
CNTY .                     :  COUNTY
SRVC .                     :  SERVICE COMPANY
DATE .                     :  DATE
API  .                     :  API NUMBER
UWI  .                     :  UNIQUE WELL ID
~Curve Information Block
#MNEM.UNIT         API CODE   Curve Description
#---------- ----------------  -----------------
DEPTH.FT                   :  DEPTH
GR   .GAPI                 :  Gamma Ray
RT   .OHMM                 :  Deep resistivity
RHOB .G/C3                 :  Bulk density
NPHI .V/V                  :  NEUT*100
~Parameter Information Block
#MNEM.UNIT            Value   Description
#---------- ----------------  -----------
PROJECT.            SERANG_FE:  
~Other Information Block
# 
~A       DEPTH             GR             RT           RHOB           NPHI 
# ...
      10205.50        50.8700         5.2300         2.5000       0.220000
      10206.00        50.9550         5.5300         2.5100       0.210000
      10206.50        49.4320         5.7100         2.5200       0.210000
      10207.00        49.6010         5.6900         2.5300       0.210000
      10207.50        47.9110         5.4600         2.5600       0.210000
      10208.00        47.6590         5.5800         2.5800       0.200000
      10208.50        47.0670         5.4200         2.5800       0.200000
      10209.00        46.9830         5.1000         2.5500       0.190000
      10209.50        44.8700         4.7800         2.5000       0.190000
      10210.00        43.8560         4.6700         2.5600       0.180000
      10210.50        43.7710         4.7800         2.6500       0.170000
      10211.00        44.7020         5.2300         2.7200       0.160000
      10211.50        45.2080         5.2400         2.6800       0.170000
      10212.00        43.6030         5.2500         2.5800       0.180000
      10212.50        44.1940         4.5100         2.5100       0.210000
      10213.00        44.1940         4.6400         2.5300       0.220000
      10213.50        47.7420         4.3300         2.5200       0.210000
      10214.00        48.3330         3.9600         2.6400       0.210000
      10214.50        48.9250         4.1200         2.6800       0.210000
      10215.00        47.0670         3.9200         2.7000       0.220000
      10215.50        46.7290         3.8800         2.6000       0.220000
      10216.00        48.3350         3.9000         2.5200       0.230000
      10216.50        50.9540         3.8900         2.5200       0.220000
      10217.00        56.8690         3.9100         2.5200       0.220000
      10217.50        58.8130         3.8500         2.5400       0.220000
      10218.00        60.0790         3.8200         2.5100       0.230000
      10218.50        60.0790         3.7500         2.5200       0.220000
      10219.00        62.3600         3.8000         2.5200       0.230000
      10219.50        65.3190         3.7800         2.4500       0.240000
      10220.00        67.0090         3.8600         2.5100       0.250000
      10220.50        67.4320         3.8600         2.6200       0.250000
      10221.00        68.1080         3.9300         2.8300       0.250000
      10221.50        68.8680         3.9800         2.7500       0.270000
      10222.00        72.6710         3.9600         2.5900       0.270000
      10222.50        75.6280         3.9300         2.5300       0.270000
      10223.00        78.1630         3.8300         2.5300       0.260000
      10223.50        77.9100         3.7100         2.5300       0.260000
      10224.00        78.6700         3.8000         2.5400       0.260000
      10224.50        78.0780         3.6300         2.5700       0.260000
      10225.00        79.5990         3.4600         2.6100       0.260000
      10225.50        79.6840         3.3000         2.6100       0.270000
      10226.00        80.6980         3.4000         2.5700       0.270000
      10226.50        81.5430         3.2700         2.5800       0.270000
      10227.00        81.5430         3.2200         2.5800       0.270000
      10227.50        82.5590         3.2800         2.5800       0.280000
      10228.00        82.5590         3.3100         2.5900       0.290000
      10228.50        80.9480         3.2900         2.6100       0.290000
      10229.00        81.2010         3.2800         2.6100       0.300000
      10229.50        81.2010         3.3200         2.6000       0.300000
      10230.00        80.9510         3.3300         2.6200       0.290000
      10230.50        78.5850         3.3800         2.6300       0.280000
      10231.00        75.6280         3.4000         2.6200       0.280000
      10231.50        75.5450         3.4100         2.6100       0.290000
      10232.00        76.1360         3.4900         2.6000       0.280000
      10232.50        76.9810         3.4700         2.5900       0.280000
      10233.00        76.7270         3.4900         2.5700       0.270000
      10233.50        74.1080         3.5900         2.5700       0.260000
      10234.00        72.4180         3.5400         2.5600       0.260000
      10234.50        73.3470         3.5600         2.5600       0.250000
      10235.00        72.5880         3.5400         2.5400       0.240000
      10235.50        71.2360         3.5100         2.5200       0.230000
      10236.00        69.1240         3.5100         2.5000       0.220000
      10236.50        63.2910         3.5500         2.5200       0.210000
      10237.00        57.3760         3.5500         2.5100       0.210000
      10237.50        50.8690         3.5500         2.5100       0.210000
      10238.00        50.0240         3.5700         2.4900       0.210000
      10238.50        49.6860         3.5700         2.4900       0.210000
      10239.00        50.1940         3.6300         2.4800       0.210000
      10239.50        50.2780         3.6300         2.5100       0.210000
      10240.00        50.8700         3.6700         2.5100       0.210000
      10240.50        51.7990         3.6200         2.5100       0.210000
      10241.00        54.5050         3.6400         2.5100       0.210000
      10241.50        57.7160         3.6400         2.5400       0.210000
      10242.00        60.2510         3.6700         2.6000       0.210000
      10242.50        60.9250         3.6300         2.5900       0.210000
      10243.00        60.5870         3.6500         2.5800       0.220000
      10243.50        59.9960         3.6700         2.5400       0.230000
      10244.00        60.3340         3.6700         2.5200       0.230000
      10244.50        64.0520         3.6600         2.5200       0.230000
      10245.00        62.9530         3.6600         2.5200       0.230000
      10245.50        63.7140         3.7000         2.5600       0.230000
      10246.00        61.6010         3.7400         2.5700       0.240000
      10246.50        63.7140         3.7500         2.6000       0.250000
      10247.00        66.7560         3.7400         2.5900       0.250000
      10247.50        68.4460         3.7100         2.5600       0.250000
      10248.00        71.9950         4.8500         2.5600       0.240000
      10248.50        69.7150         5.8600         2.5600       0.230000
      10249.00        68.4480         6.5200         2.5800       0.230000
      10249.50        63.1240         8.2600         2.5600       0.220000
      10250.00        59.2350         9.0200         2.5700       0.210000
      10250.50        54.3340        12.2600         2.5400       0.200000
      10251.00        50.1930        11.6000         2.5200       0.190000
      10251.50        46.7300        12.4200         2.4900       0.190000
      10252.00        42.3350        12.1600         2.5100       0.180000
      10252.50        37.4350        13.8600         2.4700       0.180000
      10253.00        33.2930        13.1500         2.4500       0.180000
      10253.50        30.3360        14.4900         2.3700       0.200000
      10254.00        29.3220        17.1000         2.3100       0.230000
      10254.50        28.7300        14.2000         2.2800       0.230000
      10255.00        26.4490        11.6300         2.3100       0.220000
      10255.50        23.4920        11.3200         2.2700       0.210000
      10256.00        21.2950        12.2900         2.2700       0.230000
      10256.50        21.3790        12.4300         2.2500       0.230000
      10257.00        21.8860        12.5900         2.2700       0.210000
      10257.50        21.5480        12.7600         2.2400       0.210000
      10258.00        21.5480        13.2700         2.2100       0.220000
      10258.50        21.8850        13.5600         2.2100       0.250000
