~Version Information Block
VERS .                  2.0:  CWLS LOG ASCII STANDARD - VERSION 2.0
WRAP .                   NO:  One line per depth step
~Well Information Block
#MNEM.UNIT        Data Type   Information
#---------- ----------------  -----------
STRT .FT             410.50:  START DEPTH
STOP .FT           11980.00:  STOP DEPTH
STEP .FT               0.50:  STEP
NULL .              -999.25:  NULL VALUE
COMP .                     :  COMPANY
WELL .             SA-35ST1:  WELL
FLD  .                     :  FIELD
LOC  .                     :  LOCATION
CTRY .                     :  COUNTRY
STAT .                     :  STATE
CNTY .                     :  COUNTY
SRVC .                     :  SERVICE COMPANY
DATE .                     :  DATE
API  .                     :  API NUMBER
UWI  .                     :  UNIQUE WELL ID
~Curve Information Block
#MNEM.UNIT         API CODE   Curve Description
#---------- ----------------  -----------------
DEPTH.FT                   :  
GR   .GAPI                 :  Merged WIRE with WIRE_ST at 6750.00 F
RT   .OHMM                 :  Merged WIRE with WIRE_ST at 6750.00 F
RHOB .G/C3                 :  Merged WIRE with WIRE_ST at 6750.00 F
NPHI .V/V                  :  Merged WIRE with WIRE_ST at 6750.00 F
~Parameter Information Block
#MNEM.UNIT            Value   Description
#---------- ----------------  -----------
PROJECT.            SERANG_FE:  
~Other Information Block
# 
~A       DEPTH             GR             RT           RHOB           NPHI 
# ...
       9077.50        59.2200         2.1888         2.4397       0.319100
       9078.00        61.3500         2.1411         2.4630       0.310000
       9078.50        63.3900         2.1122         2.4700       0.310000
       9079.00        64.6200         2.0811         2.4649       0.310000
       9079.50        64.2100         2.0789         2.4453       0.319300
       9080.00        62.9800         2.0989         2.4300       0.328900
       9080.50        61.7600         2.1011         2.4281       0.330000
       9081.00        62.1700         2.0766         2.4165       0.330000
       9081.50        63.3900         2.0823         2.4030       0.330000
       9082.00        62.9800         2.1100         2.4252       0.337200
       9082.50        62.9800         2.1145         2.4632       0.346800
       9083.00        63.3900         2.1111         2.4883       0.343600
       9083.50        66.6600         2.0955         2.4680       0.340000
       9084.00        68.3000         2.0989         2.4395       0.340000
       9084.50        67.8900         2.0565         2.4298       0.350300
       9085.00        67.0700         1.9766         2.4200       0.360000
       9085.50        68.6200         1.9912         2.4200       0.355700
       9086.00        69.4400         2.0478         2.4296       0.353900
       9086.50        69.4400         2.0878         2.4394       0.360000
       9087.00        67.8900         2.0342         2.4400       0.366100
       9087.50        67.4800         1.9355         2.4310       0.380000
       9088.00        67.0700         1.9969         2.4300       0.377800
       9088.50        66.2500         2.0978         2.4300       0.368200
       9089.00        66.5000         2.1022         2.4300       0.360000
       9089.50        68.1400         2.0889         2.4300       0.361000
       9090.00        69.7800         2.1089         2.4379       0.370000
       9090.50        73.7000         2.0843         2.4323       0.370200
       9091.00        73.2900         2.0043         2.4374       0.379700
       9091.50        73.2900         1.9466         2.4400       0.398600
       9092.00        71.1600         1.9478         2.4541       0.400000
       9092.50        72.3900         1.9789         2.4532       0.408500
       9093.00        72.8000         1.9722         2.4500       0.401900
       9093.50        71.9800         1.9545         2.4436       0.400000
       9094.00        70.5900         2.0180         2.4462       0.400000
       9094.50        70.5900         2.0499         2.4619       0.400000
       9095.00        72.6400         2.0178         2.4642       0.393600
       9095.50        74.0300         2.0578         2.4489       0.390000
       9096.00        73.2100         2.0666         2.4293       0.390000
       9096.50        71.9800         2.0500         2.4149       0.390000
       9097.00        71.1600         2.0901         2.4149       0.390000
       9097.50        71.6600         2.0820         2.4153       0.394300
       9098.00        73.3000         1.9966         2.4100       0.411800
       9098.50        75.7500         1.9934         2.4100       0.422900
       9099.00        77.7100         2.0278         2.4100       0.397500
       9099.50        76.0700         2.0277         2.4062       0.370000
       9100.00        72.8000         2.0134         2.4000       0.372300
       9100.50        71.5700         2.0389         2.4034       0.387500
       9101.00        72.8800         2.0188         2.4100       0.418500
       9101.50        74.1000         1.9622         2.4100       0.411000
       9102.00        74.1000         1.9445         2.4128       0.419400
       9102.50        73.6200         1.8831         2.4200       0.409800
       9103.00        74.8400         1.8268         2.4176       0.400200
       9103.50        74.8400         1.9135         2.4100       0.400000
       9104.00        73.6200         1.9711         2.4119       0.400000
       9104.50        71.4900         1.9689         2.4200       0.408600
       9105.00        70.6700         1.9577         2.4215       0.385600
       9105.50        70.6700         1.9300         2.4300       0.380000
       9106.00        71.1600         1.9389         2.4311       0.387300
       9106.50        71.1600         1.9678         2.4400       0.410700
       9107.00        71.1600         1.9811         2.4381       0.426500
       9107.50        70.3400         1.9834         2.4100       0.430000
       9108.00        69.1200         1.9688         2.4100       0.430000
       9108.50        71.1600         1.9077         2.4100       0.424800
       9109.00        70.7500         1.9023         2.4198       0.424800
       9109.50        71.1600         1.9300         2.4104       0.421200
       9110.00        69.9400         1.9077         2.4006       0.406000
       9110.50        71.1600         1.8934         2.4091       0.396400
       9111.00        71.1600         1.8922         2.4189       0.399500
       9111.50        71.1600         1.8789         2.4287       0.420000
       9112.00        71.9800         1.8811         2.4300       0.420000
       9112.50        72.8000         1.8700         2.4217       0.414200
       9113.00        72.8000         1.8566         2.4038       0.388500
       9113.50        70.3400         1.8445         2.4079       0.381100
       9114.00        68.7100         1.8678         2.4023       0.390000
       9114.50        67.8900         1.8900         2.4074       0.390000
       9115.00        69.8500         1.8811         2.4172       0.390000
       9115.50        69.8500         1.8566         2.4340       0.380600
       9116.00        68.6200         1.8266         2.4400       0.398000
       9116.50        67.4800         1.8278         2.4202       0.400000
       9117.00        69.9400         1.8589         2.4036       0.400000
       9117.50        72.3900         1.8745         2.4062       0.392200
       9118.00        73.2100         1.8800         2.4160       0.390000
       9118.50        71.5700         1.8711         2.4200       0.390000
       9119.00        70.3400         1.8333         2.4310       0.390000
       9119.50        71.1600         1.8045         2.4453       0.383900
       9120.00        74.0300         1.7966         2.4500       0.380000
       9120.50        74.8400         1.7889         2.4304       0.369400
       9121.00        73.8700         1.7822         2.3960       0.364900
       9121.50        72.6400         1.7466         2.3800       0.387600
       9122.00        73.0500         1.7077         2.3883       0.442800
       9122.50        74.8400         1.6443         2.4076       0.443400
       9123.00        75.6600         1.5911         2.4200       0.404800
       9123.50        76.4800         1.5847         2.4169       0.400000
       9124.00        76.0700         1.6445         2.4072       0.418200
       9124.50        75.2500         1.7416         2.4000       0.413900
       9125.00        74.0300         1.8816         2.4000       0.406600
       9125.50        72.3900         2.0128         2.4017       0.390000
       9126.00        68.3000         2.3762         2.4100       0.376600
       9126.50        61.4300         4.1142         2.4090       0.360000
       9127.00        59.7900         7.5711         2.3993       0.337700
       9127.50        57.3400         8.2350         2.3900       0.292200
       9128.00        53.4900         7.7516         2.3900       0.256600
       9128.50        43.6700         7.4619         2.3900       0.231100
       9129.00        37.1300         7.6195         2.3527       0.215500
       9129.50        34.3500         8.0644         2.3140       0.210000
       9130.00        34.7600         8.2464         2.2927       0.210000
       9130.50        36.8100         7.9810         2.2983       0.205500
