~Version Information Block
VERS .                  2.0:  CWLS LOG ASCII STANDARD - VERSION 2.0
WRAP .                   NO:  One line per depth step
~Well Information Block
#MNEM.UNIT        Data Type   Information
#---------- ----------------  -----------
STRT .FT             950.00:  START DEPTH
STOP .FT           11598.00:  STOP DEPTH
STEP .FT               0.50:  STEP
NULL .              -999.25:  NULL VALUE
COMP .                     :  COMPANY
WELL .          SA-32RD1ST1:  WELL
FLD  .                     :  FIELD
LOC  .                     :  LOCATION
CTRY .                     :  COUNTRY
STAT .                     :  STATE
CNTY .                     :  COUNTY
SRVC .                     :  SERVICE COMPANY
DATE .                     :  DATE
API  .                     :  API NUMBER
UWI  .                     :  UNIQUE WELL ID
~Curve Information Block
#MNEM.UNIT         API CODE   Curve Description
#---------- ----------------  -----------------
DEPTH.FT                   :  
GR   .GAPI                 :  Merged WIRE with WIRE_ST at 7550.00 F
RT   .OHMM                 :  Merged WIRE with WIRE_ST at 7550.00 F
RHOB .G/C3                 :  Merged WIRE with WIRE_ST at 7550.00 F
NPHI .V/V                  :  Merged WIRE with WIRE_ST at 7550.00 F
~Parameter Information Block
#MNEM.UNIT            Value   Description
#---------- ----------------  -----------
PROJECT.            SERANG_FE:  
~Other Information Block
# 
~A       DEPTH             GR             RT           RHOB           NPHI 
# ...
       2394.50        60.2200         1.3320      -999.2500      -999.2500
       2395.00        59.5100         1.3510      -999.2500      -999.2500
       2395.50        57.7100         1.3570      -999.2500      -999.2500
       2396.00        54.8500         1.3300      -999.2500      -999.2500
       2396.50        53.7700         1.3370      -999.2500      -999.2500
       2397.00        54.4900         1.4020      -999.2500      -999.2500
       2397.50        56.2800         1.3270      -999.2500      -999.2500
       2398.00        58.0700         1.3980      -999.2500      -999.2500
       2398.50        58.4300         1.3760      -999.2500      -999.2500
       2399.00        58.4300         1.3460      -999.2500      -999.2500
       2399.50        58.4300         1.4140      -999.2500      -999.2500
       2400.00        58.4300         1.4490      -999.2500      -999.2500
       2400.50        56.6400         1.4320      -999.2500      -999.2500
       2401.00        56.6400         1.3560      -999.2500      -999.2500
       2401.50        57.3500         1.4050      -999.2500      -999.2500
       2402.00        58.4300         1.3650      -999.2500      -999.2500
       2402.50        58.4300         1.4100      -999.2500      -999.2500
       2403.00        58.4300         1.4100      -999.2500      -999.2500
       2403.50        59.1500         1.4070      -999.2500      -999.2500
       2404.00        59.8600         1.3780      -999.2500      -999.2500
       2404.50        60.9400         1.3640      -999.2500      -999.2500
       2405.00        61.6600         1.3970      -999.2500      -999.2500
       2405.50        62.7300         1.3770      -999.2500      -999.2500
       2406.00        63.4500         1.4450      -999.2500      -999.2500
       2406.50        64.5200         1.4050      -999.2500      -999.2500
       2407.00        63.8100         1.4460      -999.2500      -999.2500
       2407.50        62.0100         1.4080      -999.2500      -999.2500
       2408.00        60.2200         1.3930      -999.2500      -999.2500
       2408.50        58.4300         1.4180      -999.2500      -999.2500
       2409.00        57.3500         1.4030      -999.2500      -999.2500
       2409.50        56.6400         1.4210      -999.2500      -999.2500
       2410.00        56.6400         1.3340      -999.2500      -999.2500
       2410.50        56.6400         1.3720      -999.2500      -999.2500
       2411.00        57.3600         1.3850      -999.2500      -999.2500
       2411.50        57.3600         1.3430      -999.2500      -999.2500
       2412.00        57.3600         1.3670      -999.2500      -999.2500
       2412.50        56.6400         1.3380      -999.2500      -999.2500
       2413.00        55.5600         1.3260      -999.2500      -999.2500
       2413.50        54.8500         1.3800      -999.2500      -999.2500
       2414.00        53.7700         1.2810      -999.2500      -999.2500
       2414.50        53.7700         1.2960      -999.2500      -999.2500
       2415.00        53.0500         1.3490      -999.2500      -999.2500
       2415.50        51.9800         1.3370      -999.2500      -999.2500
       2416.00        51.2600         1.3100      -999.2500      -999.2500
       2416.50        50.1900         1.3120      -999.2500      -999.2500
       2417.00        49.4700         1.3290      -999.2500      -999.2500
       2417.50        48.3900         1.3200      -999.2500      -999.2500
       2418.00        49.1100         1.3220      -999.2500      -999.2500
       2418.50        50.9000         1.3430      -999.2500      -999.2500
       2419.00        52.6900         1.3670      -999.2500      -999.2500
       2419.50        53.7700         1.3460      -999.2500      -999.2500
       2420.00        53.7700         1.3940      -999.2500      -999.2500
       2420.50        53.7700         1.3410      -999.2500      -999.2500
       2421.00        53.7700         1.3520      -999.2500      -999.2500
       2421.50        55.5600         1.3720      -999.2500      -999.2500
       2422.00        57.3500         1.3930      -999.2500      -999.2500
       2422.50        59.8600         1.4210      -999.2500      -999.2500
       2423.00        61.6600         1.4290      -999.2500      -999.2500
       2423.50        62.7300         1.4110      -999.2500      -999.2500
       2424.00        62.0200         1.3260      -999.2500      -999.2500
       2424.50        60.2200         1.3790      -999.2500      -999.2500
       2425.00        59.8600         1.3740      -999.2500      -999.2500
       2425.50        60.5800         1.4070      -999.2500      -999.2500
       2426.00        62.3700         1.3780      -999.2500      -999.2500
       2426.50        63.4500         1.3590      -999.2500      -999.2500
       2427.00        63.8100         1.3530      -999.2500      -999.2500
       2427.50        62.0200         1.3810      -999.2500      -999.2500
       2428.00        60.2200         1.3880      -999.2500      -999.2500
       2428.50        59.1500         1.3630      -999.2500      -999.2500
       2429.00        59.1500         1.2990      -999.2500      -999.2500
       2429.50        59.8600         1.2860      -999.2500      -999.2500
       2430.00        61.6600         1.2570      -999.2500      -999.2500
       2430.50        62.7300         1.3250      -999.2500      -999.2500
       2431.00        62.0200         1.3760      -999.2500      -999.2500
       2431.50        60.2200         1.4330      -999.2500      -999.2500
       2432.00        59.1500         1.4500      -999.2500      -999.2500
       2432.50        59.8600         1.3480      -999.2500      -999.2500
       2433.00        61.6500         1.3350      -999.2500      -999.2500
       2433.50        63.4500         1.3830      -999.2500      -999.2500
       2434.00        64.5200         1.4120      -999.2500      -999.2500
       2434.50        64.5200         1.4320      -999.2500      -999.2500
       2435.00        65.2400         1.4550      -999.2500      -999.2500
       2435.50        67.0300         1.4970      -999.2500      -999.2500
       2436.00        68.8300         1.4670      -999.2500      -999.2500
       2436.50        69.1800         1.4340      -999.2500      -999.2500
       2437.00        66.6700         1.3800      -999.2500      -999.2500
       2437.50        63.0900         1.3790      -999.2500      -999.2500
       2438.00        60.2200         1.3770      -999.2500      -999.2500
       2438.50        58.4300         1.4490      -999.2500      -999.2500
       2439.00        56.6400         1.5280      -999.2500      -999.2500
       2439.50        56.6400         1.5070      -999.2500      -999.2500
       2440.00        57.3500         1.4820      -999.2500      -999.2500
       2440.50        59.8600         1.4910      -999.2500      -999.2500
       2441.00        61.6600         1.4120      -999.2500      -999.2500
       2441.50        64.1600         1.4320      -999.2500      -999.2500
       2442.00        67.0300         1.4490      -999.2500      -999.2500
       2442.50        68.8200         1.4450      -999.2500      -999.2500
       2443.00        69.9000         1.4910      -999.2500      -999.2500
       2443.50        68.1100         1.4990      -999.2500      -999.2500
       2444.00        66.3200         1.4860      -999.2500      -999.2500
       2444.50        62.7300         1.4560      -999.2500      -999.2500
       2445.00        60.9400         1.5040      -999.2500      -999.2500
       2445.50        60.9400         1.4510      -999.2500      -999.2500
       2446.00        62.7300         1.4640      -999.2500      -999.2500
       2446.50        64.5200         1.5000      -999.2500      -999.2500
       2447.00        64.5200         1.4970      -999.2500      -999.2500
       2447.50        64.5200         1.4770      -999.2500      -999.2500
