~Version Information Block
VERS .                  2.0:  CWLS LOG ASCII STANDARD - VERSION 2.0
WRAP .                   NO:  One line per depth step
~Well Information Block
#MNEM.UNIT        Data Type   Information
#---------- ----------------  -----------
STRT .FT             950.00:  START DEPTH
STOP .FT           11637.50:  STOP DEPTH
STEP .FT               0.50:  STEP
NULL .              -999.25:  NULL VALUE
COMP .                     :  COMPANY
WELL .                SA-32:  WELL
FLD  .                     :  FIELD
LOC  .                     :  LOCATION
CTRY .                     :  COUNTRY
STAT .                     :  STATE
CNTY .                     :  COUNTY
SRVC .                     :  SERVICE COMPANY
DATE .                     :  DATE
API  .                     :  API NUMBER
UWI  .                     :  UNIQUE WELL ID
~Curve Information Block
#MNEM.UNIT         API CODE   Curve Description
#---------- ----------------  -----------------
DEPTH.FT                   :  DEPTH
GR   .GAPI                 :  Gamma Ray
RT   .OHMM                 :  Deep resistivity
RHOB .G/C3                 :  Bulk density
NPHI .V/V                  :  NEUT*100
~Parameter Information Block
#MNEM.UNIT            Value   Description
#---------- ----------------  -----------
PROJECT.            SERANG_FE:  
~Other Information Block
# 
~A       DEPTH             GR             RT           RHOB           NPHI 
# ...
       7370.00        41.2200         1.9870         2.3600       0.220000
       7370.50        41.2200         1.9150         2.3540       0.220000
       7371.00        44.4000         1.8680         2.3500       0.214000
       7371.50        47.9900         1.8170         2.3440       0.216000
       7372.00        53.3600         1.7740         2.3340       0.226000
       7372.50        57.3600         1.7720         2.3300       0.236000
       7373.00        59.1500         1.7680         2.3360       0.252000
       7373.50        60.9400         1.8250         2.3460       0.266000
       7374.00        59.1500         1.8860         2.3440       0.282000
       7374.50        57.3600         1.8510         2.3040       0.296000
       7375.00        50.6900         1.7690         2.2320       0.300000
       7375.50        42.2500         1.6160         2.1520       0.306000
       7376.00        31.4900         1.4600         2.1140       0.310000
       7376.50        22.5500         1.3730         2.1100       0.310000
       7377.00        17.2000         1.1550         2.1220       0.316000
       7377.50        13.6100         0.8910         2.1120       0.320000
       7378.00        12.5400         0.7530         2.0880       0.320000
       7378.50        13.7900         0.6840         2.0680       0.308000
       7379.00        17.3700         0.7090         2.0600       0.294000
       7379.50        17.9200         0.7430         2.0660       0.290000
       7380.00        16.7100         0.6980         2.0820       0.296000
       7380.50        14.3400         0.7180         2.1260       0.306000
       7381.00        14.3400         0.6890         2.1860       0.316000
       7381.50        18.5500         0.6300         2.2640       0.320000
       7382.00        26.8900         0.6550         2.3420       0.320000
       7382.50        44.2100         0.6740         2.3940       0.332000
       7383.00        62.1100         0.7520         2.4100       0.358000
       7383.50        75.8500         0.9780         2.4040       0.382000
       7384.00        83.0100         1.1190         2.3940       0.396000
       7384.50        87.2000         1.2050         2.3960       0.394000
       7385.00        90.7900         1.2860         2.4060       0.384000
       7385.50        91.4100         1.2810         2.4160       0.386000
       7386.00        92.5500         1.2770         2.4200       0.402000
       7386.50        92.5500         1.3300         2.4260       0.410000
       7387.00        92.5500         1.2730         2.4300       0.398000
       7387.50        91.4100         1.1900         2.4300       0.378000
       7388.00        90.7100         1.1980         2.4240       0.382000
       7388.50        90.7100         1.2470         2.4140       0.390000
       7389.00        90.7100         1.3040         2.4100       0.390000
       7389.50        91.4100         1.3180         2.4160       0.378000
       7390.00        93.2000         1.3550         2.4140       0.376000
       7390.50        94.9900         1.3860         2.4040       0.386000
       7391.00        96.7900         1.3310         2.3700       0.402000
       7391.50        94.1900         1.2440         2.3680       0.398000
       7392.00        95.0100         1.2080         2.3800       0.384000
       7392.50        96.8100         1.1610         2.4160       0.368000
       7393.00        99.4100         1.1120         2.4220       0.360000
       7393.50        98.5800         1.0840         2.4220       0.384000
       7394.00        95.9000         1.0640         2.4300       0.400000
       7394.50        94.9900         1.0860         2.4240       0.400000
       7395.00        94.0600         1.1020         2.4140       0.388000
       7395.50        93.1600         1.0780         2.4220       0.374000
       7396.00        89.6300         1.0760         2.4660       0.358000
       7396.50        79.8000         1.0960         2.4900       0.326000
       7397.00        68.2000         1.1470         2.5020       0.286000
       7397.50        53.8800         1.3690         2.5100       0.252000
       7398.00        44.1000         1.7670         2.5460       0.234000
       7398.50        35.1500         2.6040         2.5940       0.230000
       7399.00        30.6100         3.8430         2.6280       0.230000
       7399.50        29.6400         4.7840         2.6160       0.224000
       7400.00        30.4700         5.2160         2.5580       0.226000
       7400.50        34.8600         5.0750         2.4940       0.242000
       7401.00        38.4400         4.8270         2.4400       0.262000
       7401.50        42.8200         4.5980         2.4020       0.270000
       7402.00        47.3900         4.3880         2.3900       0.258000
       7402.50        52.7700         4.2770         2.4140       0.226000
       7403.00        57.3600         4.0510         2.4660       0.198000
       7403.50        58.3800         4.4400         2.4960       0.202000
       7404.00        56.5900         4.7060         2.4640       0.210000
       7404.50        53.7600         4.0580         2.4460       0.204000
       7405.00        52.7400         3.9850         2.4740       0.176000
       7405.50        51.9900         4.2060         2.5560       0.154000
       7406.00        50.1800         4.7670         2.6000       0.144000
       7406.50        48.3800         5.7060         2.5940       0.140000
       7407.00        46.6100         6.3930         2.5960       0.146000
       7407.50        45.1600         6.7770         2.5940       0.144000
       7408.00        40.8600         7.3380         2.5960       0.140000
       7408.50        36.2100         7.5570         2.6000       0.134000
       7409.00        35.8400         8.1120         2.5940       0.130000
       7409.50        40.8400         8.9030         2.5840       0.124000
       7410.00        48.7000         9.3780         2.5680       0.120000
       7410.50        55.8600         9.4390         2.5480       0.120000
       7411.00        60.5400         9.4710         2.5220       0.126000
       7411.50        61.6300         9.7460         2.4980       0.142000
       7412.00        60.2600         9.6630         2.4720       0.156000
       7412.50        56.6800         9.9300         2.4360       0.178000
       7413.00        54.8800         9.8750         2.4140       0.202000
       7413.50        54.4300         9.3920         2.4160       0.216000
       7414.00        56.8800         8.5180         2.4020       0.238000
       7414.50        67.1400         7.5460         2.3420       0.280000
       7415.00        79.6600         6.8530         2.2620       0.336000
       7415.50        93.9900         5.4060         2.1880       0.378000
       7416.00       101.6600         3.7270         2.1240       0.408000
       7416.50       106.3900         2.5840         2.0700       0.438000
       7417.00       105.1200         1.9120         2.0560       0.468000
       7417.50       100.9100         1.9630         2.0780       0.486000
       7418.00        95.5400         2.5050         2.1380       0.478000
       7418.50        94.3700         2.6820         2.2180       0.446000
       7419.00        96.7900         2.2870         2.2920       0.406000
       7419.50        99.1700         1.8650         2.3380       0.378000
       7420.00       100.3800         1.9820         2.3620       0.370000
       7420.50        99.1600         2.0260         2.3760       0.376000
       7421.00        96.7700         1.8170         2.3800       0.374000
       7421.50        97.3600         1.7360         2.3740       0.364000
       7422.00        98.5800         1.8960         2.3520       0.354000
       7422.50       101.6300         1.9160         2.3040       0.362000
       7423.00        99.3100         1.6820         2.2320       0.382000
