~Version Information Block
VERS .                  2.0:  CWLS LOG ASCII STANDARD - VERSION 2.0
WRAP .                   NO:  One line per depth step
~Well Information Block
#MNEM.UNIT        Data Type   Information
#---------- ----------------  -----------
STRT .FT             950.00:  START DEPTH
STOP .FT           11598.00:  STOP DEPTH
STEP .FT               0.50:  STEP
NULL .              -999.25:  NULL VALUE
COMP .                     :  COMPANY
WELL .          SA-32RD1ST1:  WELL
FLD  .                     :  FIELD
LOC  .                     :  LOCATION
CTRY .                     :  COUNTRY
STAT .                     :  STATE
CNTY .                     :  COUNTY
SRVC .                     :  SERVICE COMPANY
DATE .                     :  DATE
API  .                     :  API NUMBER
UWI  .                     :  UNIQUE WELL ID
~Curve Information Block
#MNEM.UNIT         API CODE   Curve Description
#---------- ----------------  -----------------
DEPTH.FT                   :  
GR   .GAPI                 :  Merged WIRE with WIRE_ST at 7550.00 F
RT   .OHMM                 :  Merged WIRE with WIRE_ST at 7550.00 F
RHOB .G/C3                 :  Merged WIRE with WIRE_ST at 7550.00 F
NPHI .V/V                  :  Merged WIRE with WIRE_ST at 7550.00 F
~Parameter Information Block
#MNEM.UNIT            Value   Description
#---------- ----------------  -----------
PROJECT.            SERANG_FE:  
~Other Information Block
# 
~A       DEPTH             GR             RT           RHOB           NPHI 
# ...
      11543.00        29.5500        17.6100         2.4600         0.0800
      11543.50        30.9200        16.4900         2.4700         0.0900
      11544.00        33.1900        16.0800         2.4600         0.0900
      11544.50        33.6400        15.8800         2.4800         0.0900
      11545.00        32.3700        15.5500         2.4600         0.0900
      11545.50        31.0100        13.8500         2.4900         0.1000
      11546.00        32.0100        13.8400         2.5000         0.1000
      11546.50        34.2800        12.6100         2.5700         0.1000
      11547.00        37.0100         9.7700         2.5800         0.1100
      11547.50        37.5600        10.2100         2.5900         0.1200
      11548.00        35.1900        11.0500         2.5800         0.1200
      11548.50        32.0100        12.4100         2.5800         0.1200
      11549.00        30.4600         9.7300         2.6400         0.1100
      11549.50        29.1000         9.6800         2.6200         0.1000
      11550.00        27.1900        14.1300         2.6500         0.1000
      11550.50        24.9100        15.2000         2.6000         0.1000
      11551.00        24.0000        16.0500         2.6100         0.0800
      11551.50        24.5500        16.5600         2.5900         0.0700
      11552.00        25.3700        16.9700         2.5800         0.0700
      11552.50        27.5500        19.0600         2.6000         0.0700
      11553.00        29.3700        18.6900         2.6100         0.0700
      11553.50        30.8200        19.8200         2.6100         0.0700
      11554.00        29.8200        19.1300         2.6200         0.0700
      11554.50        28.1900        19.4100         2.6100         0.0800
      11555.00        26.8200        20.2600         2.6200         0.0800
      11555.50        27.0100        20.5900         2.6100         0.0800
      11556.00        27.4600        20.1600         2.5900         0.0700
      11556.50        27.9200        22.1800         2.6100         0.0700
      11557.00        27.9200        24.0800         2.5900         0.0700
      11557.50        26.8200        23.7200         2.6000         0.0700
      11558.00        25.0100        24.7700         2.6000         0.0700
      11558.50        23.6400        24.4800         2.5900         0.0700
      11559.00        23.6400        25.3200         2.5700         0.0700
      11559.50        24.1000        26.7800         2.5000         0.0800
      11560.00        25.0100        26.7800         2.4700         0.0800
      11560.50        25.0100        26.4400         2.4300         0.0800
      11561.00        25.4600        26.6500         2.4400         0.0800
      11561.50        26.8200        26.5300         2.4500         0.0800
      11562.00        30.4600        25.8700         2.4900      -999.2500
      11562.50        34.1000        25.1600         2.4700      -999.2500
      11563.00        34.1000        26.3200         2.4500      -999.2500
      11563.50        31.8300        27.0300         2.4300      -999.2500
      11564.00        29.5500        26.2300         2.4300      -999.2500
      11564.50        29.1000        25.0700         2.4300      -999.2500
      11565.00        29.1000        23.5500      -999.2500      -999.2500
      11565.50        28.2800        23.8500      -999.2500      -999.2500
      11566.00        27.1000        23.9000      -999.2500      -999.2500
      11566.50        26.9200        22.4300      -999.2500      -999.2500
      11567.00        28.5600        21.8500      -999.2500      -999.2500
      11567.50        31.0100        21.8100      -999.2500      -999.2500
      11568.00        33.3700        21.3800      -999.2500      -999.2500
      11568.50        34.2800        19.6100      -999.2500      -999.2500
      11569.00        34.8300        18.5400      -999.2500      -999.2500
      11569.50        34.4600        18.3800      -999.2500      -999.2500
      11570.00        33.9200        18.8300      -999.2500      -999.2500
      11570.50        33.4600        15.3100      -999.2500      -999.2500
      11571.00        32.5500        17.5500      -999.2500      -999.2500
      11571.50        31.6400        17.9700      -999.2500      -999.2500
      11572.00        30.3700        15.6900      -999.2500      -999.2500
      11572.50        29.0100        15.2900      -999.2500      -999.2500
      11573.00        28.0100        15.2300      -999.2500      -999.2500
      11573.50        28.2800        15.0700      -999.2500      -999.2500
      11574.00        29.6400        13.4900      -999.2500      -999.2500
      11574.50        31.1900        12.5800      -999.2500      -999.2500
      11575.00        32.6400        13.7200      -999.2500      -999.2500
      11575.50        33.3700        13.7200      -999.2500      -999.2500
      11576.00        33.4600        13.9700      -999.2500      -999.2500
      11576.50        32.1000        13.0100      -999.2500      -999.2500
      11577.00        30.0100        12.9600      -999.2500      -999.2500
      11577.50        28.1900        12.9600      -999.2500      -999.2500
      11578.00        27.2800        12.9400      -999.2500      -999.2500
      11578.50        27.2800        12.5800      -999.2500      -999.2500
      11579.00        27.7300        12.5800      -999.2500      -999.2500
      11579.50        28.1900        12.0600      -999.2500      -999.2500
      11580.00        29.1000        12.6800      -999.2500      -999.2500
      11580.50        29.1900        12.2700      -999.2500      -999.2500
      11581.00        29.1000        12.2700      -999.2500      -999.2500
      11581.50        29.1000        10.0700      -999.2500      -999.2500
      11582.00        29.6400        12.6100      -999.2500      -999.2500
      11582.50        31.0100        12.6100      -999.2500      -999.2500
      11583.00        32.3700        10.2300      -999.2500      -999.2500
      11583.50        33.5500        10.2300      -999.2500      -999.2500
      11584.00        33.7400         9.7600      -999.2500      -999.2500
      11584.50        32.8300        11.6000      -999.2500      -999.2500
      11585.00        30.5500         9.9700      -999.2500      -999.2500
      11585.50        28.6400        10.4300      -999.2500      -999.2500
      11586.00        28.4600        11.2700      -999.2500      -999.2500
      11586.50        30.7400        11.3800      -999.2500      -999.2500
      11587.00        32.0100        11.4700      -999.2500      -999.2500
      11587.50        31.2800        12.0500      -999.2500      -999.2500
      11588.00        29.9100        12.1800      -999.2500      -999.2500
      11588.50        30.4600        12.1800      -999.2500      -999.2500
      11589.00        30.4600        11.2300      -999.2500      -999.2500
      11589.50        29.5500        11.1300      -999.2500      -999.2500
      11590.00        27.2800        11.1300      -999.2500      -999.2500
      11590.50        25.4600        11.9100      -999.2500      -999.2500
      11591.00      -999.2500        13.4300      -999.2500      -999.2500
      11591.50      -999.2500        13.4300      -999.2500      -999.2500
      11592.00      -999.2500        13.0900      -999.2500      -999.2500
      11592.50      -999.2500        12.8800      -999.2500      -999.2500
      11593.00      -999.2500        13.4100      -999.2500      -999.2500
      11593.50      -999.2500        12.3700      -999.2500      -999.2500
      11594.00      -999.2500        11.8400      -999.2500      -999.2500
      11594.50      -999.2500        11.2700      -999.2500      -999.2500
      11595.00      -999.2500        12.2400      -999.2500      -999.2500
      11595.50      -999.2500        11.5700      -999.2500      -999.2500
      11596.00      -999.2500        13.7200      -999.2500      -999.2500
