~Version Information Block
VERS .                  2.0:  CWLS LOG ASCII STANDARD - VERSION 2.0
WRAP .                   NO:  One line per depth step
~Well Information Block
#MNEM.UNIT        Data Type   Information
#---------- ----------------  -----------
STRT .FT             950.00:  START DEPTH
STOP .FT           11637.50:  STOP DEPTH
STEP .FT               0.50:  STEP
NULL .              -999.25:  NULL VALUE
COMP .                     :  COMPANY
WELL .                SA-32:  WELL
FLD  .                     :  FIELD
LOC  .                     :  LOCATION
CTRY .                     :  COUNTRY
STAT .                     :  STATE
CNTY .                     :  COUNTY
SRVC .                     :  SERVICE COMPANY
DATE .                     :  DATE
API  .                     :  API NUMBER
UWI  .                     :  UNIQUE WELL ID
~Curve Information Block
#MNEM.UNIT         API CODE   Curve Description
#---------- ----------------  -----------------
DEPTH.FT                   :  DEPTH
GR   .GAPI                 :  Gamma Ray
RT   .OHMM                 :  Deep resistivity
RHOB .G/C3                 :  Bulk density
NPHI .V/V                  :  NEUT*100
~Parameter Information Block
#MNEM.UNIT            Value   Description
#---------- ----------------  -----------
PROJECT.            SERANG_FE:  
~Other Information Block
# 
~A       DEPTH             GR             RT           RHOB           NPHI 
# ...
       3143.50        39.0900         2.0230      -999.2500    -999.250000
       3144.00        39.0900         2.0650      -999.2500    -999.250000
       3144.50        39.0900         1.8610      -999.2500    -999.250000
       3145.00        37.6400         1.9260      -999.2500    -999.250000
       3145.50        39.0600         1.9210      -999.2500    -999.250000
       3146.00        39.0600         2.0390      -999.2500    -999.250000
       3146.50        40.4800         1.9640      -999.2500    -999.250000
       3147.00        39.0500         1.9290      -999.2500    -999.250000
       3147.50        39.0500         1.9260      -999.2500    -999.250000
       3148.00        39.4300         1.9680      -999.2500    -999.250000
       3148.50        43.0200         2.0200      -999.2500    -999.250000
       3149.00        46.6000         2.0030      -999.2500    -999.250000
       3149.50        48.3900         1.9150      -999.2500    -999.250000
       3150.00        48.3900         2.0000      -999.2500    -999.250000
       3150.50        48.3900         1.9370      -999.2500    -999.250000
       3151.00        48.3900         1.9100      -999.2500    -999.250000
       3151.50        50.1900         1.8470      -999.2500    -999.250000
       3152.00        51.9800         1.8380      -999.2500    -999.250000
       3152.50        51.9800         1.8830      -999.2500    -999.250000
       3153.00        50.1900         1.8260      -999.2500    -999.250000
       3153.50        49.6900         1.7410      -999.2500    -999.250000
       3154.00        51.4900         1.7510      -999.2500    -999.250000
       3154.50        55.0700         1.7600      -999.2500    -999.250000
       3155.00        57.3500         1.7610      -999.2500    -999.250000
       3155.50        60.4200         1.7640      -999.2500    -999.250000
       3156.00        62.2100         1.7270      -999.2500    -999.250000
       3156.50        64.0100         1.7110      -999.2500    -999.250000
       3157.00        63.2700         1.7280      -999.2500    -999.250000
       3157.50        62.7300         1.7630      -999.2500    -999.250000
       3158.00        64.5200         1.6420      -999.2500    -999.250000
       3158.50        67.5700         1.5310      -999.2500    -999.250000
       3159.00        69.9000         1.5510      -999.2500    -999.250000
       3159.50        68.6700         1.6160      -999.2500    -999.250000
       3160.00        68.1000         1.5820      -999.2500    -999.250000
       3160.50        67.5200         1.5380      -999.2500    -999.250000
       3161.00        68.7500         1.6050      -999.2500    -999.250000
       3161.50        69.3300         1.7110      -999.2500    -999.250000
       3162.00        69.9000         1.7630      -999.2500    -999.250000
       3162.50        69.9000         1.6450      -999.2500    -999.250000
       3163.00        69.9000         1.5630      -999.2500    -999.250000
       3163.50        69.9000         1.6390      -999.2500    -999.250000
       3164.00        69.9000         1.6300      -999.2500    -999.250000
       3164.50        71.0600         1.6270      -999.2500    -999.250000
       3165.00        72.8500         1.6040      -999.2500    -999.250000
       3165.50        73.5000         1.5710      -999.2500    -999.250000
       3166.00        71.1900         1.5830      -999.2500    -999.250000
       3166.50        67.6100         1.5890      -999.2500    -999.250000
       3167.00        65.1700         1.5240      -999.2500    -999.250000
       3167.50        64.5200         1.5540      -999.2500    -999.250000
       3168.00        66.3200         1.5720      -999.2500    -999.250000
       3168.50        68.1100         1.5210      -999.2500    -999.250000
       3169.00        69.9000         1.5310      -999.2500    -999.250000
       3169.50        68.8000         1.5480      -999.2500    -999.250000
       3170.00        68.8000         1.6080      -999.2500    -999.250000
       3170.50        67.0000         1.6400      -999.2500    -999.250000
       3171.00        66.3200         1.5230      -999.2500    -999.250000
       3171.50        64.5200         1.5480      -999.2500    -999.250000
       3172.00        65.6000         1.6030      -999.2500    -999.250000
       3172.50        67.4000         1.6120      -999.2500    -999.250000
       3173.00        69.1900         1.5670      -999.2500    -999.250000
       3173.50        68.8400         1.6110      -999.2500    -999.250000
       3174.00        68.1000         1.6240      -999.2500    -999.250000
       3174.50        68.1000         1.6390      -999.2500    -999.250000
       3175.00        70.9600         1.5690      -999.2500    -999.250000
       3175.50        73.4900         1.5540      -999.2500    -999.250000
       3176.00        75.2800         1.5120      -999.2500    -999.250000
       3176.50        75.2800         1.4630      -999.2500    -999.250000
       3177.00        76.3000         1.4900      -999.2500    -999.250000
       3177.50        78.0900         1.5360      -999.2500    -999.250000
       3178.00        78.8700         1.4540      -999.2500    -999.250000
       3178.50        76.0600         1.4790      -999.2500    -999.250000
       3179.00        72.4700         1.4690      -999.2500    -999.250000
       3179.50        70.8900         1.4610      -999.2500    -999.250000
       3180.00        72.6800         1.4620      -999.2500    -999.250000
       3180.50        74.4800         1.4110      -999.2500    -999.250000
       3181.00        75.2800         1.4290      -999.2500    -999.250000
       3181.50        73.4900         1.4830      -999.2500    -999.250000
       3182.00        71.6900         1.4870      -999.2500    -999.250000
       3182.50        68.1100         1.4190      -999.2500    -999.250000
       3183.00        66.3200         1.4660      -999.2500    -999.250000
       3183.50        64.5200         1.4430      -999.2500    -999.250000
       3184.00        64.5200         1.4630      -999.2500    -999.250000
       3184.50        64.5200         1.4810      -999.2500    -999.250000
       3185.00        66.3200         1.4960      -999.2500    -999.250000
       3185.50        68.1100         1.5310      -999.2500    -999.250000
       3186.00        69.9000         1.5390      -999.2500    -999.250000
       3186.50        70.7800         1.5190      -999.2500    -999.250000
       3187.00        71.6800         1.4470      -999.2500    -999.250000
       3187.50        73.4800         1.4510      -999.2500    -999.250000
       3188.00        73.5100         1.5710      -999.2500    -999.250000
       3188.50        74.3900         1.5070      -999.2500    -999.250000
       3189.00        74.3900         1.4460      -999.2500    -999.250000
       3189.50        74.4100         1.5510      -999.2500    -999.250000
       3190.00        72.6200         1.6170      -999.2500    -999.250000
       3190.50        69.8900         1.5890      -999.2500    -999.250000
       3191.00        68.9700         1.5290      -999.2500    -999.250000
       3191.50        68.9700         1.5660      -999.2500    -999.250000
       3192.00        71.6900         1.4900      -999.2500    -999.250000
       3192.50        73.4900         1.5300      -999.2500    -999.250000
       3193.00        73.4900         1.4140      -999.2500    -999.250000
       3193.50        71.6900         1.4470      -999.2500    -999.250000
       3194.00        69.9000         1.4890      -999.2500    -999.250000
       3194.50        69.9000         1.4770      -999.2500    -999.250000
       3195.00        68.1100         1.4610      -999.2500    -999.250000
       3195.50        66.3200         1.4460      -999.2500    -999.250000
       3196.00        65.5100         1.3000      -999.2500    -999.250000
       3196.50        66.3100         1.3000      -999.2500    -999.250000
