~Version Information Block
VERS .                  2.0:  CWLS LOG ASCII STANDARD - VERSION 2.0
WRAP .                   NO:  One line per depth step
~Well Information Block
#MNEM.UNIT        Data Type   Information
#---------- ----------------  -----------
STRT .FT             950.00:  START DEPTH
STOP .FT           11598.00:  STOP DEPTH
STEP .FT               0.50:  STEP
NULL .              -999.25:  NULL VALUE
COMP .                     :  COMPANY
WELL .          SA-32RD1ST1:  WELL
FLD  .                     :  FIELD
LOC  .                     :  LOCATION
CTRY .                     :  COUNTRY
STAT .                     :  STATE
CNTY .                     :  COUNTY
SRVC .                     :  SERVICE COMPANY
DATE .                     :  DATE
API  .                     :  API NUMBER
UWI  .                     :  UNIQUE WELL ID
~Curve Information Block
#MNEM.UNIT         API CODE   Curve Description
#---------- ----------------  -----------------
DEPTH.FT                   :  
GR   .GAPI                 :  Merged WIRE with WIRE_ST at 7550.00 F
RT   .OHMM                 :  Merged WIRE with WIRE_ST at 7550.00 F
RHOB .G/C3                 :  Merged WIRE with WIRE_ST at 7550.00 F
NPHI .V/V                  :  Merged WIRE with WIRE_ST at 7550.00 F
~Parameter Information Block
#MNEM.UNIT            Value   Description
#---------- ----------------  -----------
PROJECT.            SERANG_FE:  
~Other Information Block
# 
~A       DEPTH             GR             RT           RHOB           NPHI 
# ...
      10152.00        60.0100         2.1000         2.4500         0.3000
      10152.50        59.5600         2.1000         2.4800         0.2900
      10153.00        59.4700         2.1000         2.4500         0.2700
      10153.50        59.9200         1.9300         2.4200         0.2600
      10154.00        61.0100         1.9300         2.4200         0.2700
      10154.50        61.7400         1.9400         2.4300         0.3000
      10155.00        62.2000         1.9400         2.4300         0.3400
      10155.50        62.6500         1.8900         2.4300         0.3500
      10156.00        63.3800         1.8900         2.4300         0.3400
      10156.50        63.8300         1.8900         2.4100         0.3400
      10157.00        64.4700         1.8800         2.3900         0.3000
      10157.50        65.3800         1.8800         2.4000         0.3100
      10158.00        66.2900         1.8600         2.4200         0.3000
      10158.50        66.8300         1.8600         2.4300         0.3300
      10159.00        66.4700         1.8500         2.4400         0.3400
      10159.50        66.1100         1.8500         2.4300         0.3600
      10160.00        65.2000         1.8700         2.4400         0.3400
      10160.50        64.4700         1.8700         2.4400         0.3000
      10161.00        63.4700         1.8700         2.4600         0.2900
      10161.50        63.0100         1.8700         2.4300         0.3100
      10162.00        62.7400         1.8500         2.4100         0.3500
      10162.50        62.7400         1.8500         2.4000         0.3300
      10163.00        63.2900         1.8600         2.4400         0.3300
      10163.50        64.6500         1.8600         2.4500         0.3200
      10164.00        66.2000         1.8600         2.4100         0.3300
      10164.50        67.4700         1.8700         2.3900         0.3400
      10165.00        67.9200         1.8700         2.3700         0.3600
      10165.50        68.2000         1.8900         2.4100         0.3400
      10166.00        68.2000         1.8900         2.4000         0.3400
      10166.50        67.8300         1.8900         2.4100         0.3200
      10167.00        66.9200         1.8800         2.3800         0.3400
      10167.50        65.8300         1.8800         2.4000         0.3000
      10168.00        64.8300         1.8700         2.4100         0.3000
      10168.50        64.3800         1.8700         2.4200         0.2900
      10169.00        64.4700         1.8700         2.3900         0.3200
      10169.50        65.3800         1.8500         2.3900         0.3300
      10170.00        66.4700         1.8500         2.3600         0.3600
      10170.50        67.4700         1.9200         2.4000         0.3500
      10171.00        68.1100         1.9200         2.4200         0.3600
      10171.50        68.8300         1.9100         2.4400         0.3300
      10172.00        69.1100         1.9100         2.4300         0.3400
      10172.50        68.9200         1.9100         2.4100         0.3300
      10173.00        69.3800         1.9100         2.4100         0.3200
      10173.50        70.0200         1.9100         2.3900         0.3400
      10174.00        72.2900         1.8800         2.4100         0.3600
      10174.50        73.8400         1.8800         2.4000         0.3900
      10175.00        75.6500         1.8800         2.4100         0.3800
      10175.50        76.8400         1.8800         2.3900         0.3800
      10176.00        78.9300         1.8800         2.4100         0.3600
      10176.50        80.0200         1.8500         2.4200         0.3600
      10177.00        79.2900         1.8500         2.4300         0.3900
      10177.50        77.2900         1.9100         2.4400         0.3900
      10178.00        75.7400         1.9100         2.4200         0.3800
      10178.50        74.5600         1.8700         2.4200         0.3400
      10179.00        72.4700         1.8700         2.4100         0.3600
      10179.50        70.8300         1.8700         2.4300         0.3700
      10180.00        70.2000         1.9100         2.4400         0.3600
      10180.50        71.0200         1.9100         2.4200         0.3300
      10181.00        72.2000         1.8800         2.4200         0.3600
      10181.50        73.8300         1.8800         2.4300         0.3600
      10182.00        76.2000         1.8400         2.4400         0.3600
      10182.50        77.6500         1.8400         2.4100         0.3600
      10183.00        77.8300         1.8500         2.4100         0.3800
      10183.50        76.7400         1.8500         2.4100         0.3900
      10184.00        75.7400         1.8500         2.4400         0.4000
      10184.50        74.9200         1.7500         2.4300         0.4000
      10185.00        73.7400         1.7500         2.4300         0.4200
      10185.50        73.3800         1.8600         2.4500         0.4100
      10186.00        74.2000         1.8600         2.4600         0.4100
      10186.50        75.3800         1.7700         2.4600         0.4000
      10187.00        75.7400         1.7700         2.4400         0.4000
      10187.50        75.2900         1.7700         2.4500         0.3900
      10188.00        75.0200         1.7700         2.4400         0.4000
      10188.50        75.0200         1.8200         2.4500         0.4100
      10189.00        75.0200         1.8900         2.4300         0.4200
      10189.50        75.0200         1.8900         2.4300         0.3800
      10190.00        74.6500         1.8400         2.4300         0.3900
      10190.50        73.7400         1.8400         2.4100         0.3800
      10191.00        73.0200         1.9200         2.4200         0.4000
      10191.50        72.9300         1.9200         2.4400         0.3600
      10192.00        73.3800         1.9300         2.4800         0.3600
      10192.50        73.6500         1.9300         2.4900         0.4000
      10193.00        73.6500         1.8800         2.4600         0.3800
      10193.50        74.2000         1.8800         2.4400         0.4200
      10194.00        75.5600         1.8800         2.4300         0.3800
      10194.50        76.9300         1.8800         2.4200         0.4300
      10195.00        77.7400         1.8800         2.4300         0.3700
      10195.50        78.1100         1.9100         2.4700         0.4100
      10196.00        79.0200         1.9100         2.4600         0.4000
      10196.50        79.9300         1.8600         2.4500         0.4600
      10197.00        80.4700         1.8600         2.4200         0.4100
      10197.50        80.4700         1.7900         2.4100         0.4400
      10198.00        80.6500         1.7900         2.4200         0.4600
      10198.50        81.1100         1.7600         2.4200         0.5000
      10199.00        81.2000         1.7600         2.4200         0.4500
      10199.50        80.5600         1.7600         2.4100         0.4100
      10200.00        80.0200         1.7200         2.4000         0.3900
      10200.50        80.3800         1.7200         2.4200         0.4200
      10201.00        81.2900         1.7700         2.4400         0.4100
      10201.50        82.0200         1.7700         2.4200         0.5000
      10202.00        82.2000         1.7900         2.3900         0.4100
      10202.50        82.6500         1.7900         2.3900         0.4600
      10203.00        82.3800         1.7900         2.4200         0.3800
      10203.50        81.2900         1.7200         2.4400         0.4400
      10204.00        80.1100         1.7200         2.4400         0.4100
      10204.50        79.7400         1.7800         2.4200         0.4300
      10205.00        79.8400         1.7800         2.3900         0.4200
