~Version Information Block
VERS .                  2.0:  CWLS LOG ASCII STANDARD - VERSION 2.0
WRAP .                   NO:  One line per depth step
~Well Information Block
#MNEM.UNIT        Data Type   Information
#---------- ----------------  -----------
STRT .FT             410.50:  START DEPTH
STOP .FT           11980.00:  STOP DEPTH
STEP .FT               0.50:  STEP
NULL .              -999.25:  NULL VALUE
COMP .                     :  COMPANY
WELL .             SA-35ST1:  WELL
FLD  .                     :  FIELD
LOC  .                     :  LOCATION
CTRY .                     :  COUNTRY
STAT .                     :  STATE
CNTY .                     :  COUNTY
SRVC .                     :  SERVICE COMPANY
DATE .                     :  DATE
API  .                     :  API NUMBER
UWI  .                     :  UNIQUE WELL ID
~Curve Information Block
#MNEM.UNIT         API CODE   Curve Description
#---------- ----------------  -----------------
DEPTH.FT                   :  
GR   .GAPI                 :  Merged WIRE with WIRE_ST at 6750.00 F
RT   .OHMM                 :  Merged WIRE with WIRE_ST at 6750.00 F
RHOB .G/C3                 :  Merged WIRE with WIRE_ST at 6750.00 F
NPHI .V/V                  :  Merged WIRE with WIRE_ST at 6750.00 F
~Parameter Information Block
#MNEM.UNIT            Value   Description
#---------- ----------------  -----------
PROJECT.            SERANG_FE:  
~Other Information Block
# 
~A       DEPTH             GR             RT           RHOB           NPHI 
# ...
       3460.00        74.2769         1.9054         2.2783       0.445100
       3460.50        73.3438         1.9172         2.2850       0.423900
       3461.00        72.9750         1.9333         2.2831       0.413400
       3461.50        72.9100         1.9520         2.2784       0.412000
       3462.00        72.9100         1.9689         2.2734       0.416300
       3462.50        72.9100         1.9746         2.2680       0.426000
       3463.00        72.9531         1.9733         2.2604       0.445600
       3463.50        73.2344         1.9593         2.2517       0.477900
       3464.00        74.0362         1.9387         2.2450       0.516100
       3464.50        75.3594         1.9182         2.2425       0.542600
       3465.00        76.7919         1.9103         2.2448       0.539400
       3465.50        77.9431         1.9112         2.2505       0.509900
       3466.00        78.8556         1.9169         2.2557       0.480600
       3466.50        79.8538         1.9146         2.2584       0.468600
       3467.00        81.0456         1.9048         2.2599       0.466900
       3467.50        82.1719         1.8968         2.2620       0.464800
       3468.00        82.8869         1.8983         2.2657       0.458600
       3468.50        82.9088         1.9069         2.2706       0.450200
       3469.00        82.1937         1.9179         2.2750       0.444300
       3469.50        80.8275         1.9340         2.2776       0.444700
       3470.00        79.1575         1.9444         2.2791       0.456500
       3470.50        77.4225         1.9332         2.2815       0.479600
       3471.00        75.7306         1.8919         2.2851       0.503100
       3471.50        74.2331         1.8719         2.2876       0.511600
       3472.00        73.0600         1.8832         2.2869       0.505600
       3472.50        72.1038         1.9072         2.2816       0.493900
       3473.00        71.3012         1.9255         2.2707       0.491400
       3473.50        71.0212         1.9368         2.2606       0.491200
       3474.00        71.4344         1.9458         2.2563       0.478900
       3474.50        72.9094         1.9546         2.2573       0.455600
       3475.00        74.6881         1.9583         2.2601       0.444600
       3475.50        75.8163         1.9629         2.2620       0.456700
       3476.00        76.0762         1.9627         2.2613       0.479300
       3476.50        76.0750         1.9729         2.2555       0.488800
       3477.00        76.3131         1.9813         2.2448       0.476600
       3477.50        77.0300         1.9857         2.2347       0.460400
       3478.00        77.7269         1.9783         2.2285       0.459800
       3478.50        78.0544         1.9774         2.2243       0.480600
       3479.00        78.1200         1.9845         2.2232       0.500700
       3479.50        78.1200         2.0013         2.2292       0.507900
       3480.00        78.0762         2.0179         2.2452       0.506700
       3480.50        77.7931         2.0260         2.2647       0.498100
       3481.00        76.9894         2.0219         2.2772       0.485000
       3481.50        75.6656         2.0052         2.2769       0.481500
       3482.00        74.3631         1.9825         2.2632       0.487400
       3482.50        73.8412         1.9649         2.2456       0.494800
       3483.00        74.1444         1.9620         2.2327       0.493800
       3483.50        75.4025         1.9687         2.2269       0.485700
       3484.00        77.0731         1.9785         2.2250       0.478900
       3484.50        78.7669         1.9920         2.2245       0.479800
       3485.00        80.1350         2.0150         2.2272       0.492100
       3485.50        80.6550         2.0296         2.2310       0.513600
       3486.00        80.3944         2.0481         2.2334       0.528300
       3486.50        79.4194         2.0593         2.2302       0.518100
       3487.00        78.5531         2.0835         2.2221       0.484400
       3487.50        78.1850         2.0927         2.2136       0.455200
       3488.00        78.1200         2.0913         2.2052       0.458300
       3488.50        78.1200         2.0715         2.1930       0.492100
       3489.00        78.1200         2.0448         2.1788       0.534900
       3489.50        78.1200         2.0232         2.1737       0.562700
       3490.00        78.0762         2.0085         2.1877       0.577900
       3490.50        77.7494         1.9886         2.2128       0.588800
       3491.00        76.6625         1.9458         2.2291       0.591800
       3491.50        74.5788         1.8772         2.2299       0.581300
       3492.00        72.1925         1.8130         2.2215       0.560400
       3492.50        70.7394         1.7813         2.2176       0.540500
       3493.00        70.6963         1.7725         2.2253       0.528000
       3493.50        71.6081         1.7713         2.2427       0.513600
       3494.00        72.4762         1.7845         2.2527       0.489100
       3494.50        72.8450         1.8433         2.2481       0.458800
       3495.00        73.0619         1.9605         2.2405       0.434700
       3495.50        73.9300         2.1550         2.2424       0.423600
       3496.00        76.2956         2.4519         2.2500       0.422000
       3496.50        80.5488         2.8365         2.2489       0.424100
       3497.00        86.3419         3.2568         2.2247       0.426600
       3497.50        92.6550         3.6128         2.1717       0.429600
       3498.00        98.1650         3.7919         2.0962       0.430700
       3498.50       101.8544         3.7983         2.0250       0.429900
       3499.00       103.5931         3.7140         1.9901       0.426500
       3499.50       104.0944         3.6211         1.9996       0.414100
       3500.00       104.2031         3.5582         2.0343       0.395200
       3500.50       104.4406         3.5457         2.0684       0.379800
       3501.00       104.9594         3.5731         2.0857       0.376800
       3501.50       105.5219         3.6210         2.0856       0.386300
       3502.00       105.8250         3.6207         2.0741       0.403600
       3502.50       105.8900         3.5806         2.0580       0.423400
       3503.00       105.8031         3.5354         2.0446       0.440800
       3503.50       105.2825         3.4814         2.0397       0.448400
       3504.00       103.9162         3.4011         2.0443       0.443300
       3504.50       101.7031         3.3139         2.0568       0.428200
       3505.00        98.9681         3.2443         2.0758       0.415400
       3505.50        96.1256         3.1942         2.0992       0.418000
       3506.00        93.8044         3.1481         2.1246       0.436000
       3506.50        92.4581         3.0955         2.1496       0.458000
       3507.00        91.7412         3.0351         2.1735       0.467000
       3507.50        90.8737         2.9724         2.1955       0.465500
       3508.00        89.4644         2.9293         2.2137       0.456400
       3508.50        87.5131         2.9317         2.2238       0.444400
       3509.00        84.9756         2.9460         2.2237       0.432900
       3509.50        81.8719         2.9235         2.2156       0.424800
       3510.00        78.4200         2.8335         2.2067       0.422300
       3510.50        74.7094         2.7404         2.2018       0.423600
       3511.00        70.7175         2.7140         2.1990       0.426800
       3511.50        66.7681         2.7375         2.1936       0.423700
       3512.00        63.5569         2.7754         2.1829       0.411300
       3512.50        61.6700         2.7686         2.1700       0.397400
       3513.00        61.2575         2.7329         2.1656       0.389600
