~Version Information Block
VERS .                  2.0:  CWLS LOG ASCII STANDARD - VERSION 2.0
WRAP .                   NO:  One line per depth step
~Well Information Block
#MNEM.UNIT        Data Type   Information
#---------- ----------------  -----------
STRT .FT             410.50:  START DEPTH
STOP .FT           11980.00:  STOP DEPTH
STEP .FT               0.50:  STEP
NULL .              -999.25:  NULL VALUE
COMP .                     :  COMPANY
WELL .             SA-35ST1:  WELL
FLD  .                     :  FIELD
LOC  .                     :  LOCATION
CTRY .                     :  COUNTRY
STAT .                     :  STATE
CNTY .                     :  COUNTY
SRVC .                     :  SERVICE COMPANY
DATE .                     :  DATE
API  .                     :  API NUMBER
UWI  .                     :  UNIQUE WELL ID
~Curve Information Block
#MNEM.UNIT         API CODE   Curve Description
#---------- ----------------  -----------------
DEPTH.FT                   :  
GR   .GAPI                 :  Merged WIRE with WIRE_ST at 6750.00 F
RT   .OHMM                 :  Merged WIRE with WIRE_ST at 6750.00 F
RHOB .G/C3                 :  Merged WIRE with WIRE_ST at 6750.00 F
NPHI .V/V                  :  Merged WIRE with WIRE_ST at 6750.00 F
~Parameter Information Block
#MNEM.UNIT            Value   Description
#---------- ----------------  -----------
PROJECT.            SERANG_FE:  
~Other Information Block
# 
~A       DEPTH             GR             RT           RHOB           NPHI 
# ...
       6991.00        38.0400         0.7900         2.1300       0.360000
       6991.50        38.0400         0.9302         2.1300       0.360000
       6992.00        43.3500         1.2300         2.1268       0.360000
       6992.50        48.6700         1.2300         2.1330       0.380500
       6993.00        53.9900         1.2300         2.1762       0.397100
       6993.50        53.9900         1.2300         2.2327       0.363100
       6994.00        53.9900         1.2653         2.2800       0.311700
       6994.50        57.2600         1.3400         2.2963       0.292100
       6995.00        60.5300         1.3400         2.3463       0.298200
       6995.50        63.8000         1.3400         2.3963       0.300000
       6996.00        63.8000         1.3400         2.4300       0.300000
       6996.50        63.8000         1.2691         2.4300       0.318000
       6997.00        63.8000         1.1200         2.4300       0.338600
       6997.50        63.8000         1.1200         2.4365       0.359100
       6998.00        66.6600         1.1200         2.4402       0.350200
       6998.50        69.5300         1.1200         2.4135       0.350300
       6999.00        72.3900         1.1200         2.3836       0.380800
       6999.50        72.3900         1.1751         2.3533       0.401300
       7000.00        72.3900         1.2900         2.3698       0.419100
       7000.50        72.3900         1.2900         2.3900       0.410000
       7001.00        72.3900         1.2900         2.3900       0.418900
       7001.50        81.8000         1.2900         2.3900       0.475200
       7002.00        91.2000         1.5671         2.3768       0.506100
       7002.50       100.6100         2.1400         2.3401       0.522400
       7003.00       100.6100         2.1400         2.3134       0.490000
       7003.50       100.6100         2.1400         2.3000       0.490000
       7004.00       100.6100         2.1400         2.3000       0.474800
       7004.50       100.6100         2.1400         2.2834       0.482400
       7005.00       110.0200         2.1400         2.2401       0.494800
       7005.50       119.4200         1.7298         2.2134       0.506700
       7006.00       128.8300         0.8900         2.2000       0.520000
       7006.50       135.7800         0.8900         2.1667       0.521000
       7007.00       142.7300         0.8900         2.1000       0.538100
       7007.50       149.6900         0.8900         2.1054       0.540000
       7008.00       150.1000         0.8900         2.1800       0.533800
       7008.50       150.5000         0.8900         2.1800       0.520500
       7009.00       150.9100         0.9032         2.1800       0.513300
       7009.50       150.9100         0.9300         2.1484       0.523800
       7010.00       150.9100         0.9300         2.1046       0.540500
       7010.50       143.9600         0.9300         2.1000       0.549700
       7011.00       137.0100         0.9300         2.1499       0.512700
       7011.50       130.0600         0.9300         2.2098       0.492100
       7012.00       130.0600         0.8104         2.2299       0.472900
       7012.50       130.0600         0.5700         2.2201       0.461900
       7013.00       120.2400         0.5700         2.2399       0.444500
       7013.50       110.4200         0.7167         2.2995       0.418000
       7014.00       100.6100         1.0100         2.3396       0.416900
       7014.50       100.6100         1.0100         2.3697       0.459200
       7015.00       100.6100         1.0100         2.3898       0.498400
       7015.50       100.6100         1.1270         2.4097       0.527200
       7016.00       100.6100         1.3600         2.4100       0.478800
       7016.50        91.2000         1.3466         2.4100       0.413200
       7017.00        81.8000         1.3200         2.4100       0.394400
       7017.50        72.3900         1.3234         2.4100       0.406900
       7018.00        72.3900         1.3300         2.4492       0.397300
       7018.50        70.7500         1.3300         2.4010       0.357200
       7019.00        69.1200         1.3300         2.3707       0.322800
       7019.50        67.4800         1.3300         2.3212       0.310000
       7020.00        67.4800         1.3300         2.3395       0.310000
       7020.50        67.4800         1.2996         2.3595       0.310000
       7021.00        67.4800         1.2400         2.3795       0.315800
       7021.50        67.4800         1.2400         2.3606       0.325900
       7022.00        72.8000         1.2400         2.3406       0.341700
       7022.50        78.1200         1.2400         2.3206       0.344100
       7023.00        83.4300         1.2400         2.3200       0.340000
       7023.50        76.0700         1.2400         2.3200       0.340000
       7024.00        68.7100         1.2672         2.3103       0.340000
       7024.50        61.3500         1.3200         2.3100       0.346000
       7025.00        61.3500         1.3200         2.3196       0.350000
       7025.50        61.3500         1.3200         2.3296       0.337900
       7026.00        60.5300         1.3610         2.3300       0.323900
       7026.50        59.7100         1.4400         2.3108       0.313900
       7027.00        58.8900         1.4400         2.3004       0.310000
       7027.50        58.8900         1.4400         2.2904       0.316200
       7028.00        58.8900         1.4400         2.3091       0.320000
       7028.50        58.8900         1.4400         2.3291       0.326200
       7029.00        58.0800         1.4400         2.3490       0.330000
       7029.50        57.2600         1.4331         2.3405       0.330000
       7030.00        56.4400         1.4200         2.3400       0.336300
       7030.50        56.4400         1.4372         2.3305       0.340000
       7031.00        58.0800         1.4700         2.3395       0.340000
       7031.50        59.7100         1.4700         2.3589       0.340000
       7032.00        61.3500         1.4700         2.3695       0.340000
       7032.50        61.3500         1.4700         2.3700       0.333600
       7033.00        61.3500         1.4700         2.3606       0.323600
       7033.50        61.3500         1.4735         2.3412       0.320000
       7034.00        62.9800         1.4800         2.3118       0.320000
       7034.50        64.6200         1.4800         2.2912       0.320000
       7035.00        66.2500         1.4800         2.2900       0.333100
       7035.50        66.2500         1.4800         2.2900       0.346500
       7036.00        65.8500         1.4835         2.3274       0.363200
       7036.50        65.4400         1.4900         2.3673       0.370000
       7037.00        65.0300         1.4900         2.4073       0.370000
       7037.50        65.4400         1.4900         2.4100       0.376700
       7038.00        66.2500         1.4900         2.4100       0.380000
       7038.50        67.0700         1.4586         2.4007       0.386700
       7039.00        67.4800         1.4000         2.3907       0.390000
       7039.50        67.0700         1.4000         2.3807       0.390000
       7040.00        66.6600         1.4000         2.3800       0.390000
       7040.50        66.2500         1.4000         2.3800       0.383200
       7041.00        66.2500         1.4000         2.3984       0.380000
       7041.50        65.0300         1.4562         2.4092       0.373100
       7042.00        63.8000         1.5600         2.4284       0.370000
       7042.50        62.5700         1.5600         2.4300       0.370000
       7043.00        62.5700         1.5600         2.4300       0.370000
       7043.50        62.9800         1.5671         2.4117       0.370000
       7044.00        63.3900         1.5800         2.4009       0.377000
