~Version Information Block
VERS .                  2.0:  CWLS LOG ASCII STANDARD - VERSION 2.0
WRAP .                   NO:  One line per depth step
~Well Information Block
#MNEM.UNIT        Data Type   Information
#---------- ----------------  -----------
STRT .FT             950.00:  START DEPTH
STOP .FT           11637.50:  STOP DEPTH
STEP .FT               0.50:  STEP
NULL .              -999.25:  NULL VALUE
COMP .                     :  COMPANY
WELL .                SA-32:  WELL
FLD  .                     :  FIELD
LOC  .                     :  LOCATION
CTRY .                     :  COUNTRY
STAT .                     :  STATE
CNTY .                     :  COUNTY
SRVC .                     :  SERVICE COMPANY
DATE .                     :  DATE
API  .                     :  API NUMBER
UWI  .                     :  UNIQUE WELL ID
~Curve Information Block
#MNEM.UNIT         API CODE   Curve Description
#---------- ----------------  -----------------
DEPTH.FT                   :  DEPTH
GR   .GAPI                 :  Gamma Ray
RT   .OHMM                 :  Deep resistivity
RHOB .G/C3                 :  Bulk density
NPHI .V/V                  :  NEUT*100
~Parameter Information Block
#MNEM.UNIT            Value   Description
#---------- ----------------  -----------
PROJECT.            SERANG_FE:  
~Other Information Block
# 
~A       DEPTH             GR             RT           RHOB           NPHI 
# ...
       9456.50        98.4950         3.4300         2.5100       0.320000
       9457.00       100.6720         3.4600         2.5400       0.330000
       9457.50       105.0300         3.5300         2.5700       0.320000
       9458.00       108.9510         3.5000         2.5900       0.320000
       9458.50       110.6970         3.4700         2.6100       0.310000
       9459.00       109.8240         3.2400         2.6200       0.320000
       9459.50       107.6450         3.2500         2.6100       0.320000
       9460.00       105.9020         3.2500         2.5900       0.330000
       9460.50       103.7230         3.1900         2.5900       0.340000
       9461.00       101.9800         3.0500         2.5900       0.340000
       9461.50        98.9300         3.0400         2.5700       0.350000
       9462.00        96.7510         3.1700         2.5400       0.350000
       9462.50        93.7010         3.0100         2.5400       0.340000
       9463.00        93.2650         2.9200         2.5600       0.340000
       9463.50        93.6990         3.3400         2.5800       0.330000
       9464.00        97.1840         3.3600         2.6000       0.320000
       9464.50        98.4920         3.3300         2.6100       0.320000
       9465.00        97.6210         3.6100         2.5900       0.320000
       9465.50        95.4420         4.0900         2.5500       0.320000
       9466.00        95.0050         4.2700         2.5600       0.310000
       9466.50        93.2650         3.9400         2.6000       0.300000
       9467.00        89.7760         4.7200         2.6000       0.290000
       9467.50        87.1630         5.6700         2.6000       0.280000
       9468.00        84.5440         6.1300         2.6100       0.270000
       9468.50        79.7520         6.1000         2.6300       0.250000
       9469.00        72.3450         7.2100         2.6600       0.250000
       9469.50        66.6810        10.5000         2.6600       0.230000
       9470.00        63.1940         9.5100         2.7400       0.230000
       9470.50        60.1250         9.2900         2.8200       0.200000
       9471.00        57.7140         9.8900         2.7100       0.200000
       9471.50        57.6300         9.5600         2.7000       0.170000
       9472.00        57.6300         7.9100         2.6200       0.170000
       9472.50        58.5590         7.0500         2.7000       0.160000
       9473.00        60.1650         6.8600         2.6400       0.160000
       9473.50        61.0940         6.4200         2.6600       0.160000
       9474.00        59.3200         6.8700         2.6500       0.150000
       9474.50        57.2070         6.9600         2.6500       0.150000
       9475.00        55.7710         7.4700         2.5900       0.150000
       9475.50        55.7710         7.2600         2.5700       0.160000
       9476.00        55.4330         6.9900         2.5500       0.160000
       9476.50        54.3340         6.7900         2.5500       0.160000
       9477.00        52.6440         6.5600         2.5700       0.170000
       9477.50        51.2920         6.1200         2.5800       0.180000
       9478.00        50.3630         5.8400         2.5800       0.180000
       9478.50        49.6020         5.3800         2.5700       0.180000
       9479.00        48.7570         5.4700         2.5500       0.180000
       9479.50        48.5880         5.3200         2.5400       0.180000
       9480.00        49.7710         5.4700         2.5100       0.180000
       9480.50        51.0390         5.4700         2.5000       0.170000
       9481.00        51.9680         5.1100         2.4800       0.170000
       9481.50        52.3060         5.2200         2.4900       0.170000
       9482.00        53.0660         5.5100         2.5200       0.180000
       9482.50        53.5730         5.2600         2.5700       0.190000
       9483.00        54.0800         5.2600         2.5700       0.180000
       9483.50        53.8270         5.0300         2.5400       0.170000
       9484.00        54.0810         4.7700         2.5600       0.160000
       9484.50        54.4190         4.8700         2.6100       0.160000
       9485.00        56.1930         4.8800         2.6400       0.150000
       9485.50        57.7140         4.7700         2.6500       0.150000
       9486.00        59.0660         5.0300         2.5600       0.160000
       9486.50        59.9960         5.0300         2.5200       0.180000
       9487.00        62.1080         4.7400         2.4800       0.190000
       9487.50        63.5450         4.4500         2.4900       0.200000
       9488.00        63.1230         4.6800         2.4900       0.210000
       9488.50        60.4190         4.5400         2.5000       0.230000
       9489.00        58.1370         4.5300         2.5100       0.240000
       9489.50        56.3620         4.5300         2.5000       0.240000
       9490.00        55.1790         4.7200         2.5300       0.230000
       9490.50        52.8980         4.5000         2.5600       0.220000
       9491.00        51.7150         4.4600         2.5800       0.220000
       9491.50        50.3630         4.6700         2.5500       0.220000
       9492.00        50.1090         4.6000         2.5000       0.210000
       9492.50        49.4330         4.3100         2.5100       0.210000
       9493.00        49.4330         4.3700         2.4400       0.210000
       9493.50        49.4330         4.0800         2.4900       0.210000
       9494.00        49.0950         4.2600         2.4600       0.200000
       9494.50        49.0950         4.2500         2.5500       0.200000
       9495.00        50.1090         4.2500         2.5000       0.200000
       9495.50        51.4610         4.1500         2.5300       0.190000
       9496.00        53.4040         4.0900         2.5100       0.190000
       9496.50        54.5030         4.0600         2.6000       0.200000
       9497.00        54.2500         4.1300         2.5700       0.220000
       9497.50        53.0670         4.1300         2.6000       0.230000
       9498.00        51.7990         4.0200         2.5700       0.230000
       9498.50        51.5460         3.9600         2.6200       0.220000
       9499.00        51.2920         3.9800         2.5400       0.220000
       9499.50        51.2080         4.1000         2.5500       0.220000
       9500.00        51.5460         4.1300         2.5200       0.220000
       9500.50        51.8840         3.9900         2.5800       0.220000
       9501.00        52.3060         3.9900         2.5700       0.210000
       9501.50        52.6440         3.9400         2.5900       0.210000
       9502.00        53.0670         3.9400         2.5700       0.200000
       9502.50        53.1510         3.9200         2.5700       0.200000
       9503.00        53.2360         3.9100         2.5500       0.200000
       9503.50        53.5740         3.9100         2.5300       0.200000
       9504.00        53.9960         3.9100         2.4800       0.200000
       9504.50        54.7570         3.8900         2.4900       0.210000
       9505.00        55.1790         3.9200         2.5300       0.220000
       9505.50        55.1790         3.9200         2.5600       0.220000
       9506.00        54.5030         3.9700         2.5600       0.220000
       9506.50        53.8270         4.0000         2.5700       0.210000
       9507.00        52.7290         4.0000         2.5800       0.210000
       9507.50        51.4610         4.0200         2.6100       0.210000
       9508.00        50.1940         3.8400         2.5400       0.210000
       9508.50        49.9410         3.8400         2.5500       0.210000
       9509.00        49.8560         3.8100         2.5100       0.210000
       9509.50        50.7850         4.1000         2.5900       0.210000
