~Version Information Block
VERS .                  2.0:  CWLS LOG ASCII STANDARD - VERSION 2.0
WRAP .                   NO:  One line per depth step
~Well Information Block
#MNEM.UNIT        Data Type   Information
#---------- ----------------  -----------
STRT .FT             950.00:  START DEPTH
STOP .FT           11598.00:  STOP DEPTH
STEP .FT               0.50:  STEP
NULL .              -999.25:  NULL VALUE
COMP .                     :  COMPANY
WELL .          SA-32RD1ST1:  WELL
FLD  .                     :  FIELD
LOC  .                     :  LOCATION
CTRY .                     :  COUNTRY
STAT .                     :  STATE
CNTY .                     :  COUNTY
SRVC .                     :  SERVICE COMPANY
DATE .                     :  DATE
API  .                     :  API NUMBER
UWI  .                     :  UNIQUE WELL ID
~Curve Information Block
#MNEM.UNIT         API CODE   Curve Description
#---------- ----------------  -----------------
DEPTH.FT                   :  
GR   .GAPI                 :  Merged WIRE with WIRE_ST at 7550.00 F
RT   .OHMM                 :  Merged WIRE with WIRE_ST at 7550.00 F
RHOB .G/C3                 :  Merged WIRE with WIRE_ST at 7550.00 F
NPHI .V/V                  :  Merged WIRE with WIRE_ST at 7550.00 F
~Parameter Information Block
#MNEM.UNIT            Value   Description
#---------- ----------------  -----------
PROJECT.            SERANG_FE:  
~Other Information Block
# 
~A       DEPTH             GR             RT           RHOB           NPHI 
# ...
       1699.00        65.2400         1.4000      -999.2500      -999.2500
       1699.50        67.0300         1.4020      -999.2500      -999.2500
       1700.00        68.8300         1.4390      -999.2500      -999.2500
       1700.50        69.1800         1.4100      -999.2500      -999.2500
       1701.00        67.3900         1.4000      -999.2500      -999.2500
       1701.50        65.6000         1.3900      -999.2500      -999.2500
       1702.00        64.5200         1.3900      -999.2500      -999.2500
       1702.50        64.5200         1.3990      -999.2500      -999.2500
       1703.00        64.5200         1.3810      -999.2500      -999.2500
       1703.50        64.5200         1.3990      -999.2500      -999.2500
       1704.00        64.5200         1.3700      -999.2500      -999.2500
       1704.50        64.5200         1.3800      -999.2500      -999.2500
       1705.00        63.8100         1.3800      -999.2500      -999.2500
       1705.50        62.0100         1.3820      -999.2500      -999.2500
       1706.00        60.2200         1.4200      -999.2500      -999.2500
       1706.50        59.1500         1.4100      -999.2500      -999.2500
       1707.00        60.9400         1.3970      -999.2500      -999.2500
       1707.50        62.7300         1.3400      -999.2500      -999.2500
       1708.00        64.5200         1.3330      -999.2500      -999.2500
       1708.50        65.2400         1.3900      -999.2500      -999.2500
       1709.00        65.2400         1.3800      -999.2500      -999.2500
       1709.50        63.4500         1.3810      -999.2500      -999.2500
       1710.00        61.6600         1.3940      -999.2500      -999.2500
       1710.50        62.3700         1.2860      -999.2500      -999.2500
       1711.00        65.9600         1.4010      -999.2500      -999.2500
       1711.50        68.8300         1.2390      -999.2500      -999.2500
       1712.00        69.9000         1.4160      -999.2500      -999.2500
       1712.50        69.1900         1.3320      -999.2500      -999.2500
       1713.00        66.6800         1.3810      -999.2500      -999.2500
       1713.50        63.0900         1.4000      -999.2500      -999.2500
       1714.00        60.2200         1.3900      -999.2500      -999.2500
       1714.50        58.4300         1.4010      -999.2500      -999.2500
       1715.00        56.6400         1.4200      -999.2500      -999.2500
       1715.50        54.8500         1.4280      -999.2500      -999.2500
       1716.00        55.5600         1.3800      -999.2500      -999.2500
       1716.50        57.3500         1.3800      -999.2500      -999.2500
       1717.00        59.1500         1.3690      -999.2500      -999.2500
       1717.50        59.8600         1.3510      -999.2500      -999.2500
       1718.00        61.6600         1.3690      -999.2500      -999.2500
       1718.50        64.1600         1.3500      -999.2500      -999.2500
       1719.00        67.0300         1.3390      -999.2500      -999.2500
       1719.50        68.8200         1.3090      -999.2500      -999.2500
       1720.00        69.9000         1.2810      -999.2500      -999.2500
       1720.50        69.9000         1.3090      -999.2500      -999.2500
       1721.00        69.9000         1.2810      -999.2500      -999.2500
       1721.50        70.6200         1.3090      -999.2500      -999.2500
       1722.00        70.6200         1.2800      -999.2500      -999.2500
       1722.50        71.3300         1.2800      -999.2500      -999.2500
       1723.00        72.4100         1.2710      -999.2500      -999.2500
       1723.50        74.2000         1.2900      -999.2500      -999.2500
       1724.00        74.5600         1.2790      -999.2500      -999.2500
       1724.50        72.7700         1.2600      -999.2500      -999.2500
       1725.00        69.1900         1.2700      -999.2500      -999.2500
       1725.50        67.0300         1.2610      -999.2500      -999.2500
       1726.00        67.7500         1.2800      -999.2500      -999.2500
       1726.50        70.6200         1.2710      -999.2500      -999.2500
       1727.00        71.6900         1.2900      -999.2500      -999.2500
       1727.50        70.9800         1.2990      -999.2500      -999.2500
       1728.00        69.9000         1.2720      -999.2500      -999.2500
       1728.50        68.8300         1.3120      -999.2500      -999.2500
       1729.00        69.5400         1.3510      -999.2500      -999.2500
       1729.50        71.3300         1.3690      -999.2500      -999.2500
       1730.00        74.2000         1.3520      -999.2500      -999.2500
       1730.50        75.9900         1.3910      -999.2500      -999.2500
       1731.00        77.0700         1.4100      -999.2500      -999.2500
       1731.50        76.3600         1.4000      -999.2500      -999.2500
       1732.00        74.5600         1.3990      -999.2500      -999.2500
       1732.50        71.6900         1.3690      -999.2500      -999.2500
       1733.00        70.6200         1.3590      -999.2500      -999.2500
       1733.50        70.9800         1.3490      -999.2500      -999.2500
       1734.00        70.9800         1.3220      -999.2500      -999.2500
       1734.50        70.9800         1.3610      -999.2500      -999.2500
       1735.00        69.9000         1.3690      -999.2500      -999.2500
       1735.50        68.1100         1.3490      -999.2500      -999.2500
       1736.00        67.0300         1.3210      -999.2500      -999.2500
       1736.50        67.0300         1.3490      -999.2500      -999.2500
       1737.00        69.5400         1.3330      -999.2500      -999.2500
       1737.50        72.4100         1.3890      -999.2500      -999.2500
       1738.00        74.2000         1.3590      -999.2500      -999.2500
       1738.50        75.2800         1.3500      -999.2500      -999.2500
       1739.00        74.5600         1.3490      -999.2500      -999.2500
       1739.50        71.6900         1.3280      -999.2500      -999.2500
       1740.00        69.1800         1.3020      -999.2500      -999.2500
       1740.50        67.0300         1.3290      -999.2500      -999.2500
       1741.00        68.1100         1.3190      -999.2500      -999.2500
       1741.50        68.8300         1.3070      -999.2500      -999.2500
       1742.00        70.9800         1.2620      -999.2500      -999.2500
       1742.50        70.2600         1.2900      -999.2500      -999.2500
       1743.00        70.2600         1.2980      -999.2500      -999.2500
       1743.50        69.1800         1.2600      -999.2500      -999.2500
       1744.00        69.9000         1.2610      -999.2500      -999.2500
       1744.50        71.6900         1.2700      -999.2500      -999.2500
       1745.00        73.4900         1.2710      -999.2500      -999.2500
       1745.50        75.2800         1.2790      -999.2500      -999.2500
       1746.00        75.2800         1.2600      -999.2500      -999.2500
       1746.50        75.2800         1.2610      -999.2500      -999.2500
       1747.00        71.6900         1.2760      -999.2500      -999.2500
       1747.50        68.1100         1.2110      -999.2500      -999.2500
       1748.00        67.0300         1.2230      -999.2500      -999.2500
       1748.50        68.8200         1.2710      -999.2500      -999.2500
       1749.00        69.9000         1.2920      -999.2500      -999.2500
       1749.50        69.1800         1.3210      -999.2500      -999.2500
       1750.00        68.1100         1.3300      -999.2500      -999.2500
       1750.50        67.7500         1.3270      -999.2500      -999.2500
       1751.00        67.7500         1.2690      -999.2500      -999.2500
       1751.50        69.5400         1.2490      -999.2500      -999.2500
       1752.00        71.3300         1.2400      -999.2500      -999.2500
