~Version Information Block
VERS .                  2.0:  CWLS LOG ASCII STANDARD - VERSION 2.0
WRAP .                   NO:  One line per depth step
~Well Information Block
#MNEM.UNIT        Data Type   Information
#---------- ----------------  -----------
STRT .FT             950.00:  START DEPTH
STOP .FT           11598.00:  STOP DEPTH
STEP .FT               0.50:  STEP
NULL .              -999.25:  NULL VALUE
COMP .                     :  COMPANY
WELL .          SA-32RD1ST1:  WELL
FLD  .                     :  FIELD
LOC  .                     :  LOCATION
CTRY .                     :  COUNTRY
STAT .                     :  STATE
CNTY .                     :  COUNTY
SRVC .                     :  SERVICE COMPANY
DATE .                     :  DATE
API  .                     :  API NUMBER
UWI  .                     :  UNIQUE WELL ID
~Curve Information Block
#MNEM.UNIT         API CODE   Curve Description
#---------- ----------------  -----------------
DEPTH.FT                   :  
GR   .GAPI                 :  Merged WIRE with WIRE_ST at 7550.00 F
RT   .OHMM                 :  Merged WIRE with WIRE_ST at 7550.00 F
RHOB .G/C3                 :  Merged WIRE with WIRE_ST at 7550.00 F
NPHI .V/V                  :  Merged WIRE with WIRE_ST at 7550.00 F
~Parameter Information Block
#MNEM.UNIT            Value   Description
#---------- ----------------  -----------
PROJECT.            SERANG_FE:  
~Other Information Block
# 
~A       DEPTH             GR             RT           RHOB           NPHI 
# ...
       5925.50        37.4600         1.0500         2.0300         0.3900
       5926.00        42.6900         1.0300         1.9900         0.3700
       5926.50        44.0100         1.0300         2.0500         0.4100
       5927.00        45.3300         1.0200         2.1700         0.3800
       5927.50        45.3300         1.0200         2.2600         0.4200
       5928.00        46.7700         1.0200         2.2700         0.3300
       5928.50        48.2000         1.0400         2.2400         0.3200
       5929.00        48.8200         1.0400         2.1900         0.3100
       5929.50        48.0100         0.9800         2.1300         0.3700
       5930.00        46.5100         0.9800         2.0800         0.3200
       5930.50        45.8100         1.0200         2.0800         0.3500
       5931.00        42.0300         1.0200         2.1000         0.3700
       5931.50        38.9500         0.9600         2.1100         0.4000
       5932.00        34.4700         0.9600         2.1200         0.3500
       5932.50        33.0800         0.9300         2.0900         0.3200
       5933.00        31.6700         0.9300         2.0700         0.3100
       5933.50        31.6600         0.9300         2.0800         0.3200
       5934.00        30.2800         0.9300         2.0600         0.3200
       5934.50        28.9100         0.8900         2.0700         0.3400
       5935.00        26.6700         0.8900         2.0300         0.3400
       5935.50        25.8000         0.8400         2.0500         0.3700
       5936.00        23.1600         0.8400         2.0200         0.3500
       5936.50        20.1900         0.8400         2.0000         0.3400
       5937.00        17.2300         0.8400         1.9700         0.3400
       5937.50        15.0900         0.8400         1.9900         0.3800
       5938.00        14.1500         0.8400         2.0300         0.3900
       5938.50        13.2600         0.8400         2.0700         0.4000
       5939.00        13.3200         0.8400         2.0800         0.4200
       5939.50        13.3700         0.8400         2.0500         0.3700
       5940.00        13.3700         0.8400         2.0200         0.3500
       5940.50        12.6900         0.8400         2.0000         0.3500
       5941.00        12.0100         0.8600         2.0000         0.4100
       5941.50        11.6400         0.8600         2.0200         0.4800
       5942.00        11.9400         0.8700         2.0200         0.4700
       5942.50        12.5600         0.8700         2.0400         0.4500
       5943.00        12.8800         0.8600         2.0700         0.4200
       5943.50        13.2000         0.8600         2.1000         0.4100
       5944.00        13.2000         0.8500         2.0900         0.3500
       5944.50        13.2000         0.8500         2.0800         0.3200
       5945.00        13.2000         0.8500         2.0800         0.3100
       5945.50        13.0700         0.8500         2.0700         0.3100
       5946.00        12.8800         0.8400         2.0600         0.3000
       5946.50        12.6900         0.8400         2.0700         0.3200
       5947.00        13.2000         0.8200         2.0700         0.3500
       5947.50        13.7700         0.8200         2.0700         0.4100
       5948.00        14.4500         0.8500         2.0600         0.4000
       5948.50        14.5600         0.9000         2.0500         0.4300
       5949.00        15.5600         0.9000         2.0500         0.4200
       5949.50        16.4500         0.8900         2.0200         0.3900
       5950.00        17.3400         0.8900         2.0500         0.4100
       5950.50        17.8500         0.8900         2.0600         0.4300
       5951.00        18.3600         0.8900         2.0900         0.4000
       5951.50        18.8700         0.8700         2.1000         0.3700
       5952.00        19.8700         0.8700         2.0600         0.3200
       5952.50        20.8800         0.9900         2.0500         0.3300
       5953.00        22.7700         0.9900         2.0400         0.3300
       5953.50        23.6500         0.9500         2.0600         0.3800
       5954.00        24.6700         0.9500         2.0800         0.3100
       5954.50        24.8000         0.9700         2.0700         0.2500
       5955.00        24.6700         0.9700         2.0800         0.2500
       5955.50        24.4100         0.9200         2.0600         0.2900
       5956.00        24.1400         0.9200         2.0700         0.3400
       5956.50        23.8900         0.9200         2.0700         0.3100
       5957.00        25.2200         0.9200         2.0800         0.2900
       5957.50        26.5400         0.9200         2.0600         0.3000
       5958.00        27.8600         0.8900         2.0500         0.3300
       5958.50        27.6200         0.8900         2.0300         0.3600
       5959.00        25.1000         0.8100         2.0200         0.3500
       5959.50        21.7600         0.7800         2.0100         0.3800
       5960.00        18.4200         0.7800         2.0100         0.4500
       5960.50        17.3400         0.7200         2.0100         0.4400
       5961.00        17.3400         0.7200         2.0100         0.3500
       5961.50        16.9600         0.7200         2.0200         0.3000
       5962.00        16.5800         0.7500         2.0200         0.3100
       5962.50        15.8300         0.7500         2.0200         0.3300
       5963.00        15.5300         0.7600         2.0200         0.3400
       5963.50        15.2200         0.7600         2.0400         0.3600
       5964.00        17.5700         0.8100         2.0700         0.3600
       5964.50        21.7200         1.0000         2.0800         0.3400
       5965.00        30.1000         1.0700         2.1400         0.3500
       5965.50        36.2100         1.0900         2.1600         0.3700
       5966.00        44.0600         1.3000         2.2100         0.3900
       5966.50        51.1600         1.5100         2.2100         0.4000
       5967.00        58.2600         1.5100         2.2200         0.4300
       5967.50        61.7100         1.5800         2.2200         0.4600
       5968.00        61.7100         1.5800         2.2200         0.5300
       5968.50        64.4900         1.5800         2.2300         0.5800
       5969.00        67.2700         1.6100         2.2500         0.6300
       5969.50        72.6400         1.6100         2.2500         0.6000
       5970.00        77.9800         1.5700         2.2500         0.5800
       5970.50        83.3300         1.5700         2.2400         0.5100
       5971.00        87.2900         1.5900         2.2400         0.4400
       5971.50        88.5000         1.5600         2.2400         0.4800
       5972.00        90.7100         1.5600         2.2500         0.5700
       5972.50        91.7100         1.6100         2.2500         0.6100
       5973.00        92.7100         1.6100         2.2300         0.5300
       5973.50        92.0300         1.6100         2.2100         0.4600
       5974.00        91.5400         1.4900         2.2000         0.4700
       5974.50        91.0500         1.4900         2.2100         0.4600
       5975.00        90.9700         1.5200         2.2300         0.4400
       5975.50        90.4000         1.5800         2.2400         0.4400
       5976.00        90.3300         1.4900         2.2500         0.4600
       5976.50        91.7800         1.4700         2.2400         0.5300
       5977.00        93.5400         1.4700         2.2300         0.4600
       5977.50        94.8100         1.4700         2.2300         0.3900
       5978.00        93.8100         1.4700         2.2300         0.3800
       5978.50        93.2400         1.4700         2.2300         0.4800
