~Version Information Block
VERS .                  2.0:  CWLS LOG ASCII STANDARD - VERSION 2.0
WRAP .                   NO:  One line per depth step
~Well Information Block
#MNEM.UNIT        Data Type   Information
#---------- ----------------  -----------
STRT .FT             410.50:  START DEPTH
STOP .FT           11980.00:  STOP DEPTH
STEP .FT               0.50:  STEP
NULL .              -999.25:  NULL VALUE
COMP .                     :  COMPANY
WELL .             SA-35ST1:  WELL
FLD  .                     :  FIELD
LOC  .                     :  LOCATION
CTRY .                     :  COUNTRY
STAT .                     :  STATE
CNTY .                     :  COUNTY
SRVC .                     :  SERVICE COMPANY
DATE .                     :  DATE
API  .                     :  API NUMBER
UWI  .                     :  UNIQUE WELL ID
~Curve Information Block
#MNEM.UNIT         API CODE   Curve Description
#---------- ----------------  -----------------
DEPTH.FT                   :  
GR   .GAPI                 :  Merged WIRE with WIRE_ST at 6750.00 F
RT   .OHMM                 :  Merged WIRE with WIRE_ST at 6750.00 F
RHOB .G/C3                 :  Merged WIRE with WIRE_ST at 6750.00 F
NPHI .V/V                  :  Merged WIRE with WIRE_ST at 6750.00 F
~Parameter Information Block
#MNEM.UNIT            Value   Description
#---------- ----------------  -----------
PROJECT.            SERANG_FE:  
~Other Information Block
# 
~A       DEPTH             GR             RT           RHOB           NPHI 
# ...
       4851.00        48.5181         1.3049         2.0656       0.416400
       4851.50        48.2356         1.3060         2.0800       0.418000
       4852.00        48.6912         1.3106         2.0825       0.416000
       4852.50        49.7988         1.3260         2.0826       0.407900
       4853.00        50.9287         1.3442         2.0850       0.396200
       4853.50        51.6894         1.3525         2.0940       0.386800
       4854.00        52.0581         1.3562         2.1036       0.385000
       4854.50        52.4044         1.3623         2.1077       0.391100
       4855.00        53.2062         1.3770         2.1090       0.400000
       4855.50        54.5294         1.3919         2.1074       0.404300
       4856.00        55.9188         1.4009         2.1091       0.405000
       4856.50        56.8537         1.4079         2.1031       0.409200
       4857.00        57.2244         1.4192         2.0921       0.426500
       4857.50        57.3331         1.4391         2.0811       0.452000
       4858.00        57.5488         1.4738         2.0982       0.466900
       4858.50        58.1319         1.5232         2.1477       0.466600
       4859.00        59.3444         1.5713         2.2027       0.456700
       4859.50        61.3400         1.6059         2.2409       0.449800
       4860.00        63.8369         1.6337         2.2589       0.452500
       4860.50        66.2044         1.6651         2.2627       0.459600
       4861.00        68.0069         1.6996         2.2623       0.463400
       4861.50        69.3744         1.7286         2.2676       0.459800
       4862.00        70.6331         1.7482         2.2840       0.452400
       4862.50        71.7613         1.7623         2.3030       0.447600
       4863.00        72.5200         1.7744         2.3101       0.446800
       4863.50        72.8450         1.7794         2.3037       0.446500
       4864.00        72.9531         1.7760         2.2904       0.445700
       4864.50        73.1694         1.7631         2.2816       0.451800
       4865.00        73.7113         1.7515         2.2857       0.470600
       4865.50        74.6438         1.7464         2.3051       0.495100
       4866.00        75.8363         1.7451         2.3298       0.505400
       4866.50        76.9650         1.7455         2.3421       0.498400
       4867.00        77.7269         1.7491         2.3372       0.483000
       4867.50        78.0544         1.7605         2.3190       0.474700
       4868.00        78.1200         1.7771         2.2961       0.473600
       4868.50        78.0762         1.7906         2.2776       0.472800
       4869.00        77.7931         1.7966         2.2666       0.470600
       4869.50        76.9894         1.8005         2.2625       0.462900
       4870.00        75.6656         1.8017         2.2627       0.447800
       4870.50        74.3631         1.8124         2.2658       0.429800
       4871.00        73.7113         1.8406         2.2678       0.421800
       4871.50        73.7763         1.8720         2.2691       0.421500
       4872.00        74.3631         1.8882         2.2708       0.422600
       4872.50        74.9713         1.8951         2.2757       0.418000
       4873.00        75.3181         1.9083         2.2779       0.417900
       4873.50        75.6206         1.9334         2.2725       0.434800
       4874.00        76.2050         1.9610         2.2597       0.473200
       4874.50        77.0300         1.9693         2.2543       0.500100
       4875.00        77.7269         1.9629         2.2592       0.508600
       4875.50        78.0544         1.9526         2.2622       0.515400
       4876.00        78.1200         1.9557         2.2591       0.523300
       4876.50        78.1200         1.9731         2.2489       0.527200
       4877.00        78.1200         1.9916         2.2481       0.525800
       4877.50        78.1200         1.9950         2.2596       0.522800
       4878.00        78.1631         1.9869         2.2754       0.517000
       4878.50        78.3794         1.9850         2.2838       0.500700
       4879.00        78.9212         1.9901         2.2830       0.478200
       4879.50        79.5725         1.9867         2.2761       0.468700
       4880.00        79.7681         1.9693         2.2737       0.472500
       4880.50        79.1394         1.9564         2.2723       0.478700
       4881.00        77.2075         1.9518         2.2690       0.480000
       4881.50        74.3637         1.9431         2.2574       0.478100
       4882.00        71.2819         1.9290         2.2462       0.478900
       4882.50        68.3087         1.9206         2.2476       0.480700
       4883.00        65.7469         1.9296         2.2619       0.477400
       4883.50        63.9225         1.9606         2.2792       0.464300
       4884.00        62.9675         2.0012         2.2866       0.454700
       4884.50        62.9469         2.0216         2.2826       0.459600
       4885.00        63.8825         2.0228         2.2684       0.486100
       4885.50        65.7063         2.0245         2.2512       0.522400
       4886.00        67.7025         2.0337         2.2400       0.544000
       4886.50        68.9825         2.0382         2.2416       0.546200
       4887.00        69.1556         2.0290         2.2536       0.535200
       4887.50        68.6769         2.0217         2.2689       0.523400
       4888.00        68.0250         2.0232         2.2766       0.516900
       4888.50        67.4381         2.0341         2.2732       0.507700
       4889.00        66.5694         2.0414         2.2597       0.487100
       4889.50        65.2456         2.0399         2.2416       0.458200
       4890.00        63.9444         2.0270         2.2273       0.433500
       4890.50        63.4250         2.0089         2.2218       0.421600
       4891.00        63.7294         1.9953         2.2234       0.421600
       4891.50        64.9881         1.9911         2.2293       0.432800
       4892.00        66.6600         1.9958         2.2360       0.453700
       4892.50        68.3969         2.0021         2.2401       0.469400
       4893.00        70.0894         2.0068         2.2426       0.466500
       4893.50        71.5863         2.0091         2.2472       0.440200
       4894.00        72.7569         2.0104         2.2554       0.408500
       4894.50        73.6444         2.0096         2.2660       0.400300
       4895.00        74.2287         2.0042         2.2751       0.425700
       4895.50        74.3156         1.9937         2.2781       0.473500
       4896.00        74.2306         1.9840         2.2703       0.521800
       4896.50        74.4050         1.9841         2.2523       0.554200
       4897.00        75.1869         1.9948         2.2344       0.564300
       4897.50        75.9031         2.0084         2.2297       0.556500
       4898.00        75.9031         2.0206         2.2394       0.538400
       4898.50        75.1431         2.0272         2.2544       0.527100
       4899.00        74.4269         2.0213         2.2642       0.524000
       4899.50        74.4700         2.0148         2.2661       0.517700
       4900.00        75.4025         2.0148         2.2626       0.504100
       4900.50        76.4000         2.0318         2.2570       0.489100
       4901.00        76.5312         2.0382         2.2528       0.478700
       4901.50        75.9481         2.0345         2.2526       0.475700
       4902.00        75.5806         2.0237         2.2568       0.482600
       4902.50        75.7975         2.0187         2.2631       0.498900
       4903.00        76.4700         2.0150         2.2678       0.516900
       4903.50        76.4912         2.0043         2.2680       0.525200
       4904.00        75.5794         1.9935         2.2631       0.519400
