~Version Information Block
VERS .                  2.0:  CWLS LOG ASCII STANDARD - VERSION 2.0
WRAP .                   NO:  One line per depth step
~Well Information Block
#MNEM.UNIT        Data Type   Information
#---------- ----------------  -----------
STRT .FT             410.50:  START DEPTH
STOP .FT           11980.00:  STOP DEPTH
STEP .FT               0.50:  STEP
NULL .              -999.25:  NULL VALUE
COMP .                     :  COMPANY
WELL .             SA-35ST1:  WELL
FLD  .                     :  FIELD
LOC  .                     :  LOCATION
CTRY .                     :  COUNTRY
STAT .                     :  STATE
CNTY .                     :  COUNTY
SRVC .                     :  SERVICE COMPANY
DATE .                     :  DATE
API  .                     :  API NUMBER
UWI  .                     :  UNIQUE WELL ID
~Curve Information Block
#MNEM.UNIT         API CODE   Curve Description
#---------- ----------------  -----------------
DEPTH.FT                   :  
GR   .GAPI                 :  Merged WIRE with WIRE_ST at 6750.00 F
RT   .OHMM                 :  Merged WIRE with WIRE_ST at 6750.00 F
RHOB .G/C3                 :  Merged WIRE with WIRE_ST at 6750.00 F
NPHI .V/V                  :  Merged WIRE with WIRE_ST at 6750.00 F
~Parameter Information Block
#MNEM.UNIT            Value   Description
#---------- ----------------  -----------
PROJECT.            SERANG_FE:  
~Other Information Block
# 
~A       DEPTH             GR             RT           RHOB           NPHI 
# ...
      11913.00        70.6600         2.6800         2.5200       0.300000
      11913.50        70.6600         2.6800         2.5300       0.290000
      11914.00        70.6600         2.6800         2.5500       0.280000
      11914.50        70.6600         2.5800         2.5700       0.280000
      11915.00        66.5000         2.6300         2.5500       0.290000
      11915.50        68.5600         2.6800         2.5500       0.290000
      11916.00        66.5000         2.6800         2.5600       0.290000
      11916.50        70.6600         2.6800         2.5800       0.290000
      11917.00        68.5600         2.6800         2.5900       0.300000
      11917.50        72.7800         2.6300         2.5800       0.300000
      11918.00        74.9400         2.5800         2.5700       0.300000
      11918.50        73.8600         2.6800         2.5600       0.290000
      11919.00        72.7800         2.7700         2.5900       0.290000
      11919.50        62.4700         2.8800         2.6100       0.270000
      11920.00        61.4900         2.8800         2.6300       0.270000
      11920.50        60.5000         2.8800         2.6100       0.260000
      11921.00        58.5700         2.9300         2.6000       0.260000
      11921.50        55.7600         2.9800         2.5700       0.250000
      11922.00        52.9500         2.9800         2.5400       0.250000
      11922.50        52.0400         2.9800         2.5300       0.240000
      11923.00        51.1400         2.9800         2.5500       0.240000
      11923.50        52.9600         3.0900         2.5700       0.240000
      11924.00        54.7900         2.9800         2.5800       0.240000
      11924.50        51.1400         3.0900         2.5700       0.230000
      11925.00        51.1400         3.0900         2.5800       0.230000
      11925.50        51.1400         3.0900         2.5800       0.220000
      11926.00        47.6100         3.0900         2.5900       0.210000
      11926.50        46.7600         2.9800         2.5800       0.210000
      11927.00        45.9000         3.0400         2.5800       0.210000
      11927.50        39.3500         3.0900         2.5500       0.210000
      11928.00        41.7800         3.2100         2.5400       0.210000
      11928.50        44.2100         3.2100         2.5300       0.220000
      11929.00        47.6800         3.2100         2.5300       0.220000
      11929.50        51.1400         3.0900         2.5200       0.230000
      11930.00        51.1400         2.9800         2.5400       0.240000
      11930.50        53.9000         3.0400         2.5400       0.250000
      11931.00        56.6600         3.0900         2.5400       0.260000
      11931.50        60.5000         3.0900         2.5100       0.270000
      11932.00        60.5000         3.0900         2.5100       0.270000
      11932.50        58.5700         3.0900         2.4900       0.270000
      11933.00        56.6800         3.3200         2.4700       0.260000
      11933.50        54.7900         3.3800         2.4800       0.250000
      11934.00        49.3600         3.4500         2.4800       0.240000
      11934.50        50.2500         3.4500         2.4900       0.240000
      11935.00        51.1400         3.6200         2.4500       0.240000
      11935.50        45.9000         3.7900         2.4100       0.230000
      11936.00        40.9400         3.9600         2.3900       0.220000
      11936.50        42.5600         4.1300         2.3600       0.210000
      11937.00        41.7500         4.1300         2.3100       0.200000
      11937.50        40.9400         4.1300         2.2400       0.190000
      11938.00        37.7900         4.4400         2.2000       0.200000
      11938.50        39.3500         4.7700         2.2200       0.200000
      11939.00        37.0600         4.7700         2.2700       0.200000
      11939.50        34.7700         4.7700         2.3300       0.200000
      11940.00        39.3500         4.7700         2.3500       0.210000
      11940.50        42.5600         4.7700         2.3400       0.220000
      11941.00        42.5600         4.9400         2.3400       0.220000
      11941.50        42.5600         4.9400         2.3300       0.220000
      11942.00        43.3900         4.9400         2.3400       0.220000
      11942.50        44.2100         4.7700         2.3400       0.220000
      11943.00        42.5600         4.6000         2.3400       0.220000
      11943.50        43.3900         4.6000         2.3400       0.220000
      11944.00        44.2100         4.6000         2.3300       0.220000
      11944.50        40.9400         4.7700         2.3400       0.220000
      11945.00        40.9400         4.7700         2.3500       0.220000
      11945.50        37.7900         4.7700         2.3700       0.210000
      11946.00        40.9400         4.7700         2.3800       0.210000
      11946.50        40.1400         4.6000         2.3500       0.210000
      11947.00        39.3500         4.6000         2.3400       0.210000
      11947.50        42.5600         4.4400         2.3100       0.210000
      11948.00        37.7900         4.4400         2.3600       0.210000
      11948.50        37.7900         4.4400         2.4000       0.210000
      11949.00        37.7900         4.3600         2.4500       0.200000
      11949.50        34.7700         4.2800         2.4600       0.200000
      11950.00        36.2600         4.3600         2.4900       0.200000
      11950.50        39.4100         4.4400         2.5300       0.210000
      11951.00        42.5600         4.4400         2.5500       0.220000
      11951.50        51.1400         3.9800         2.5400       0.220000
      11952.00        54.7900         3.9100         2.5200       0.240000
      11952.50        62.4700         3.8400         2.5300       0.250000
      11953.00        68.5600         3.5700         2.5400       0.270000
      11953.50        68.5600         3.3200         2.5600       0.270000
      11954.00        68.5600         3.0900         2.5700       0.260000
      11954.50        77.1300         3.0900         2.5700       0.260000
      11955.00        64.4700         2.9800         2.5600       0.260000
      11955.50        62.4700         2.9800         2.5700       0.250000
      11956.00        58.5700         2.9800         2.5600       0.240000
      11956.50        54.7900         2.9800         2.5700       0.230000
      11957.00        52.9500         3.0400         2.5700       0.230000
      11957.50        54.7900         3.0900         2.5800       0.230000
      11958.00        52.9500         3.2100         2.5800       0.240000
      11958.50        58.5700         3.0900         2.5500    -999.250000
      11959.00        54.7900         2.9800         2.5400    -999.250000
      11959.50        58.6300         2.7700         2.5200    -999.250000
      11960.00        62.4700         2.7200         2.5500    -999.250000
      11960.50        60.5000         2.6800         2.5400    -999.250000
      11961.00        58.5700         2.6800         2.5700    -999.250000
      11961.50        58.5700         2.7700         2.5100    -999.250000
      11962.00        62.4700         2.7700      -999.2500    -999.250000
      11962.50        64.4700         2.7200      -999.2500    -999.250000
      11963.00        66.5000         2.6800      -999.2500    -999.250000
      11963.50        64.4700         2.5800      -999.2500    -999.250000
      11964.00        68.5600         2.4900      -999.2500    -999.250000
      11964.50        68.5600         2.4900      -999.2500    -999.250000
      11965.00        70.6600         2.4900      -999.2500    -999.250000
      11965.50        66.5000         2.4900      -999.2500    -999.250000
      11966.00        68.5600         2.4900      -999.2500    -999.250000
