~Version Information Block
VERS .                  2.0:  CWLS LOG ASCII STANDARD - VERSION 2.0
WRAP .                   NO:  One line per depth step
~Well Information Block
#MNEM.UNIT        Data Type   Information
#---------- ----------------  -----------
STRT .FT             410.50:  START DEPTH
STOP .FT           11980.00:  STOP DEPTH
STEP .FT               0.50:  STEP
NULL .              -999.25:  NULL VALUE
COMP .                     :  COMPANY
WELL .             SA-35ST1:  WELL
FLD  .                     :  FIELD
LOC  .                     :  LOCATION
CTRY .                     :  COUNTRY
STAT .                     :  STATE
CNTY .                     :  COUNTY
SRVC .                     :  SERVICE COMPANY
DATE .                     :  DATE
API  .                     :  API NUMBER
UWI  .                     :  UNIQUE WELL ID
~Curve Information Block
#MNEM.UNIT         API CODE   Curve Description
#---------- ----------------  -----------------
DEPTH.FT                   :  
GR   .GAPI                 :  Merged WIRE with WIRE_ST at 6750.00 F
RT   .OHMM                 :  Merged WIRE with WIRE_ST at 6750.00 F
RHOB .G/C3                 :  Merged WIRE with WIRE_ST at 6750.00 F
NPHI .V/V                  :  Merged WIRE with WIRE_ST at 6750.00 F
~Parameter Information Block
#MNEM.UNIT            Value   Description
#---------- ----------------  -----------
PROJECT.            SERANG_FE:  
~Other Information Block
# 
~A       DEPTH             GR             RT           RHOB           NPHI 
# ...
       1320.00      -999.2500      -999.2500      -999.2500    -999.250000
       1320.50      -999.2500      -999.2500      -999.2500    -999.250000
       1321.00      -999.2500      -999.2500      -999.2500    -999.250000
       1321.50      -999.2500      -999.2500      -999.2500    -999.250000
       1322.00      -999.2500      -999.2500      -999.2500    -999.250000
       1322.50      -999.2500      -999.2500      -999.2500    -999.250000
       1323.00      -999.2500      -999.2500      -999.2500    -999.250000
       1323.50      -999.2500      -999.2500      -999.2500    -999.250000
       1324.00      -999.2500      -999.2500      -999.2500    -999.250000
       1324.50      -999.2500      -999.2500      -999.2500    -999.250000
       1325.00      -999.2500      -999.2500      -999.2500    -999.250000
       1325.50      -999.2500      -999.2500      -999.2500    -999.250000
       1326.00      -999.2500      -999.2500      -999.2500    -999.250000
       1326.50      -999.2500      -999.2500      -999.2500    -999.250000
       1327.00      -999.2500      -999.2500      -999.2500    -999.250000
       1327.50      -999.2500      -999.2500      -999.2500    -999.250000
       1328.00      -999.2500      -999.2500      -999.2500    -999.250000
       1328.50      -999.2500      -999.2500      -999.2500    -999.250000
       1329.00      -999.2500      -999.2500      -999.2500    -999.250000
       1329.50      -999.2500      -999.2500      -999.2500    -999.250000
       1330.00      -999.2500      -999.2500      -999.2500    -999.250000
       1330.50      -999.2500      -999.2500      -999.2500    -999.250000
       1331.00      -999.2500      -999.2500      -999.2500    -999.250000
       1331.50      -999.2500      -999.2500      -999.2500    -999.250000
       1332.00      -999.2500      -999.2500      -999.2500    -999.250000
       1332.50      -999.2500      -999.2500      -999.2500    -999.250000
       1333.00      -999.2500      -999.2500      -999.2500    -999.250000
       1333.50      -999.2500      -999.2500      -999.2500    -999.250000
       1334.00      -999.2500      -999.2500      -999.2500    -999.250000
       1334.50      -999.2500      -999.2500      -999.2500    -999.250000
       1335.00      -999.2500      -999.2500      -999.2500    -999.250000
       1335.50      -999.2500      -999.2500      -999.2500    -999.250000
       1336.00      -999.2500      -999.2500      -999.2500    -999.250000
       1336.50      -999.2500      -999.2500      -999.2500    -999.250000
       1337.00      -999.2500      -999.2500      -999.2500    -999.250000
       1337.50      -999.2500      -999.2500      -999.2500    -999.250000
       1338.00      -999.2500      -999.2500      -999.2500    -999.250000
       1338.50      -999.2500      -999.2500         1.8600    -999.250000
       1339.00        43.4000      1000.0000         1.8613    -999.250000
       1339.50        43.2250       750.2050         1.8660       0.620000
       1340.00        43.0288       562.8825         1.8720       0.619600
       1340.50        42.4419       250.6356         1.8783       0.612600
       1341.00        41.3794        63.1456         1.8829       0.600500
       1341.50        39.8400         0.4712         1.8824       0.589600
       1342.00        37.9738         0.3300         1.8767       0.582200
       1342.50        35.9762         0.2900         1.8723       0.582600
       1343.00        34.1531         0.2937         1.8765       0.585400
       1343.50        32.9606         0.2887         1.8951       0.586500
       1344.00        32.8744         0.2812         1.9366       0.581400
       1344.50        33.8294         0.2731         2.0079       0.576200
       1345.00        35.3475         0.2788         2.0870       0.579500
       1345.50        36.8225         0.3850         2.1300       0.597700
       1346.00        38.1244         0.6087         2.1307       0.624000
       1346.50        39.3831         0.7175         2.1162       0.635200
       1347.00        40.5112         0.5981         2.1129       0.614100
       1347.50        41.2700         0.3031         2.1246       0.571200
       1348.00        41.5950        62.6450         2.1398       0.538900
       1348.50        41.6600       312.5688         2.1565       0.531100
       1349.00        41.6600       687.5312         2.1711       0.537800
       1349.50        41.6600       937.5062         2.1669       0.551300
       1350.00        41.6600      1000.0000         2.1367       0.571100
       1350.50        41.6600      1000.0000         2.0952       0.597300
       1351.00        41.6600       937.5062         2.0584       0.613000
       1351.50        41.6600       687.5312         2.0264       0.597500
       1352.00        41.6169       312.5813         1.9995       0.552300
       1352.50        41.3356        62.6787         1.9883       0.504500
       1353.00        40.5337         0.2394         2.0011       0.488400
       1353.50        39.2106        62.7856         2.0461       0.522300
       1354.00        37.8213       312.7344         2.1189       0.589700
       1354.50        36.8431       625.1131         2.1793       0.637000
       1355.00        36.1912       625.0906         2.1715       0.633000
       1355.50        35.5194       312.6569         2.0785       0.594600
       1356.00        35.0644        62.7137         1.9393       0.552200
       1356.50        35.3462         0.1994         1.7924       0.525000
       1357.00        36.8425         0.1494         1.6567       0.511900
       1357.50        39.3600        62.6200         1.5527       0.510000
       1358.00        42.7031       187.7250         1.4939       0.517300
       1358.50        46.5231       250.5694         1.4701       0.528800
       1359.00        49.9731       188.3488         1.4577       0.539700
       1359.50        52.2719        63.6813         1.4387       0.549100
       1360.00        53.3338         1.2169         1.4072       0.556400
       1360.50        53.3338         1.1994         1.3687       0.562200
       1361.00        52.3587         1.1719         1.3357       0.573700
       1361.50        50.4938         1.1656         1.3173       0.605900
       1362.00        48.1287         1.1656         1.3128       0.667300
       1362.50        45.6763         1.1719         1.3173       0.738600
       1363.00        43.7019         1.1712         1.3275       0.781300
       1363.50        42.8569         1.1631         1.3410       0.791900
       1364.00        43.2700         1.1594         1.3549       0.785700
       1364.50        45.2012         1.1588         1.3664       0.764700
       1365.00        47.6956         1.1581         1.3725       0.731200
       1365.50        49.4519         1.1500         1.3721       0.676200
       1366.00        49.7550         1.1381         1.3674       0.623800
       1366.50        49.1031         1.1337         1.3658       0.600900
       1367.00        48.3219         1.1325         1.3743       0.607700
       1367.50        48.1275         1.1306         1.3960       0.618100
       1368.00        48.3256         1.1237         1.4242       0.612200
       1368.50        48.5875         1.1200         1.4481       0.592800
       1369.00        48.9344         1.1175         1.4639       0.571700
       1369.50        49.6931         1.1131         1.4763       0.553800
       1370.00        50.7781         1.1019         1.4907       0.539300
       1370.50        51.6463         1.0869         1.5031       0.527300
       1371.00        52.0581         1.0706         1.5041       0.515300
       1371.50        52.4044         1.0575         1.4929       0.506600
       1372.00        53.2062         1.0562         1.4800       0.514400
       1372.50        54.5294         1.0706         1.4755       0.552800
       1373.00        55.9619         1.1019         1.4790       0.607300
