~Version Information Block
VERS .                  2.0:  CWLS LOG ASCII STANDARD - VERSION 2.0
WRAP .                   NO:  One line per depth step
~Well Information Block
#MNEM.UNIT        Data Type   Information
#---------- ----------------  -----------
STRT .FT             950.00:  START DEPTH
STOP .FT           11598.00:  STOP DEPTH
STEP .FT               0.50:  STEP
NULL .              -999.25:  NULL VALUE
COMP .                     :  COMPANY
WELL .          SA-32RD1ST1:  WELL
FLD  .                     :  FIELD
LOC  .                     :  LOCATION
CTRY .                     :  COUNTRY
STAT .                     :  STATE
CNTY .                     :  COUNTY
SRVC .                     :  SERVICE COMPANY
DATE .                     :  DATE
API  .                     :  API NUMBER
UWI  .                     :  UNIQUE WELL ID
~Curve Information Block
#MNEM.UNIT         API CODE   Curve Description
#---------- ----------------  -----------------
DEPTH.FT                   :  
GR   .GAPI                 :  Merged WIRE with WIRE_ST at 7550.00 F
RT   .OHMM                 :  Merged WIRE with WIRE_ST at 7550.00 F
RHOB .G/C3                 :  Merged WIRE with WIRE_ST at 7550.00 F
NPHI .V/V                  :  Merged WIRE with WIRE_ST at 7550.00 F
~Parameter Information Block
#MNEM.UNIT            Value   Description
#---------- ----------------  -----------
PROJECT.            SERANG_FE:  
~Other Information Block
# 
~A       DEPTH             GR             RT           RHOB           NPHI 
# ...
       3090.00        65.3000         1.5740      -999.2500      -999.2500
       3090.50        60.4800         2.7900         2.1100         0.4600
       3091.00        67.1000         2.7900         2.1100         0.5000
       3091.50        67.9800         2.9200         2.1200         0.5500
       3092.00        67.5500         2.2100         2.1100         0.5500
       3092.50        66.7200         1.3400         2.0800         0.5100
       3093.00        63.7500         1.4800         2.0400         0.5200
       3093.50        61.3500         0.9700         1.9600         0.5300
       3094.00        59.5200         2.5200         2.0700         0.5200
       3094.50        59.3900         0.8000         2.0700         0.4600
       3095.00        60.0100         1.3000         2.1500         0.4400
       3095.50        61.0900         1.3000         2.0400         0.4500
       3096.00        62.4900         1.3000         2.0600         0.5000
       3096.50        63.8900         1.2700         2.0800         0.5400
       3097.00        65.2600         0.5200         2.0700         0.5300
       3097.50        64.2400         1.1900         2.0600         0.4800
       3098.00        63.2200         1.1100         2.0600         0.5100
       3098.50        62.5400         1.1100         2.0900         0.5700
       3099.00        63.3700         1.1100         2.1400         0.8200
       3099.50        64.3200         1.2400         2.1600         1.3300
       3100.00        64.1900         1.9700         2.1700         1.3300
       3100.50        64.3000         3.3200         2.1800         0.7300
       3101.00        66.0800         2.2200         2.1400         0.5000
       3101.50        68.1000         2.2200         2.0700         0.4200
       3102.00        69.8700         3.8400         2.0500         0.5200
       3102.50        69.1200         3.8400         2.0300         0.6400
       3103.00        68.2300         1.7900         2.0500         0.4900
       3103.50        66.9100         1.8300         2.0600         0.3800
       3104.00        66.3400         1.8300         2.0600         0.3700
       3104.50        65.7700         1.6400         2.0600         0.4800
       3105.00        65.4000         1.6100         2.0600         0.6000
       3105.50        65.0200         1.5400         2.0600         0.5000
       3106.00        64.6400         1.5400         2.0800         0.4300
       3106.50        64.5100         1.5400         2.1400         0.3600
       3107.00        65.0800         1.6100         2.1800         0.3600
       3107.50        66.2800         2.0400         2.2600         0.3600
       3108.00        66.8500         2.0400         2.2600         0.3500
       3108.50        66.7200         2.8000         2.2600         0.3500
       3109.00        64.0000         3.1900         2.3000         0.2800
       3109.50        59.8400         3.1100         2.3300         0.2500
       3110.00        55.6900         3.6300         2.4000         0.2200
       3110.50        49.9600         3.6300         2.3500         0.2300
       3111.00        43.7900         4.5500         2.3200         0.2200
       3111.50        35.1000         4.3500         2.2800         0.2700
       3112.00        29.0500         4.5200         2.2900         0.3300
       3112.50        24.5900         4.5500         2.3300         0.4200
       3113.00        22.6500         4.8300         2.3200         0.3800
       3113.50        21.5700         4.8300         2.3200         0.3500
       3114.00        20.9500         5.5900         2.2900         0.3300
       3114.50        21.0100         5.4300         2.2900         0.3300
       3115.00        21.5200         4.4400         2.2800         0.2800
       3115.50        22.5200         6.5700         2.2800         0.2600
       3116.00        25.8600         6.5700         2.2800         0.2400
       3116.50        29.4500         7.9800         2.2600         0.2400
       3117.00        33.7400         6.0900         2.2500         0.2400
       3117.50        36.5700         4.5300         2.2500         0.2200
       3118.00        38.8400         5.3400         2.2600         0.2200
       3118.50        40.5900         5.3400         2.2700         0.2300
       3119.00        41.4600         5.0700         2.2800         0.2700
       3119.50        42.1600         4.5000         2.2900         0.2800
       3120.00        41.9700         4.6200         2.3200         0.2700
       3120.50        41.1000         5.3000         2.3300         0.2600
       3121.00        39.6500         5.4600         2.3300         0.2600
       3121.50        39.8900         5.5900         2.3400         0.2700
       3122.00        39.7600         6.3400         2.3300         0.3200
       3122.50        40.7600         5.9900         2.3100         0.3700
       3123.00        40.7600         5.6600         2.3300         0.4200
       3123.50        41.0800         5.3600         2.3400         0.3500
       3124.00        41.1600         5.6700         2.3700         0.3000
       3124.50        40.8400         5.4400         2.3700         0.2700
       3125.00        40.9000         4.4500         2.3800         0.2800
       3125.50        40.8200         4.1100         2.3600         0.3100
       3126.00        42.4100         4.1100         2.3600         0.3300
       3126.50        43.2900         3.9800         2.3800         0.2700
       3127.00        44.9900         4.1700         2.4000         0.2100
       3127.50        45.4300         4.2400         2.4100         0.2000
       3128.00        44.7300         4.0700         2.4100         0.2400
       3128.50        42.6500         4.2100         2.3900         0.2900
       3129.00        39.5200         4.5200         2.3700         0.2800
       3129.50        37.8900         4.1800         2.3400         0.2800
       3130.00        36.8900         5.0200         2.3700         0.2800
       3130.50        37.4600         4.6300         2.4000         0.2700
       3131.00        37.8200         4.6300         2.4300         0.2400
       3131.50        39.2000         4.5000         2.4100         0.2100
       3132.00        39.6900         5.2600         2.3900         0.2300
       3132.50        40.3900         4.8300         2.4000         0.2700
       3133.00        40.5800         5.1000         2.3700         0.3300
       3133.50        41.4100         5.0300         2.3400         0.3200
       3134.00        42.9200         5.5000         2.2600         0.3100
       3134.50        44.3700         4.6300         2.2300         0.3400
       3135.00        45.9400         4.1600         2.2200         0.3800
       3135.50        46.9400         4.4200         2.2200         0.4700
       3136.00        47.4300         4.7700         2.2100         0.4900
       3136.50        47.0500         4.7700         2.2100         0.5200
       3137.00        45.8600         4.5000         2.1900         0.5100
       3137.50        43.9900         3.8900         2.1700         0.4800
       3138.00        41.8600         3.3300         2.1700         0.5100
       3138.50        39.6500         3.1800         2.2000         0.5200
       3139.00        39.2000         2.8800         2.2200         0.5100
       3139.50        39.3700         2.8800         2.2100         0.4500
       3140.00        47.8100         2.2200         2.1900         0.3900
       3140.50        54.8600         1.9500         2.1900         0.4100
       3141.00        62.0300         1.6400         2.1800         0.4400
       3141.50        61.8400         1.6400         2.1800         0.5300
       3142.00        60.1600         1.6800         2.1600         0.5100
       3142.50        58.0300         1.7300         2.1600         0.4400
       3143.00        55.0600         1.7900         2.1700         0.4300
