~Version Information Block
VERS .                  2.0:  CWLS LOG ASCII STANDARD - VERSION 2.0
WRAP .                   NO:  One line per depth step
~Well Information Block
#MNEM.UNIT        Data Type   Information
#---------- ----------------  -----------
STRT .FT             950.00:  START DEPTH
STOP .FT           11598.00:  STOP DEPTH
STEP .FT               0.50:  STEP
NULL .              -999.25:  NULL VALUE
COMP .                     :  COMPANY
WELL .          SA-32RD1ST1:  WELL
FLD  .                     :  FIELD
LOC  .                     :  LOCATION
CTRY .                     :  COUNTRY
STAT .                     :  STATE
CNTY .                     :  COUNTY
SRVC .                     :  SERVICE COMPANY
DATE .                     :  DATE
API  .                     :  API NUMBER
UWI  .                     :  UNIQUE WELL ID
~Curve Information Block
#MNEM.UNIT         API CODE   Curve Description
#---------- ----------------  -----------------
DEPTH.FT                   :  
GR   .GAPI                 :  Merged WIRE with WIRE_ST at 7550.00 F
RT   .OHMM                 :  Merged WIRE with WIRE_ST at 7550.00 F
RHOB .G/C3                 :  Merged WIRE with WIRE_ST at 7550.00 F
NPHI .V/V                  :  Merged WIRE with WIRE_ST at 7550.00 F
~Parameter Information Block
#MNEM.UNIT            Value   Description
#---------- ----------------  -----------
PROJECT.            SERANG_FE:  
~Other Information Block
# 
~A       DEPTH             GR             RT           RHOB           NPHI 
# ...
       5230.00        80.0800         1.9300         2.2300         0.5300
       5230.50        80.7000         1.9300         2.2300         0.5100
       5231.00        81.3200         1.9100         2.2200         0.5100
       5231.50        82.3800         1.9100         2.2200         0.4400
       5232.00        83.2600         2.0000         2.2100         0.3900
       5232.50        84.1500         2.0000         2.2200         0.3800
       5233.00        86.1200         1.9600         2.2300         0.4600
       5233.50        87.6300         1.9600         2.2500         0.5400
       5234.00        89.1400         1.8000         2.2400         0.5500
       5234.50        89.1400         1.8000         2.2300         0.5300
       5235.00        89.0100         1.8000         2.2200         0.5400
       5235.50        88.8700         1.8200         2.2300         0.5500
       5236.00        88.2300         1.8200         2.1800         0.5300
       5236.50        87.7200         1.8700         2.1400         0.4600
       5237.00        86.9100         1.8700         2.1000         0.3900
       5237.50        86.6100         1.8900         2.1100         0.4000
       5238.00        86.3100         1.8900         2.1300         0.4500
       5238.50        85.0400         1.8900         2.1400         0.5000
       5239.00        83.7700         1.9000         2.1500         0.4900
       5239.50        82.5100         1.9000         2.1300         0.5000
       5240.00        80.9400         1.9000         2.1600         0.5300
       5240.50        79.3700         1.9100         2.1700         0.5000
       5241.00        77.2400         1.9100         2.2400         0.4400
       5241.50        76.6700         2.0200         2.2300         0.3900
       5242.00        76.5400         2.0200         2.2500         0.4200
       5242.50        76.9700         2.0200         2.2400         0.4200
       5243.00        77.4700         1.9500         2.1800         0.4200
       5243.50        77.5200         1.8600         2.2000         0.3900
       5244.00        77.4700         1.8600         2.2000         0.4300
       5244.50        77.4700         1.9300         2.2100         0.4200
       5245.00        77.4700         1.9300         2.2300         0.4300
       5245.50        78.4100         1.9300         2.2400         0.4200
       5246.00        79.2400         1.9300         2.2300         0.5000
       5246.50        79.8300         1.8800         2.2200         0.5100
       5247.00        79.5800         1.8700         2.2200         0.5200
       5247.50        79.8300         1.8700         2.2000         0.4500
       5248.00        80.3200         1.8700         2.1800         0.4700
       5248.50        80.8100         1.9000         2.1500         0.4500
       5249.00        81.1900         1.9000         2.1400         0.5000
       5249.50        81.5700         1.8600         2.1300         0.4800
       5250.00        82.9600         1.8600         2.1300         0.5200
       5250.50        83.9800         1.8600         2.1300         0.5800
       5251.00        85.0000         1.8600         2.1400         0.5900
       5251.50        85.0000         1.8600         2.1300         0.5300
       5252.00        86.4400         1.8600         2.1300         0.4400
       5252.50        87.8700         1.8900         2.1300         0.4800
       5253.00        90.0100         1.8900         2.1500         0.5100
       5253.50        90.7100         1.8900         2.1500         0.5500
       5254.00        91.4100         1.8700         2.1500         0.6000
       5254.50        91.7900         1.8700         2.1400         0.5500
       5255.00        92.1600         1.8400         2.1500         0.5100
       5255.50        92.9700         1.8400         2.1900         0.5000
       5256.00        93.4100         1.8400         2.2100         0.5300
       5256.50        93.8400         1.8100         2.2100         0.5900
       5257.00        93.7900         1.8100         2.1800         0.5100
       5257.50        93.7300         1.8000         2.1700         0.5400
       5258.00        93.6700         1.8000         2.1600         0.4700
       5258.50        93.6700         1.8000         2.1700         0.4700
       5259.00        93.4800         1.8000         2.1700         0.4800
       5259.50        93.3000         1.8000         2.1600         0.5400
       5260.00        93.1100         1.8200         2.1500         0.6100
       5260.50        93.1100         1.8200         2.1400         0.6300
       5261.00        93.1100         1.7800         2.1400         0.5600
       5261.50        93.3500         1.7800         2.1400         0.5400
       5262.00        93.6000         1.7800         2.1400         0.5100
       5262.50        93.8400         1.7700         2.1400         0.5500
       5263.00        95.3500         1.7700         2.1300         0.5800
       5263.50        97.7500         1.7400         2.1300         0.5400
       5264.00       100.1500         1.7400         2.1500         0.4900
       5264.50       101.0400         1.7500         2.1600         0.5000
       5265.00       101.0500         1.7500         2.1600         0.5000
       5265.50       101.0500         1.7500         2.1600         0.5700
       5266.00       101.6200         1.7500         2.1500         0.4700
       5266.50       102.1800         1.7500         2.1500         0.5200
       5267.00       103.2300         1.7500         2.1400         0.5000
       5267.50       103.7200         1.7900         2.1400         0.5500
       5268.00       103.7200         1.7900         2.1600         0.5100
       5268.50       103.2300         1.8600         2.1700         0.5100
       5269.00       102.0400         1.8600         2.1800         0.5300
       5269.50       101.3400         1.8400         2.1800         0.5000
       5270.00       101.2900         1.8400         2.1800         0.4900
       5270.50       101.9300         1.8400         2.1600         0.4200
       5271.00       102.5700         1.7700         2.1700         0.5200
       5271.50       101.2300         1.7700         2.1800         0.4700
       5272.00        99.8900         1.8100         2.1900         0.5200
       5272.50        98.5500         1.8100         2.1800         0.4300
       5273.00        98.5500         1.8100         2.1800         0.4500
       5273.50        98.5500         1.8100         2.1800         0.4200
       5274.00        98.0000         1.8100         2.1800         0.4600
       5274.50        97.4500         1.8100         2.1700         0.4700
       5275.00        96.9000         1.8400         2.1600         0.5100
       5275.50        96.1500         1.8400         2.1700         0.4200
       5276.00        94.1800         1.8400         2.1700         0.4400
       5276.50        89.7600         1.8400         2.1800         0.4200
       5277.00        86.0900         1.7500         2.1800         0.4800
       5277.50        83.6400         1.7500         2.1700         0.4400
       5278.00        83.2600         1.7500         2.1700         0.4700
       5278.50        82.8900         1.7500         2.1700         0.4700
       5279.00        82.5100         1.7000         2.1800         0.5300
       5279.50        84.1500         1.7000         2.1900         0.5200
       5280.00        86.5000         1.7000         2.2100         0.5300
       5280.50        88.8400         1.7100         2.2100         0.5000
       5281.00        91.3600         1.6900         2.2200         0.4500
       5281.50        93.1700         1.7500         2.2000         0.5000
       5282.00        95.9800         1.7500         2.1900         0.4400
       5282.50        96.9800         1.7500         2.1900         0.4400
       5283.00        97.9800         1.7500         2.2000         0.3900
