~Version Information Block
VERS .                  2.0:  CWLS LOG ASCII STANDARD - VERSION 2.0
WRAP .                   NO:  One line per depth step
~Well Information Block
#MNEM.UNIT        Data Type   Information
#---------- ----------------  -----------
STRT .FT             950.00:  START DEPTH
STOP .FT           11598.00:  STOP DEPTH
STEP .FT               0.50:  STEP
NULL .              -999.25:  NULL VALUE
COMP .                     :  COMPANY
WELL .          SA-32RD1ST1:  WELL
FLD  .                     :  FIELD
LOC  .                     :  LOCATION
CTRY .                     :  COUNTRY
STAT .                     :  STATE
CNTY .                     :  COUNTY
SRVC .                     :  SERVICE COMPANY
DATE .                     :  DATE
API  .                     :  API NUMBER
UWI  .                     :  UNIQUE WELL ID
~Curve Information Block
#MNEM.UNIT         API CODE   Curve Description
#---------- ----------------  -----------------
DEPTH.FT                   :  
GR   .GAPI                 :  Merged WIRE with WIRE_ST at 7550.00 F
RT   .OHMM                 :  Merged WIRE with WIRE_ST at 7550.00 F
RHOB .G/C3                 :  Merged WIRE with WIRE_ST at 7550.00 F
NPHI .V/V                  :  Merged WIRE with WIRE_ST at 7550.00 F
~Parameter Information Block
#MNEM.UNIT            Value   Description
#---------- ----------------  -----------
PROJECT.            SERANG_FE:  
~Other Information Block
# 
~A       DEPTH             GR             RT           RHOB           NPHI 
# ...
       4534.50        45.6400         1.3300         2.1500         0.4600
       4535.00        48.5300         1.4600         2.1700         0.4000
       4535.50        51.4200         1.5200         2.1900         0.3500
       4536.00        55.6500         1.5200         2.2000         0.3800
       4536.50        58.4300         1.5800         2.1900         0.4800
       4537.00        62.2100         1.5800         2.1900         0.5600
       4537.50        63.2100         1.5800         2.1900         0.5300
       4538.00        64.2100         1.5200         2.2100         0.5000
       4538.50        65.4000         1.5200         2.2100         0.5100
       4539.00        66.5900         1.5200         2.2100         0.4700
       4539.50        67.7800         1.6100         2.1900         0.4200
       4540.00        67.7800         1.6100         2.1800         0.4500
       4540.50        67.7800         1.6100         2.1900         0.5200
       4541.00        69.9900         1.6100         2.2100         0.5100
       4541.50        72.2000         1.6600         2.2200         0.4300
       4542.00        75.8400         1.6600         2.2100         0.3600
       4542.50        77.2800         1.6800         2.2200         0.4000
       4543.00        78.6000         1.6800         2.2400         0.4300
       4543.50        78.4900         1.7400         2.2400         0.4500
       4544.00        79.0000         1.7400         2.2400         0.4300
       4544.50        79.6200         1.7300         2.2400         0.4300
       4545.00        81.1900         1.7300         2.2500         0.4500
       4545.50        82.1300         1.6800         2.2500         0.4200
       4546.00        83.0800         1.6800         2.2500         0.3700
       4546.50        83.0800         1.6800         2.2400         0.3400
       4547.00        81.8300         1.6800         2.2400         0.3600
       4547.50        80.5700         1.6800         2.2200         0.3700
       4548.00        79.3200         1.6500         2.2300         0.3600
       4548.50        78.3100         1.6500         2.2400         0.4000
       4549.00        77.2900         1.6000         2.2400         0.4500
       4549.50        76.4600         1.6000         2.2300         0.5100
       4550.00        76.6500         1.6000         2.2000         0.5100
       4550.50        76.6500         1.6000         2.2000         0.5200
       4551.00        76.4600         1.6100         2.1900         0.5400
       4551.50        77.5400         1.6100         2.2100         0.5600
       4552.00        78.8100         1.5800         2.2100         0.4900
       4552.50        80.0800         1.5800         2.2100         0.4100
       4553.00        80.1000         1.5800         2.2000         0.3700
       4553.50        81.6100         1.5800         2.2000         0.4000
       4554.00        83.1100         1.5600         2.2000         0.4500
       4554.50        85.9800         1.5600         2.2100         0.4700
       4555.00        87.0600         1.6400         2.2000         0.4600
       4555.50        88.1400         1.6400         2.1900         0.4700
       4556.00        87.5700         1.6600         2.1800         0.5000
       4556.50        87.3100         1.6600         2.1900         0.5100
       4557.00        87.6700         1.6600         2.1900         0.4900
       4557.50        88.5500         1.6600         2.1900         0.5100
       4558.00        89.4400         1.6600         2.1600         0.5400
       4558.50        89.7100         1.6200         2.1500         0.5900
       4559.00        89.7100         1.6200         2.1500         0.5700
       4559.50        89.7100         1.6200         2.1600         0.5200
       4560.00        89.7100         1.6400         2.1800         0.4500
       4560.50        91.6500         1.6400         2.1800         0.4300
       4561.00        93.6000         1.6500         2.1900         0.4700
       4561.50        96.9400         1.6500         2.2000         0.5600
       4562.00        98.3400         1.6900         2.2200         0.6100
       4562.50        98.7100         1.6900         2.2200         0.5400
       4563.00        97.6900         1.6700         2.2400         0.4400
       4563.50        96.6800         1.6700         2.2300         0.3600
       4564.00        96.9400         1.6700         2.2200         0.4000
       4564.50        97.2100         1.6700         2.2100         0.4600
       4565.00        95.9400         1.6500         2.2000         0.5500
       4565.50        94.4100         1.5800         2.2100         0.5500
       4566.00        92.0100         1.5800         2.2200         0.5400
       4566.50        91.2000         1.6500         2.2400         0.5200
       4567.00        90.3900         1.6500         2.2500         0.5100
       4567.50        89.2500         1.6000         2.2600         0.5000
       4568.00        88.0600         1.6000         2.2600         0.5100
       4568.50        86.8700         1.6000         2.2300         0.5200
       4569.00        86.8700         1.6000         2.2200         0.5400
       4569.50        86.8700         1.6000         2.2000         0.5400
       4570.00        86.1700         1.6000         2.2100         0.5100
       4570.50        85.4700         1.5600         2.2100         0.4900
       4571.00        84.7800         1.5600         2.2300         0.4500
       4571.50        85.7200         1.5600         2.2400         0.4100
       4572.00        86.6600         1.5800         2.2500         0.3700
       4572.50        86.4700         1.5800         2.2400         0.3800
       4573.00        85.3400         1.5700         2.2000         0.4300
       4573.50        84.4000         1.5700         2.1600         0.4600
       4574.00        84.5900         1.7200         2.1600         0.4600
       4574.50        86.3600         1.7200         2.2000         0.4200
       4575.00        87.9500         1.7000         2.2400         0.4000
       4575.50        89.5400         1.7000         2.2400         0.3500
       4576.00        89.2700         1.7000         2.2400         0.4000
       4576.50        89.0000         1.7000         2.2500         0.4800
       4577.00        87.7900         1.7800         2.2400         0.5800
       4577.50        86.8500         1.8700         2.2300         0.5700
       4578.00        84.8500         1.8700         2.2400         0.5000
       4578.50        83.7900         1.9200         2.2600         0.3900
       4579.00        81.0200         1.9200         2.2500         0.3200
       4579.50        77.5400         1.8900         2.2400         0.3500
       4580.00        74.0700         1.8900         2.2300         0.4200
       4580.50        72.3000         1.9700         2.2200         0.4500
       4581.00        72.2900         1.9700         2.2200         0.4800
       4581.50        71.2100         1.9700         2.2300         0.5100
       4582.00        70.8500         2.0300         2.2500         0.5400
       4582.50        70.4800         2.0300         2.2600         0.4800
       4583.00        72.0600         1.9000         2.2500         0.4700
       4583.50        72.9500         1.8600         2.2400         0.5100
       4584.00        75.0900         1.8600         2.2300         0.5700
       4584.50        76.3300         1.7100         2.2300         0.5500
       4585.00        77.4700         1.7100         2.2200         0.5200
       4585.50        77.3500         1.5700         2.2200         0.4800
       4586.00        78.0500         1.5700         2.2200         0.4600
       4586.50        78.8600         1.6300         2.2300         0.4700
       4587.00        79.6800         1.6300         2.2400         0.4800
       4587.50        78.6200         1.6300         2.2400         0.4900
