~Version Information Block
VERS .                  2.0:  CWLS LOG ASCII STANDARD - VERSION 2.0
WRAP .                   NO:  One line per depth step
~Well Information Block
#MNEM.UNIT        Data Type   Information
#---------- ----------------  -----------
STRT .FT             410.50:  START DEPTH
STOP .FT           11980.00:  STOP DEPTH
STEP .FT               0.50:  STEP
NULL .              -999.25:  NULL VALUE
COMP .                     :  COMPANY
WELL .             SA-35ST1:  WELL
FLD  .                     :  FIELD
LOC  .                     :  LOCATION
CTRY .                     :  COUNTRY
STAT .                     :  STATE
CNTY .                     :  COUNTY
SRVC .                     :  SERVICE COMPANY
DATE .                     :  DATE
API  .                     :  API NUMBER
UWI  .                     :  UNIQUE WELL ID
~Curve Information Block
#MNEM.UNIT         API CODE   Curve Description
#---------- ----------------  -----------------
DEPTH.FT                   :  
GR   .GAPI                 :  Merged WIRE with WIRE_ST at 6750.00 F
RT   .OHMM                 :  Merged WIRE with WIRE_ST at 6750.00 F
RHOB .G/C3                 :  Merged WIRE with WIRE_ST at 6750.00 F
NPHI .V/V                  :  Merged WIRE with WIRE_ST at 6750.00 F
~Parameter Information Block
#MNEM.UNIT            Value   Description
#---------- ----------------  -----------
PROJECT.            SERANG_FE:  
~Other Information Block
# 
~A       DEPTH             GR             RT           RHOB           NPHI 
# ...
       2711.00        65.2919         1.6571         2.1511       0.516400
       2711.50        67.4638         1.6464         2.1300       0.528700
       2712.00        68.3962         1.6358         2.1153       0.523300
       2712.50        68.0694         1.6399         2.1207       0.516500
       2713.00        66.8306         1.6536         2.1450       0.513200
       2713.50        65.9613         1.6638         2.1720       0.512100
       2714.00        65.8744         1.6650         2.1848       0.505400
       2714.50        66.1356         1.6647         2.1821       0.499000
       2715.00        66.2675         1.6560         2.1727       0.500400
       2715.50        65.9863         1.6507         2.1659       0.508900
       2716.00        65.0325         1.6523         2.1606       0.511100
       2716.50        63.8175         1.6639         2.1544       0.499600
       2717.00        63.2944         1.6688         2.1456       0.484800
       2717.50        63.8575         1.6687         2.1400       0.477900
       2718.00        66.1150         1.6683         2.1400       0.480900
       2718.50        68.6775         1.6746         2.1443       0.497200
       2719.00        69.9588         1.6826         2.1505       0.528800
       2719.50        69.9150         1.6843         2.1551       0.565100
       2720.00        69.3288         1.6807         2.1555       0.581700
       2720.50        69.4150         1.6833         2.1534       0.571100
       2721.00        70.3256         1.6894         2.1535       0.536700
       2721.50        70.9325         1.6910         2.1579       0.508200
       2722.00        70.6725         1.6823         2.1643       0.502200
       2722.50        69.5894         1.6730         2.1655       0.512800
       2723.00        68.8094         1.6676         2.1592       0.518400
       2723.50        68.9831         1.6706         2.1472       0.509400
       2724.00        70.2625         1.6707         2.1359       0.489500
       2724.50        72.1494         1.6755         2.1309       0.474300
       2725.00        73.9938         1.6705         2.1324       0.469900
       2725.50        75.1888         1.6641         2.1368       0.465200
       2726.00        75.6675         1.6523         2.1375       0.461100
       2726.50        76.0144         1.6450         2.1332       0.452800
       2727.00        76.7081         1.6450         2.1276       0.453800
       2727.50        77.4244         1.6451         2.1201       0.461700
       2728.00        77.3587         1.6487         2.1046       0.481700
       2728.50        76.2719         1.6475         2.0819       0.505200
       2729.00        74.7081         1.6481         2.0677       0.521300
       2729.50        73.2325         1.6481         2.0684       0.520900
       2730.00        71.8875         1.6481         2.0784       0.504600
       2730.50        70.4556         1.6449         2.0814       0.492600
       2731.00        69.0669         1.6374         2.0760       0.500900
       2731.50        68.1775         1.6269         2.0746       0.531900
       2732.00        68.1131         1.6295         2.0819       0.553600
       2732.50        68.8306         1.6422         2.0943       0.547500
       2733.00        70.1544         1.6714         2.1026       0.519300
       2733.50        71.5431         1.6825         2.1032       0.499700
       2734.00        72.5194         1.6849         2.0980       0.498100
       2734.50        73.1044         1.6762         2.0954       0.501300
       2735.00        73.7113         1.6700         2.0965       0.499900
       2735.50        74.6006         1.6631         2.0989       0.494000
       2736.00        75.5550         1.6549         2.1013       0.493500
       2736.50        76.0544         1.6431         2.1077       0.506000
       2737.00        76.1194         1.6344         2.1180       0.522700
       2737.50        76.0762         1.6325         2.1272       0.532400
       2738.00        76.2719         1.6375         2.1354       0.532400
       2738.50        76.7506         1.6500         2.1444       0.526700
       2739.00        76.8375         1.6631         2.1513       0.520100
       2739.50        76.2944         1.6681         2.1567       0.513100
       2740.00        75.2300         1.6662         2.1653       0.505300
       2740.50        74.4269         1.6594         2.1773       0.501400
       2741.00        74.4700         1.6556         2.1840       0.505600
       2741.50        75.4462         1.6550         2.1842       0.516300
       2742.00        76.7487         1.6556         2.1812       0.524700
       2742.50        77.6837         1.6569         2.1776       0.524700
       2743.00        77.9669         1.6569         2.1717       0.517000
       2743.50        77.8363         1.6525         2.1646       0.506300
       2744.00        77.2706         1.6469         2.1597       0.495900
       2744.50        76.4675         1.6444         2.1586       0.489900
       2745.00        75.6425         1.6481         2.1611       0.490400
       2745.50        75.0550         1.6518         2.1651       0.498100
       2746.00        75.0981         1.6537         2.1675       0.504400
       2746.50        76.0544         1.6500         2.1681       0.502600
       2747.00        77.9437         1.6451         2.1670       0.490600
       2747.50        80.0919         1.6388         2.1648       0.475000
       2748.00        81.5444         1.6277         2.1620       0.467800
       2748.50        81.6956         1.6127         2.1572       0.474600
       2749.00        80.7406         1.6076         2.1497       0.489600
       2749.50        79.1137         1.6081         2.1432       0.499700
       2750.00        77.0956         1.6143         2.1388       0.501000
       2750.50        74.6000         1.6150         2.1344       0.496500
       2751.00        71.8225         1.6138         2.1262       0.486300
       2751.50        69.5006         1.6119         2.1159       0.468800
       2752.00        68.1988         1.6106         2.1110       0.450200
       2752.50        67.8525         1.6119         2.1159       0.443800
       2753.00        68.0269         1.6211         2.1249       0.460200
       2753.50        68.8737         1.6372         2.1313       0.491800
       2754.00        70.4788         1.6454         2.1333       0.516400
       2754.50        72.6700         1.6456         2.1321       0.522800
       2755.00        74.9281         1.6389         2.1277       0.514100
       2755.50        76.7306         1.6327         2.1180       0.502200
       2756.00        77.9456         1.6313         2.1034       0.499200
       2756.50        78.8562         1.6373         2.0858       0.507600
       2757.00        79.8106         1.6509         2.0674       0.522100
       2757.50        80.6562         1.6622         2.0494       0.531600
       2758.00        80.6994         1.6637         2.0351       0.529400
       2758.50        79.6575         1.6534         2.0270       0.516400
       2759.00        77.6825         1.6404         2.0211       0.499000
       2759.50        75.5769         1.6303         2.0116       0.488700
       2760.00        73.8619         1.6221         1.9961       0.490100
       2760.50        72.4944         1.6164         1.9808       0.498600
       2761.00        71.2356         1.6157         1.9734       0.504900
       2761.50        70.0206         1.6205         1.9707       0.507700
       2762.00        69.2188         1.6230         1.9691       0.504800
       2762.50        69.2631         1.6237         1.9626       0.502400
       2763.00        70.2406         1.6219         1.9479       0.502600
       2763.50        71.5431         1.6249         1.9276       0.511300
       2764.00        72.4762         1.6334         1.9163       0.526700
