~Version Information Block
VERS .                  2.0:  CWLS LOG ASCII STANDARD - VERSION 2.0
WRAP .                   NO:  One line per depth step
~Well Information Block
#MNEM.UNIT        Data Type   Information
#---------- ----------------  -----------
STRT .FT             950.00:  START DEPTH
STOP .FT           11598.00:  STOP DEPTH
STEP .FT               0.50:  STEP
NULL .              -999.25:  NULL VALUE
COMP .                     :  COMPANY
WELL .          SA-32RD1ST1:  WELL
FLD  .                     :  FIELD
LOC  .                     :  LOCATION
CTRY .                     :  COUNTRY
STAT .                     :  STATE
CNTY .                     :  COUNTY
SRVC .                     :  SERVICE COMPANY
DATE .                     :  DATE
API  .                     :  API NUMBER
UWI  .                     :  UNIQUE WELL ID
~Curve Information Block
#MNEM.UNIT         API CODE   Curve Description
#---------- ----------------  -----------------
DEPTH.FT                   :  
GR   .GAPI                 :  Merged WIRE with WIRE_ST at 7550.00 F
RT   .OHMM                 :  Merged WIRE with WIRE_ST at 7550.00 F
RHOB .G/C3                 :  Merged WIRE with WIRE_ST at 7550.00 F
NPHI .V/V                  :  Merged WIRE with WIRE_ST at 7550.00 F
~Parameter Information Block
#MNEM.UNIT            Value   Description
#---------- ----------------  -----------
PROJECT.            SERANG_FE:  
~Other Information Block
# 
~A       DEPTH             GR             RT           RHOB           NPHI 
# ...
       8012.00        73.9300         1.7200         2.4000         0.4000
       8012.50        72.9200         1.7200         2.4200         0.3900
       8013.00        71.6500         1.7200         2.4500         0.3800
       8013.50        71.0200         1.8500         2.4600         0.4000
       8014.00        70.2900         1.8500         2.4500         0.3800
       8014.50        69.8300         1.9200         2.4200         0.3800
       8015.00        69.9200         1.9200         2.4300         0.3500
       8015.50        70.8300         1.9200         2.4300         0.3800
       8016.00        71.7400         1.9200         2.4300         0.3900
       8016.50        72.2900         1.8300         2.4000         0.3600
       8017.00        72.2900         1.8300         2.4000         0.3400
       8017.50        72.2900         1.8300         2.3900         0.3300
       8018.00        72.2900         1.8100         2.4200         0.3400
       8018.50        71.9200         1.8100         2.4300         0.3400
       8019.00        71.5600         1.8000         2.4500         0.3400
       8019.50        70.6500         1.8000         2.4400         0.3500
       8020.00        70.1100         1.7000         2.4200         0.3500
       8020.50        69.3800         1.7000         2.4200         0.3800
       8021.00        68.9200         1.7600         2.4100         0.4000
       8021.50        68.6500         1.7600         2.4200         0.3800
       8022.00        68.8300         1.7600         2.4100         0.3800
       8022.50        70.0200         1.7700         2.4100         0.3700
       8023.00        72.1100         1.7700         2.4100         0.3900
       8023.50        74.1100         1.7700         2.4100         0.3800
       8024.00        75.6500         1.7700         2.4100         0.3600
       8024.50        76.4700         1.6800         2.4200         0.3800
       8025.00        77.6500         1.6800         2.4300         0.3900
       8025.50        78.5600         1.6800         2.4400         0.4200
       8026.00        79.1100         1.5800         2.4100         0.3900
       8026.50        79.1100         1.5800         2.4000         0.3800
       8027.00        79.4700         1.5800         2.3800         0.4000
       8027.50        80.3800         1.5800         2.4000         0.4200
       8028.00        80.9300         1.6500         2.4000         0.4600
       8028.50        80.5600         1.6500         2.4200         0.4500
       8029.00        79.4700         1.7900         2.4400         0.4400
       8029.50        78.4700         1.7900         2.4200         0.3900
       8030.00        78.0200         1.8000         2.4100         0.3700
       8030.50        77.5600         1.8000         2.4100         0.3800
       8031.00        77.1100         1.7600         2.4300         0.3900
       8031.50        76.1100         1.7600         2.4300         0.3900
       8032.00        74.4700         1.6700         2.4300         0.3800
       8032.50        73.1100         1.6700         2.4400         0.3900
       8033.00        72.2900         1.6700         2.4400         0.4000
       8033.50        72.4700         7.7100         2.4400         0.3900
       8034.00        72.9200         7.7100         2.4300         0.3900
       8034.50        73.3800         1.7100         2.4300         0.3800
       8035.00        74.1100         1.7100         2.4500         0.4100
       8035.50        72.7400         2.0800         2.4500         0.4100
       8036.00        70.0200         2.0800         2.4400         0.4200
       8036.50        66.2900         2.0800         2.4900         0.4200
       8037.00        63.5600         3.1200         2.5500         0.3900
       8037.50        62.1900         3.1200         2.6300         0.3500
       8038.00        63.2000         1.5300         2.6400         0.3100
       8038.50        65.0100         1.5300         2.6300         0.3000
       8039.00        68.8300         1.9900         2.5600         0.3200
       8039.50        71.1100         1.9900         2.5200         0.3300
       8040.00        72.7400         1.7500         2.5000         0.3800
       8040.50        72.1100         1.7500         2.5300         0.3800
       8041.00        70.2900         1.7000         2.5300         0.3900
       8041.50        69.1100         1.7000         2.5200         0.3800
       8042.00        69.6500         1.6000         2.4700         0.3900
       8042.50        71.4700         1.6800         2.4500         0.4300
       8043.00        72.3800         1.6300         2.4400         0.4400
       8043.50        71.8300         1.5500         2.4700         0.4500
       8044.00        71.8300         1.4300         2.4900         0.4500
       8044.50        72.9200         1.4300         2.4600         0.4600
       8045.00        74.7400         1.4400         2.4400         0.4400
       8045.50        75.2000         1.4500         2.4300         0.5000
       8046.00        75.2900         1.5300         2.4600         0.4500
       8046.50        73.4700         1.5600         2.4500         0.4300
       8047.00        70.2900         1.9700         2.4700         0.3500
       8047.50        63.3700         2.8700         2.5200         0.2700
       8048.00        54.1000         6.1700         2.5900         0.2800
       8048.50        44.1000         8.4400         2.6300         0.1900
       8049.00        36.1900         9.5400         2.6500         0.1700
       8049.50        31.8300         9.6800         2.6400         0.1200
       8050.00        31.7300         9.7300         2.6200         0.1200
       8050.50        34.3700         9.7200         2.5800         0.1100
       8051.00        37.7400         9.4500         2.6000         0.1200
       8051.50        41.0100        10.4000         2.4900         0.1400
       8052.00        45.6500         9.6400         2.4200         0.1800
       8052.50        50.4700         5.4500         2.3300         0.1900
       8053.00        53.1900         4.4300         2.3200         0.1900
       8053.50        53.6500         4.1500         2.3000         0.2000
       8054.00        52.8300         3.2500         2.2800         0.2100
       8054.50        51.7400         2.8300         2.2400         0.2100
       8055.00        49.8300         2.6400         2.2400         0.2100
       8055.50        47.6500         2.4600         2.2300         0.2000
       8056.00        45.1000         2.0900         2.2100         0.1900
       8056.50        42.1900         1.9400         2.1800         0.1900
       8057.00        38.2800         1.8600         2.1300         0.2000
       8057.50        34.4600         1.7700         2.1100         0.2000
       8058.00        29.7300         1.6300         2.0800         0.2100
       8058.50        26.6400         1.4200         2.0900         0.2100
       8059.00        24.4600         1.2800         2.0800         0.2200
       8059.50        24.9200         1.2400         2.1000         0.2300
       8060.00        25.3700         1.2200         2.1000         0.2600
       8060.50        26.3700         1.2200         2.1100         0.2700
       8061.00        26.8200         1.2500         2.0900         0.2600
       8061.50        28.1900         1.2500         2.1000         0.2300
       8062.00        29.5500         1.2700         2.1300         0.2300
       8062.50        32.7300         1.3200         2.1800         0.2200
       8063.00        36.5500         1.3300         2.1700         0.2300
       8063.50        38.8300         1.3100         2.1600         0.2300
       8064.00        37.7400         1.2800         2.1300         0.2300
       8064.50        34.8300         1.2400         2.1300         0.2300
       8065.00        32.3700         1.2200         2.1100         0.2200
