~Version Information Block
VERS .                  2.0:  CWLS LOG ASCII STANDARD - VERSION 2.0
WRAP .                   NO:  One line per depth step
~Well Information Block
#MNEM.UNIT        Data Type   Information
#---------- ----------------  -----------
STRT .FT             950.00:  START DEPTH
STOP .FT           11598.00:  STOP DEPTH
STEP .FT               0.50:  STEP
NULL .              -999.25:  NULL VALUE
COMP .                     :  COMPANY
WELL .          SA-32RD1ST1:  WELL
FLD  .                     :  FIELD
LOC  .                     :  LOCATION
CTRY .                     :  COUNTRY
STAT .                     :  STATE
CNTY .                     :  COUNTY
SRVC .                     :  SERVICE COMPANY
DATE .                     :  DATE
API  .                     :  API NUMBER
UWI  .                     :  UNIQUE WELL ID
~Curve Information Block
#MNEM.UNIT         API CODE   Curve Description
#---------- ----------------  -----------------
DEPTH.FT                   :  
GR   .GAPI                 :  Merged WIRE with WIRE_ST at 7550.00 F
RT   .OHMM                 :  Merged WIRE with WIRE_ST at 7550.00 F
RHOB .G/C3                 :  Merged WIRE with WIRE_ST at 7550.00 F
NPHI .V/V                  :  Merged WIRE with WIRE_ST at 7550.00 F
~Parameter Information Block
#MNEM.UNIT            Value   Description
#---------- ----------------  -----------
PROJECT.            SERANG_FE:  
~Other Information Block
# 
~A       DEPTH             GR             RT           RHOB           NPHI 
# ...
       9456.50        77.2000         1.6800         2.4400         0.4000
       9457.00        78.1100         1.6800         2.4400         0.3600
       9457.50        80.2000         1.5800         2.4400         0.4000
       9458.00        81.8400         1.5800         2.4400         0.4600
       9458.50        83.2000         1.5200         2.4300         0.4700
       9459.00        83.2000         1.5200         2.4600         0.4500
       9459.50        82.8400         1.4900         2.4800         0.3700
       9460.00        81.9300         1.4600         2.4900         0.3800
       9460.50        81.0200         1.4600         2.4800         0.4000
       9461.00        80.1100         1.5700         2.4900         0.4200
       9461.50        79.2000         1.5700         2.4900         0.4300
       9462.00        77.8300         1.7600         2.4900         0.3600
       9462.50        76.1100         1.7600         2.4800         0.3600
       9463.00        73.8300         1.8200         2.4500         0.3300
       9463.50        70.2000         1.9800         2.4500         0.3700
       9464.00        66.9200         1.9800         2.4100         0.3600
       9464.50        64.2000         2.1800         2.4100         0.3400
       9465.00        64.2000         2.2600         2.3900         0.3100
       9465.50        64.5600         2.2400         2.4000         0.2800
       9466.00        65.4700         2.2400         2.4300         0.2900
       9466.50        64.5600         2.3400         2.4300         0.2700
       9467.00        62.3800         2.3400         2.4300         0.2700
       9467.50        58.2800         2.3400         2.3900         0.2500
       9468.00        54.5600         2.4600         2.3600         0.2500
       9468.50        51.2800         2.4600         2.3500         0.2500
       9469.00        50.3700         2.5200         2.3400         0.2400
       9469.50        50.5600         2.5200         2.3400         0.2200
       9470.00        52.3800         2.5200         2.3500         0.2100
       9470.50        54.8300         2.4900         2.3400         0.2100
       9471.00        58.3800         2.4600         2.3400         0.2300
       9471.50        61.2900         2.4600         2.3500         0.2400
       9472.00        63.9200         2.3900         2.3800         0.2600
       9472.50        65.7400         2.2900         2.4100         0.2700
       9473.00        67.2000         2.2900         2.4300         0.2800
       9473.50        67.5600         2.3300         2.4500         0.2800
       9474.00        67.1100         2.3900         2.4700         0.2800
       9474.50        66.8300         2.3900         2.4800         0.2700
       9475.00        65.9200         2.3700         2.4600         0.2600
       9475.50        64.8300         2.5500         2.4100         0.2600
       9476.00        63.4700         2.5500         2.3800         0.2500
       9476.50        62.6500         2.8000         2.3800         0.2300
       9477.00        61.2900         2.8000         2.4000         0.2300
       9477.50        59.0100         3.1300         2.4000         0.2200
       9478.00        56.3700         3.5600         2.3800         0.2200
       9478.50        53.3700         3.5600         2.2600         0.2000
       9479.00        51.1900         3.8300         2.1400         0.1800
       9479.50        49.7400         3.8300         2.0600         0.1600
       9480.00        48.8300         3.8300         2.0700         0.1600
       9480.50        48.6500         3.8300         2.1300         0.1600
       9481.00        49.0100         3.5800         2.1700         0.1800
       9481.50        50.2800         3.1100         2.2100         0.1800
       9482.00        51.7400         3.1100         2.2700         0.1800
       9482.50        53.2000         2.8500         2.3600         0.1900
       9483.00        54.5600         2.8500         2.4400         0.2200
       9483.50        54.5600         2.5100         2.4800         0.2400
       9484.00        53.6500         2.4000         2.4600         0.2500
       9484.50        51.9200         2.4000         2.4300         0.2500
       9485.00        51.0100         2.3600         2.3900         0.2500
       9485.50        50.4700         2.3000         2.3800         0.2300
       9486.00        50.8300         2.3000         2.3500         0.2200
       9486.50        51.7400         2.2700         2.3300         0.2200
       9487.00        53.5600         2.2700         2.3200         0.2400
       9487.50        55.3800         2.2700         2.3400         0.2400
       9488.00        56.6500         2.1900         2.4000         0.2300
       9488.50        57.5600         2.1900         2.4200         0.2300
       9489.00        57.6500         2.1800         2.4600         0.2300
       9489.50        57.9200         2.1800         2.4400         0.2300
       9490.00        57.9200         2.1400         2.4500         0.2300
       9490.50        58.3800         2.1400         2.3900         0.2400
       9491.00        58.6500         2.2500         2.4000         0.2600
       9491.50        58.8300         2.2000         2.4200         0.2600
       9492.00        59.2900         2.2000         2.4700         0.2500
       9492.50        60.2900         2.2000         2.4400         0.2500
       9493.00        61.9200         2.2300         2.4500         0.2700
       9493.50        63.6500         2.2300         2.4500         0.2600
       9494.00        65.3800         2.1500         2.4700         0.2500
       9494.50        66.8300         2.0800         2.4500         0.2400
       9495.00        68.7400         2.0800         2.4400         0.2600
       9495.50        69.7400         2.0100         2.4700         0.2700
       9496.00        69.6500         2.0100         2.4900         0.2900
       9496.50        68.3800         1.9300         2.4800         0.2700
       9497.00        66.9200         2.1900         2.4500         0.2600
       9497.50        66.0100         2.1900         2.4200         0.2800
       9498.00        65.4700         2.1900         2.4200         0.2900
       9498.50        65.8300         2.2600         2.4200         0.2800
       9499.00        67.6500         2.2600         2.4400         0.2500
       9499.50        69.4700         2.2600         2.4500         0.2500
       9500.00        72.2900         2.2400         2.4700         0.2800
       9500.50        73.6500         2.2400         2.4800         0.2900
       9501.00        75.0200         2.1600         2.4800         0.3000
       9501.50        75.7500         2.1600         2.4500         0.3000
       9502.00        77.5600         2.1000         2.4500         0.2800
       9502.50        79.2000         2.1000         2.4500         0.2800
       9503.00        79.8400         1.8800         2.4900         0.3100
       9503.50        80.1100         1.8800         2.4700         0.3300
       9504.00        81.6600         1.7800         2.4600         0.3200
       9504.50        84.5700         1.7800         2.4400         0.3000
       9505.00        88.3800         1.9200         2.4800         0.3000
       9505.50        93.6600         1.9200         2.4400         0.3500
       9506.00       101.6600         2.0400         2.3600         0.3700
       9506.50       109.6700         2.0400         2.2600         0.4100
       9507.00       117.5800         2.9400         2.1900         0.4200
       9507.50       121.8500         2.9400         2.1400         0.4700
       9508.00       124.7500         3.6000         2.1200         0.4700
       9508.50       122.4800         3.6000         2.1300         0.5000
       9509.00       115.9300         3.0700         2.1300         0.4900
       9509.50       106.3800         3.0700         2.1600         0.5000
