~Version Information Block
VERS .                  2.0:  CWLS LOG ASCII STANDARD - VERSION 2.0
WRAP .                   NO:  One line per depth step
~Well Information Block
#MNEM.UNIT        Data Type   Information
#---------- ----------------  -----------
STRT .FT             950.00:  START DEPTH
STOP .FT           11637.50:  STOP DEPTH
STEP .FT               0.50:  STEP
NULL .              -999.25:  NULL VALUE
COMP .                     :  COMPANY
WELL .                SA-32:  WELL
FLD  .                     :  FIELD
LOC  .                     :  LOCATION
CTRY .                     :  COUNTRY
STAT .                     :  STATE
CNTY .                     :  COUNTY
SRVC .                     :  SERVICE COMPANY
DATE .                     :  DATE
API  .                     :  API NUMBER
UWI  .                     :  UNIQUE WELL ID
~Curve Information Block
#MNEM.UNIT         API CODE   Curve Description
#---------- ----------------  -----------------
DEPTH.FT                   :  DEPTH
GR   .GAPI                 :  Gamma Ray
RT   .OHMM                 :  Deep resistivity
RHOB .G/C3                 :  Bulk density
NPHI .V/V                  :  NEUT*100
~Parameter Information Block
#MNEM.UNIT            Value   Description
#---------- ----------------  -----------
PROJECT.            SERANG_FE:  
~Other Information Block
# 
~A       DEPTH             GR             RT           RHOB           NPHI 
# ...
      11596.50        79.8150         2.6700         2.5100       0.230000
      11597.00        86.3240         2.6300         2.5000       0.240000
      11597.50        91.5330         2.4400         2.4900       0.240000
      11598.00        91.1240         2.3800         2.4900       0.240000
      11598.50        89.3960         2.3000         2.5200       0.240000
      11599.00        88.5320         2.3000         2.5500       0.250000
      11599.50        87.6940         2.4100         2.5500       0.260000
      11600.00        86.0740         2.3800         2.5400       0.260000
      11600.50        82.1870         2.3400         2.5200       0.260000
      11601.00        79.5120         2.3800         2.5000       0.230000
      11601.50        77.2440         2.3800         2.5000    -999.250000
      11602.00        79.4040         2.4100         2.5000    -999.250000
      11602.50        82.5110         2.5200         2.5100    -999.250000
      11603.00        83.3750         2.6400         2.5200    -999.250000
      11603.50        78.1910         2.6400         2.5100    -999.250000
      11604.00        69.9830         2.9700         2.5100    -999.250000
      11604.50        59.8580         3.5300      -999.2500    -999.250000
      11605.00        50.8490         4.3900      -999.2500    -999.250000
      11605.50        43.9380         4.7000      -999.2500    -999.250000
      11606.00        41.5350         4.6800      -999.2500    -999.250000
      11606.50        43.6310         4.5100      -999.2500    -999.250000
      11607.00        48.7400         4.2900      -999.2500    -999.250000
      11607.50        52.6280         4.0100      -999.2500    -999.250000
      11608.00        54.4360         3.8600      -999.2500    -999.250000
      11608.50        53.2980         3.5800      -999.2500    -999.250000
      11609.00        52.0020         3.4900      -999.2500    -999.250000
      11609.50        51.9220         3.3900      -999.2500    -999.250000
      11610.00        53.8220         3.3100      -999.2500    -999.250000
      11610.50        56.8460         3.3500      -999.2500    -999.250000
      11611.00        57.2780         3.3600      -999.2500    -999.250000
      11611.50        56.7330         3.4700      -999.2500    -999.250000
      11612.00        57.4980         3.4500      -999.2500    -999.250000
      11612.50        60.9540         3.4000      -999.2500    -999.250000
      11613.00        66.1120         3.3300      -999.2500    -999.250000
      11613.50        70.9630         3.4300      -999.2500    -999.250000
      11614.00        75.7150         3.3300      -999.2500    -999.250000
      11614.50        78.0770         3.2400      -999.2500    -999.250000
      11615.00        78.9410         3.1500      -999.2500    -999.250000
      11615.50        78.5090         3.0800      -999.2500    -999.250000
      11616.00        75.8810         3.1200      -999.2500    -999.250000
      11616.50        72.4250         3.1800      -999.2500    -999.250000
      11617.00        70.6320         3.1400      -999.2500    -999.250000
      11617.50        73.3740         3.1400      -999.2500    -999.250000
      11618.00        76.9570         3.0200      -999.2500    -999.250000
      11618.50        78.7500         2.9200      -999.2500    -999.250000
      11619.00        78.7500         2.8000      -999.2500    -999.250000
      11619.50        78.9460         2.7100      -999.2500    -999.250000
      11620.00        80.8340         2.6100      -999.2500    -999.250000
      11620.50        85.0160         2.6500      -999.2500    -999.250000
      11621.00        88.5810         2.6300      -999.2500    -999.250000
      11621.50        91.0120         2.5300      -999.2500    -999.250000
      11622.00        88.9900         2.6500      -999.2500    -999.250000
      11622.50        87.1160         2.7000      -999.2500    -999.250000
      11623.00        86.2520         2.5700      -999.2500    -999.250000
      11623.50        88.7970         2.3800      -999.2500    -999.250000
      11624.00        91.9990         2.3200      -999.2500    -999.250000
      11624.50        91.4500         2.2700      -999.2500    -999.250000
      11625.00        89.7690         2.3000      -999.2500    -999.250000
      11625.50        88.4410         2.3300      -999.2500    -999.250000
      11626.00        89.4220         2.2100      -999.2500    -999.250000
      11626.50        89.8540         2.1700      -999.2500    -999.250000
      11627.00        89.0720         2.2800      -999.2500    -999.250000
      11627.50        87.5180         2.2400      -999.2500    -999.250000
      11628.00        87.9500         2.2300      -999.2500    -999.250000
      11628.50        90.4600         2.3200      -999.2500    -999.250000
      11629.00        94.6060         2.2600      -999.2500    -999.250000
      11629.50        95.4700         2.2400      -999.2500    -999.250000
      11630.00        40.4340         2.2200      -999.2500    -999.250000
      11630.50      -999.2500         2.2300      -999.2500    -999.250000
      11631.00      -999.2500         2.2000      -999.2500    -999.250000
      11631.50      -999.2500         2.1600      -999.2500    -999.250000
      11632.00      -999.2500         2.1900      -999.2500    -999.250000
      11632.50      -999.2500         2.2100      -999.2500    -999.250000
      11633.00      -999.2500         2.1700      -999.2500    -999.250000
      11633.50      -999.2500         2.1500      -999.2500    -999.250000
      11634.00      -999.2500         2.1900      -999.2500    -999.250000
      11634.50      -999.2500         2.1900      -999.2500    -999.250000
      11635.00      -999.2500         2.1700      -999.2500    -999.250000
      11635.50      -999.2500         2.1300      -999.2500    -999.250000
      11636.00      -999.2500         2.1100      -999.2500    -999.250000
      11636.50      -999.2500         2.2100      -999.2500    -999.250000
      11637.00      -999.2500         2.2300      -999.2500    -999.250000
      11637.50      -999.2500         2.3500      -999.2500    -999.250000
