~Version Information Block
VERS .                  2.0:  CWLS LOG ASCII STANDARD - VERSION 2.0
WRAP .                   NO:  One line per depth step
~Well Information Block
#MNEM.UNIT        Data Type   Information
#---------- ----------------  -----------
STRT .FT             950.00:  START DEPTH
STOP .FT           11598.00:  STOP DEPTH
STEP .FT               0.50:  STEP
NULL .              -999.25:  NULL VALUE
COMP .                     :  COMPANY
WELL .          SA-32RD1ST1:  WELL
FLD  .                     :  FIELD
LOC  .                     :  LOCATION
CTRY .                     :  COUNTRY
STAT .                     :  STATE
CNTY .                     :  COUNTY
SRVC .                     :  SERVICE COMPANY
DATE .                     :  DATE
API  .                     :  API NUMBER
UWI  .                     :  UNIQUE WELL ID
~Curve Information Block
#MNEM.UNIT         API CODE   Curve Description
#---------- ----------------  -----------------
DEPTH.FT                   :  
GR   .GAPI                 :  Merged WIRE with WIRE_ST at 7550.00 F
RT   .OHMM                 :  Merged WIRE with WIRE_ST at 7550.00 F
RHOB .G/C3                 :  Merged WIRE with WIRE_ST at 7550.00 F
NPHI .V/V                  :  Merged WIRE with WIRE_ST at 7550.00 F
~Parameter Information Block
#MNEM.UNIT            Value   Description
#---------- ----------------  -----------
PROJECT.            SERANG_FE:  
~Other Information Block
# 
~A       DEPTH             GR             RT           RHOB           NPHI 
# ...
       7316.50        81.5300         1.1400         2.3500         0.3400
       7317.00        88.5000         1.2000         2.3900         0.3400
       7317.50        91.9600         1.2200         2.3900         0.3500
       7318.00        93.7100         1.2500         2.3500         0.3600
       7318.50        94.4100         1.2500         2.3600         0.3800
       7319.00        94.7900         1.2500         2.3200         0.4000
       7319.50        94.2800         1.3400         2.3400         0.3700
       7320.00        94.3500         1.4200         2.3100         0.3200
       7320.50        95.0500         1.4400         2.3700         0.3000
       7321.00        96.6400         1.4400         2.3400         0.3300
       7321.50        98.0200         1.4400         2.3200         0.3600
       7322.00        96.8200         1.4700         2.2700         0.3400
       7322.50        94.8800         1.4700         2.3100         0.3400
       7323.00        90.9100         1.5200         2.3600         0.3100
       7323.50        85.4900         1.5900         2.4200         0.3200
       7324.00        80.7500         1.6200         2.4200         0.2800
       7324.50        78.7300         1.7300         2.4100         0.2700
       7325.00        80.6200         1.7300         2.4200         0.2400
       7325.50        83.4000         1.7600         2.4000         0.2600
       7326.00        85.2900         1.8500         2.3800         0.2600
       7326.50        86.2900         1.9100         2.3800         0.2700
       7327.00        86.6600         1.9100         2.3900         0.2600
       7327.50        86.6600         1.9300         2.3900         0.2700
       7328.00        85.3400         1.9300         2.3800         0.2700
       7328.50        83.8300         1.9300         2.3800         0.2800
       7329.00        81.8100         1.9200         2.3900         0.2900
       7329.50        81.1900         1.9000         2.3900         0.2900
       7330.00        80.5600         1.8900         2.3800         0.2900
       7330.50        79.9400         1.9000         2.3800         0.2800
       7331.00        78.6200         1.8900         2.3900         0.2800
       7331.50        77.2900         1.8900         2.3800         0.2500
       7332.00        76.8000         1.8800         2.3500         0.2400
       7332.50        77.9900         1.8500         2.3300         0.2400
       7333.00        78.9900         1.8300         2.3200         0.2500
       7333.50        79.5400         1.8100         2.3200         0.2600
       7334.00        79.0300         1.7800         2.3400         0.2500
       7334.50        78.7100         1.7800         2.3500         0.2400
       7335.00        78.5400         1.7200         2.3500         0.2400
       7335.50        79.2400         1.6900         2.3300         0.2400
       7336.00        78.4300         1.6600         2.3300         0.2600
       7336.50        76.7800         1.6000         2.3200         0.2800
       7337.00        73.4600         1.6000         2.3300         0.3200
       7337.50        71.6500         1.5500         2.2900         0.3200
       7338.00        70.8400         1.5100         2.2500         0.3200
       7338.50        69.6300         1.5100         2.1800         0.3000
       7339.00        68.1000         1.4900         2.1500         0.2900
       7339.50        66.5700         1.4900         2.1400         0.2700
       7340.00        65.8900         1.5100         2.1300         0.2400
       7340.50        65.5300         1.5100         2.2000         0.2400
       7341.00        65.2900         1.5500         2.2300         0.2800
       7341.50        66.6700         1.5500         2.3000         0.2900
       7342.00        69.1800         1.5900         2.3100         0.2700
       7342.50        72.9000         1.5800         2.3200         0.2600
       7343.00        74.3500         1.4800         2.3600         0.2800
       7343.50        74.6700         1.4100         2.2800         0.3000
       7344.00        72.3500         1.4100         2.2900         0.2700
       7344.50        69.4300         1.3000         2.2800         0.2500
       7345.00        64.9600         1.2800         2.2900         0.2700
       7345.50        59.9100         1.1400         2.2200         0.3000
       7346.00        56.4600         1.0700         2.1800         0.3200
       7346.50        54.0600         1.0700         2.1200         0.3100
       7347.00        53.1100         0.9800         2.1200         0.3100
       7347.50        51.0400         1.0400         2.1200         0.3300
       7348.00        50.6000         1.1800         2.1300         0.3300
       7348.50        51.3000         1.3700         2.1100         0.3200
       7349.00        53.1400         1.6000         2.1300         0.3300
       7349.50        62.3400         1.6000         2.0800         0.3400
       7350.00        78.6500         1.7300         2.1100         0.3600
       7350.50       102.3800         1.9600         1.9700         0.4000
       7351.00       133.4100         2.7400         1.9200         0.4100
       7351.50       156.6300         1.9100         1.8900         0.4900
       7352.00       175.7200         1.4000         2.0100         0.5100
       7352.50       179.0000         1.4000         2.1300         0.6100
       7353.00       186.1200         1.4000         2.1500         0.5800
       7353.50       196.6900         1.9900         2.0800         0.5800
       7354.00       211.7900         2.1000         2.0200         0.4400
       7354.50       223.0500         2.1600         1.9900         0.3600
       7355.00       230.5000         2.1600         1.9800         0.3500
       7355.50       233.4100         2.6700         1.9400         0.4800
       7356.00       237.9400         2.6700         1.8500         0.7200
       7356.50       240.7000         3.1800         1.7900         0.9400
       7357.00       244.1500         3.2100         1.7800         0.8600
       7357.50       245.4700         3.1500         1.8100         0.7900
       7358.00       245.6600         2.1000         1.8700         0.7500
       7358.50       245.1500         2.2900         1.9400         0.7100
       7359.00       248.3000         2.2900         2.0100         0.6600
       7359.50       246.3500         2.3200         2.0200         0.6300
       7360.00       243.0300         2.6600         2.0500         0.6000
       7360.50       236.5500         2.4000         1.9800         0.5800
       7361.00       232.1500         2.4000         1.9000         0.5800
       7361.50       229.1300         2.0000         1.8200         0.6100
       7362.00       226.1100         2.0000         1.8400         0.6400
       7362.50       226.1100         2.0000         1.8700         0.6400
       7363.00       224.9000         2.0000         1.9600         0.6500
       7363.50       222.5700         1.9600         1.9700         0.5800
       7364.00       220.2300         1.9600         2.0300         0.5300
       7364.50       222.9500         2.0100         2.0000         0.4900
       7365.00       226.8000         2.0100         1.9900         0.4900
       7365.50       230.6400         2.7600         1.9600         0.5000
       7366.00       229.3700         2.7600         1.9800         0.5100
       7366.50       228.1100         1.9200         1.9800         0.5400
       7367.00       225.6500         1.9800         2.0100         0.5300
       7367.50       221.5000         1.9800         2.0400         0.5800
       7368.00       212.6700         2.2600         2.1200         0.6500
       7368.50       205.0300         1.5500         2.1600         0.6900
       7369.00       196.0700         1.7900         2.1700         0.6000
       7369.50       191.7900         1.7900         2.1600         0.5700
