~Version Information Block
VERS .                  2.0:  CWLS LOG ASCII STANDARD - VERSION 2.0
WRAP .                   NO:  One line per depth step
~Well Information Block
#MNEM.UNIT        Data Type   Information
#---------- ----------------  -----------
STRT .FT             950.00:  START DEPTH
STOP .FT           11598.00:  STOP DEPTH
STEP .FT               0.50:  STEP
NULL .              -999.25:  NULL VALUE
COMP .                     :  COMPANY
WELL .          SA-32RD1ST1:  WELL
FLD  .                     :  FIELD
LOC  .                     :  LOCATION
CTRY .                     :  COUNTRY
STAT .                     :  STATE
CNTY .                     :  COUNTY
SRVC .                     :  SERVICE COMPANY
DATE .                     :  DATE
API  .                     :  API NUMBER
UWI  .                     :  UNIQUE WELL ID
~Curve Information Block
#MNEM.UNIT         API CODE   Curve Description
#---------- ----------------  -----------------
DEPTH.FT                   :  
GR   .GAPI                 :  Merged WIRE with WIRE_ST at 7550.00 F
RT   .OHMM                 :  Merged WIRE with WIRE_ST at 7550.00 F
RHOB .G/C3                 :  Merged WIRE with WIRE_ST at 7550.00 F
NPHI .V/V                  :  Merged WIRE with WIRE_ST at 7550.00 F
~Parameter Information Block
#MNEM.UNIT            Value   Description
#---------- ----------------  -----------
PROJECT.            SERANG_FE:  
~Other Information Block
# 
~A       DEPTH             GR             RT           RHOB           NPHI 
# ...
       8707.50        91.1100         2.0600         2.5200         0.5000
       8708.00        91.3800         2.0600         2.4900         0.4800
       8708.50        91.0200         2.0100         2.5000         0.4900
       8709.00        90.1100         2.0100         2.5100         0.4900
       8709.50        91.2000         3.3000         2.5900         0.4400
       8710.00        92.6500         3.3000         2.6000         0.3900
       8710.50        94.6500         2.4500         2.5900         0.3200
       8711.00        94.6500         2.4500         2.5700         0.3100
       8711.50        94.6500         2.4500         2.5200         0.3100
       8712.00        89.9300         2.6200         2.4800         0.3500
       8712.50        84.8300         2.6200         2.4600         0.3700
       8713.00        79.2000         3.0000         2.4500         0.3700
       8713.50        78.2900         3.0000         2.4600         0.3200
       8714.00        76.6500         3.1900         2.4800         0.2800
       8714.50        73.9200         3.1900         2.5000         0.2600
       8715.00        70.8300         3.1900         2.4900         0.2500
       8715.50        68.2900         3.1800         2.4500         0.2200
       8716.00        67.2000         3.1800         2.4000         0.2300
       8716.50        66.2000         3.1900         2.3800         0.2300
       8717.00        66.2900         3.1900         2.3800         0.2400
       8717.50        66.5600         3.1900         2.3800         0.2100
       8718.00        67.9300         3.1900         2.3500         0.2300
       8718.50        69.1100         3.1900         2.3200         0.2300
       8719.00        70.2900         3.1900         2.3200         0.2500
       8719.50        69.8300         3.6100         2.3000         0.2300
       8720.00        68.4700         3.9200         2.2800         0.2400
       8720.50        66.2900         3.9200         2.2400         0.2600
       8721.00        64.9200         3.9200         2.2300         0.2600
       8721.50        64.1000         4.1700         2.2400         0.2500
       8722.00        64.1000         4.1700         2.2500         0.2100
       8722.50        65.0200         4.2800         2.2500         0.2000
       8723.00        67.2900         4.2800         2.2300         0.2100
       8723.50        71.0200         4.5300         2.2100         0.2000
       8724.00        76.0200         4.5300         2.1900         0.2100
       8724.50        82.3900         4.8400         2.1700         0.2000
       8725.00        91.3900         4.8400         2.1600         0.2100
       8725.50        98.2100         4.8400         2.1700         0.2100
       8726.00       110.0200         4.3400         2.1900         0.2300
       8726.50       121.3900         4.3400         2.2300         0.2500
       8727.00       138.2100         3.7500         2.2400         0.3300
       8727.50       149.4900         3.7500         2.2400         0.3400
       8728.00       160.4000         3.6000         2.2100         0.4400
       8728.50       168.4100         3.6000         2.2300         0.4800
       8729.00       178.0400         3.3500         2.2100         0.5400
       8729.50       185.8600         3.3500         2.2100         0.5300
       8730.00       193.3200         3.6900         2.1900         0.5000
       8730.50       196.9500         3.6900         2.1900         0.4900
       8731.00       202.0400         3.6900         2.1700         0.5500
       8731.50       209.3200         3.7100         2.1300         0.6700
       8732.00       218.0500         3.7100         2.0900         0.6600
       8732.50       223.8700         4.0700         2.0900         0.5800
       8733.00       227.5000         4.0700         2.0900         0.5100
       8733.50       228.5900         3.1900         2.0900         0.5700
       8734.00       228.0500         3.1900         2.0600         0.5900
       8734.50       221.8600         3.7700         2.0400         0.5800
       8735.00       211.5900         3.7700         2.0800         0.5500
       8735.50       202.9500         3.6700         2.1300         0.5000
       8736.00       194.5900         3.3300         2.1800         0.4800
       8736.50       194.5000         3.3300         2.0900         0.4600
       8737.00       194.4100         7.1100         2.0500         0.5000
       8737.50       202.1300         7.1100         1.9300         0.5600
       8738.00       210.9600         7.1100         1.8100         0.6000
       8738.50       226.0500        11.0500         1.6600         0.6900
       8739.00       238.6900        11.0500         1.5700         0.7000
       8739.50       250.4200        11.0500         1.5400         0.8700
       8740.00       253.3300         7.1100         1.6100         0.7400
       8740.50       250.2400         7.1100         1.7300         0.6500
       8741.00       241.5000         3.9200         1.8700         0.5700
       8741.50       231.7700         3.9200         1.9800         0.5500
       8742.00       223.6800         2.3400         2.0300         0.5400
       8742.50       214.6800         2.3400         2.0500         0.5300
       8743.00       209.0500         2.3400         2.0300         0.5500
       8743.50       205.3200         4.0400         2.0300         0.5600
       8744.00       201.4000         4.0400         2.0500         0.6100
       8744.50       192.4900         3.0200         2.0800         0.5700
       8745.00       179.8500         3.0200         2.1500         0.5600
       8745.50       164.6700         3.2100         2.1800         0.5200
       8746.00       150.1200         3.2100         2.2300         0.5100
       8746.50       132.7500         2.5800         2.2500         0.5100
       8747.00       119.0200         2.5800         2.2900         0.5300
       8747.50       106.3000         2.1700         2.3500         0.4500
       8748.00        99.2900         2.1700         2.4400         0.3800
       8748.50        93.0200         2.1000         2.5000         0.3300
       8749.00        90.1100         2.1000         2.5000         0.3000
       8749.50        88.0200         1.7200         2.5100         0.3000
       8750.00        87.2000         1.7200         2.5100         0.3100
       8750.50        86.0200         1.7200         2.5100         0.3300
       8751.00        84.7500         1.8100         2.5000         0.3300
       8751.50        83.2900         1.8100         2.5300         0.3100
       8752.00        82.3800         1.8000         2.5300         0.3200
       8752.50        81.8400         1.5700         2.5400         0.3400
       8753.00        82.0200         1.5700         2.5200         0.3700
       8753.50        82.4700         1.6300         2.5200         0.4000
       8754.00        83.2900         1.6300         2.5000         0.4100
       8754.50        84.4700         1.6000         2.5000         0.3800
       8755.00        85.3800         1.6000         2.4900         0.3800
       8755.50        85.9300         1.8600         2.5000         0.3600
       8756.00        85.7500         1.8600         2.4700         0.3900
       8756.50        85.2900         1.8500         2.4800         0.3500
       8757.00        84.2900         1.8500         2.4700         0.3500
       8757.50        82.6500         1.9000         2.4600         0.3500
       8758.00        81.4700         1.9000         2.4400         0.3900
       8758.50        81.1100         1.8100         2.4400         0.4100
       8759.00        81.7500         1.8100         2.4400         0.4300
       8759.50        82.4700         1.8200         2.4600         0.3900
       8760.00        83.1100         1.8200         2.4600         0.3700
       8760.50        83.5600         1.7900         2.4700         0.3500
