~Version Information Block
VERS .                  2.0:  CWLS LOG ASCII STANDARD - VERSION 2.0
WRAP .                   NO:  One line per depth step
~Well Information Block
#MNEM.UNIT        Data Type   Information
#---------- ----------------  -----------
STRT .FT             410.50:  START DEPTH
STOP .FT           11980.00:  STOP DEPTH
STEP .FT               0.50:  STEP
NULL .              -999.25:  NULL VALUE
COMP .                     :  COMPANY
WELL .             SA-35ST1:  WELL
FLD  .                     :  FIELD
LOC  .                     :  LOCATION
CTRY .                     :  COUNTRY
STAT .                     :  STATE
CNTY .                     :  COUNTY
SRVC .                     :  SERVICE COMPANY
DATE .                     :  DATE
API  .                     :  API NUMBER
UWI  .                     :  UNIQUE WELL ID
~Curve Information Block
#MNEM.UNIT         API CODE   Curve Description
#---------- ----------------  -----------------
DEPTH.FT                   :  
GR   .GAPI                 :  Merged WIRE with WIRE_ST at 6750.00 F
RT   .OHMM                 :  Merged WIRE with WIRE_ST at 6750.00 F
RHOB .G/C3                 :  Merged WIRE with WIRE_ST at 6750.00 F
NPHI .V/V                  :  Merged WIRE with WIRE_ST at 6750.00 F
~Parameter Information Block
#MNEM.UNIT            Value   Description
#---------- ----------------  -----------
PROJECT.            SERANG_FE:  
~Other Information Block
# 
~A       DEPTH             GR             RT           RHOB           NPHI 
# ...
      11217.50        31.1700         2.7700         2.2900       0.220000
      11218.00        30.4700         2.2300         2.3100       0.220000
      11218.50        29.7900         2.0800         2.3200       0.220000
      11219.00        29.1000         2.0000         2.3000       0.220000
      11219.50        28.4300         1.8600         2.2800       0.220000
      11220.00        27.7700         1.8000         2.2900       0.220000
      11220.50        29.2300         1.8000         2.3200       0.230000
      11221.00        30.6900         1.8000         2.3600       0.230000
      11221.50        32.1600         1.8700         2.3800       0.230000
      11222.00        33.6200         1.9300         2.3800       0.230000
      11222.50        35.0800         2.0100         2.3800       0.220000
      11223.00        36.5500         2.0800         2.3900       0.230000
      11223.50        38.0100         2.1500         2.4100       0.220000
      11224.00        39.4800         2.2400         2.4300       0.220000
      11224.50        40.9400         2.3200         2.4400       0.220000
      11225.00        41.7500         2.4000         2.4400       0.220000
      11225.50        42.5600         2.4900         2.4700       0.230000
      11226.00        47.7500         2.5800         2.4900       0.230000
      11226.50        52.9500         2.6800         2.5200       0.250000
      11227.00        53.8700         2.7700         2.5200       0.250000
      11227.50        54.7900         2.8300         2.5100       0.250000
      11228.00        55.7400         2.8800         2.5100       0.250000
      11228.50        56.6800         2.8700         2.5100       0.260000
      11229.00        57.6200         2.8600         2.5100       0.260000
      11229.50        58.5700         2.8500         2.5100       0.260000
      11230.00        59.5400         2.8400         2.5100       0.260000
      11230.50        60.5000         2.8300         2.5300       0.260000
      11231.00        59.5400         2.8200         2.5100       0.260000
      11231.50        58.5700         2.8000         2.5000       0.260000
      11232.00        62.4700         2.7900         2.4800       0.260000
      11232.50        60.5200         2.7800         2.5100       0.260000
      11233.00        58.5700         2.7700         2.5000       0.260000
      11233.50        62.4700         2.7700         2.4800       0.270000
      11234.00        58.5700         2.7200         2.4600       0.270000
      11234.50        60.5000         2.6800         2.4800       0.260000
      11235.00        60.5000         2.6800         2.5000       0.260000
      11235.50        62.4700         2.6800         2.5100       0.260000
      11236.00        65.5200         2.6800         2.5100       0.270000
      11236.50        68.5600         2.6800         2.5300       0.280000
      11237.00        67.5300         2.6800         2.5400       0.290000
      11237.50        66.5000         2.6800         2.5500       0.290000
      11238.00        67.5300         2.6300         2.5300       0.300000
      11238.50        68.5600         2.5800         2.5300       0.300000
      11239.00        68.5600         2.5800         2.5200       0.300000
      11239.50        68.5600         2.5800         2.5400       0.300000
      11240.00        68.5600         2.6800         2.5200       0.300000
      11240.50        70.6700         2.6300         2.5300       0.290000
      11241.00        72.7800         2.5800         2.5200       0.290000
      11241.50        70.6700         2.4900         2.5100       0.280000
      11242.00        68.5600         2.5800         2.5200       0.270000
      11242.50        66.5200         2.6800         2.5100       0.270000
      11243.00        64.4700         2.7700         2.5400       0.270000
      11243.50        63.4700         2.7700         2.5400       0.260000
      11244.00        62.4700         2.7700         2.5400       0.260000
      11244.50        62.4700         2.7700         2.5300       0.250000
      11245.00        62.4700         2.8300         2.5200       0.250000
      11245.50        62.4700         2.8800         2.5400       0.250000
      11246.00        59.5700         2.8400         2.5400       0.250000
      11246.50        56.6600         2.8100         2.5100       0.250000
      11247.00        57.3000         2.7700         2.4900       0.250000
      11247.50        57.9300         2.7700         2.4800       0.250000
      11248.00        58.5700         2.7700         2.5100       0.250000
      11248.50        58.5700         2.7700         2.5500       0.240000
      11249.00        58.5700         2.7700         2.5600       0.250000
      11249.50        59.8700         2.7700         2.5500       0.250000
      11250.00        61.1700         2.7700         2.5200       0.260000
      11250.50        62.4700         2.7700         2.5100       0.270000
      11251.00        60.5000         2.8800         2.5000       0.270000
      11251.50        62.4700         2.8800         2.5100       0.280000
      11252.00        63.4700         2.8800         2.5300       0.270000
      11252.50        64.4700         2.8800         2.5200       0.270000
      11253.00        64.4700         2.8800         2.5300       0.270000
      11253.50        64.4700         2.8800         2.5200       0.280000
      11254.00        64.4700         2.8800         2.5400       0.280000
      11254.50        64.4700         2.8800         2.5400       0.280000
      11255.00        66.5200         2.8800         2.5300       0.270000
      11255.50        68.5600         2.8300         2.5200       0.290000
      11256.00        68.5600         2.7700         2.5300       0.290000
      11256.50        68.5600         2.7700         2.5700       0.300000
      11257.00        67.5300         2.7700         2.5700       0.280000
      11257.50        66.5000         2.7100         2.5800       0.280000
      11258.00        67.1900         2.6500         2.5700       0.280000
      11258.50        67.8800         2.5800         2.5600       0.290000
      11259.00        68.5600         2.5800         2.5500       0.310000
      11259.50        71.7500         2.5800         2.5300       0.310000
      11260.00        74.9400         2.5800         2.5500       0.300000
      11260.50        73.8600         2.5800         2.5600       0.290000
      11261.00        72.7800         2.5800         2.5800       0.300000
      11261.50        70.6700         2.6800         2.6000       0.310000
      11262.00        68.5600         2.6800         2.5700       0.300000
      11262.50        65.8800         2.7700         2.5700       0.280000
      11263.00        63.1900         2.8300         2.5600       0.270000
      11263.50        60.5000         2.8800         2.5800       0.250000
      11264.00        56.7300         3.0400         2.5600       0.230000
      11264.50        52.9500         3.2100         2.5100       0.210000
      11265.00        53.5600         3.1500         2.5200       0.210000
      11265.50        54.1800         3.0900         2.5300       0.220000
      11266.00        54.7900         3.0900         2.5300       0.230000
      11266.50        59.6300         3.0900         2.5100       0.240000
      11267.00        64.4700         3.0900         2.5100       0.250000
      11267.50        63.4700         3.0900         2.5200       0.250000
      11268.00        62.4700         3.0900         2.5400       0.250000
      11268.50        60.5200         3.0400         2.5200       0.240000
      11269.00        58.5700         2.9800         2.5400       0.240000
      11269.50        60.5200         2.9500         2.5400       0.240000
      11270.00        62.4700         2.9100         2.5500       0.250000
      11270.50        52.9500         2.8800         2.5500       0.250000
