~Version Information Block
VERS .                  2.0:  CWLS LOG ASCII STANDARD - VERSION 2.0
WRAP .                   NO:  One line per depth step
~Well Information Block
#MNEM.UNIT        Data Type   Information
#---------- ----------------  -----------
STRT .FT             950.00:  START DEPTH
STOP .FT           11637.50:  STOP DEPTH
STEP .FT               0.50:  STEP
NULL .              -999.25:  NULL VALUE
COMP .                     :  COMPANY
WELL .                SA-32:  WELL
FLD  .                     :  FIELD
LOC  .                     :  LOCATION
CTRY .                     :  COUNTRY
STAT .                     :  STATE
CNTY .                     :  COUNTY
SRVC .                     :  SERVICE COMPANY
DATE .                     :  DATE
API  .                     :  API NUMBER
UWI  .                     :  UNIQUE WELL ID
~Curve Information Block
#MNEM.UNIT         API CODE   Curve Description
#---------- ----------------  -----------------
DEPTH.FT                   :  DEPTH
GR   .GAPI                 :  Gamma Ray
RT   .OHMM                 :  Deep resistivity
RHOB .G/C3                 :  Bulk density
NPHI .V/V                  :  NEUT*100
~Parameter Information Block
#MNEM.UNIT            Value   Description
#---------- ----------------  -----------
PROJECT.            SERANG_FE:  
~Other Information Block
# 
~A       DEPTH             GR             RT           RHOB           NPHI 
# ...
       6674.50        79.2300         1.7310         2.3430       0.337000
       6675.00        79.2300         1.7430         2.3400       0.347000
       6675.50        77.8200         1.7550         2.3330       0.357000
       6676.00        78.8600         1.7560         2.3370       0.367000
       6676.50        78.8600         1.6870         2.3400       0.377000
       6677.00        80.6700         1.6780         2.3400       0.387000
       6677.50        82.4500         1.6690         2.3400       0.390000
       6678.00        85.6400         1.7380         2.3470       0.390000
       6678.50        90.2200         1.7850         2.3430       0.390000
       6679.00        92.8100         1.7770         2.3400       0.390000
       6679.50        91.4100         1.7240         2.3470       0.377000
       6680.00        88.9300         1.7300         2.3570       0.377000
       6680.50        86.7300         1.7520         2.3530       0.373000
       6681.00        86.7300         1.7790         2.3500       0.370000
       6681.50        86.0300         1.7310         2.3430       0.370000
       6682.00        86.0300         1.6800         2.3530       0.383000
       6682.50        87.8200         1.6870         2.3670       0.403000
       6683.00        92.4700         1.7040         2.3630       0.397000
       6683.50        95.0000         1.7030         2.3530       0.383000
       6684.00        95.0000         1.6640         2.3300       0.380000
       6684.50        90.3600         1.6420         2.3330       0.387000
       6685.00        87.8200         1.6870         2.3400       0.397000
       6685.50        86.0300         1.6930         2.3530       0.393000
       6686.00        87.8200         1.6650         2.3530       0.397000
       6686.50        89.6200         1.6510         2.3500       0.400000
       6687.00        89.6200         1.6880         2.3500       0.400000
       6687.50        87.8200         1.7020         2.3570       0.387000
       6688.00        86.0300         1.6740         2.3600       0.380000
       6688.50        86.0400         1.6650         2.3670       0.387000
       6689.00        87.8400         1.6510         2.3700       0.390000
       6689.50        89.6300         1.6660         2.3700       0.397000
       6690.00        89.6200         1.6780         2.3700       0.393000
       6690.50        87.8200         1.7060         2.3700       0.390000
       6691.00        86.0100         1.6890         2.3700       0.377000
       6691.50        87.8000         1.6920         2.3700       0.363000
       6692.00        89.5900         1.7230         2.3630       0.360000
       6692.50        91.4100         1.7320         2.3670       0.360000
       6693.00        89.6200         1.7480         2.3700       0.367000
       6693.50        86.0300         1.7250         2.3700       0.370000
       6694.00        82.4500         1.7500         2.3630       0.370000
       6694.50        80.5900         1.7280         2.3530       0.363000
       6695.00        84.1800         1.7270         2.3570       0.353000
       6695.50        87.7600         1.7610         2.3600       0.343000
       6696.00        91.4100         1.7250         2.3600       0.347000
       6696.50        91.4900         1.7320         2.3600       0.370000
       6697.00        89.7900         1.6930         2.3670       0.393000
       6697.50        86.2000         1.6760         2.3630       0.420000
       6698.00        82.5400         1.6300         2.3530       0.423000
       6698.50        80.6600         1.6040         2.3430       0.413000
       6699.00        80.6600         1.6690         2.3400       0.403000
       6699.50        80.6600         1.6460         2.3400       0.387000
       6700.00        80.6600         1.6440         2.3470       0.367000
       6700.50        82.4500         1.6320         2.3570       0.373000
       6701.00        84.2400         1.6040         2.3670       0.380000
       6701.50        86.0300         1.6140         2.3700       0.373000
       6702.00        87.8200         1.6130         2.3630       0.363000
       6702.50        89.6200         1.6220         2.3600       0.367000
       6703.00        91.5400         1.6670         2.3530       0.403000
       6703.50        89.7400         1.6690         2.3570       0.427000
       6704.00        87.9500         1.6540         2.3670       0.417000
       6704.50        86.0300         1.6750         2.3770       0.390000
       6705.00        86.0300         1.6630         2.3730       0.360000
       6705.50        85.8900         1.6000         2.3630       0.343000
       6706.00        87.6900         1.6180         2.3600       0.340000
       6706.50        89.4800         1.6390         2.3530       0.340000
       6707.00        91.4100         1.6310         2.3430       0.347000
       6707.50        91.4100         1.6460         2.3330       0.363000
       6708.00        91.4100         1.6550         2.3300       0.397000
       6708.50        91.4100         1.6800         2.3300       0.417000
       6709.00        91.4100         1.6580         2.3300       0.393000
       6709.50        91.4100         1.6350         2.3300       0.347000
       6710.00        91.2400         1.6530         2.3370       0.317000
       6710.50        93.0400         1.6400         2.3530       0.330000
       6711.00        93.2100         1.6330         2.3670       0.367000
       6711.50        91.5900         1.6130         2.3700       0.400000
       6712.00        88.0000         1.6070         2.3630       0.403000
       6712.50        86.0300         1.6130         2.3670       0.380000
       6713.00        84.4400         1.6220         2.3630       0.350000
       6713.50        82.6400         1.6490         2.3530       0.340000
       6714.00        80.8500         1.6450         2.3430       0.347000
       6714.50        80.6600         1.6660         2.3330       0.363000
       6715.00        82.2400         1.6820         2.3230       0.383000
       6715.50        84.0300         1.6940         2.3200       0.397000
       6716.00        85.8300         1.6500         2.3200       0.420000
       6716.50        86.0300         1.6430         2.3070       0.443000
       6717.00        84.4600         1.6300         2.2870       0.470000
       6717.50        82.8800         1.6480         2.2730       0.480000
       6718.00        82.6600         1.7020         2.2630       0.480000
       6718.50        84.2400         1.7400         2.2600       0.453000
       6719.00        85.8100         1.7070         2.2530       0.420000
       6719.50        86.0300         1.6760         2.2430       0.390000
       6720.00        86.0300         1.7200         2.2330       0.373000
       6720.50        87.6000         1.7130         2.2170       0.377000
       6721.00        89.3900         1.6820         2.2030       0.387000
       6721.50        91.1800         1.6500         2.2000       0.410000
       6722.00        92.9700         1.6540         2.1800       0.420000
       6722.50        93.2100         1.6670         2.1770       0.413000
       6723.00        93.4400         1.6800         2.1870       0.397000
       6723.50        91.8800         1.6730         2.1970       0.390000
       6724.00        91.6400         1.6600         2.1800       0.410000
       6724.50        91.4100         1.6200         2.1570       0.440000
       6725.00        91.4100         1.5350         2.1430       0.477000
       6725.50        91.4100         1.5100         2.1530       0.483000
       6726.00        91.4100         1.4730         2.1930       0.480000
       6726.50        91.4100         1.3920         2.2300       0.453000
       6727.00        91.4100         1.3600         2.2470       0.400000
       6727.50        91.4100         1.3600         2.2570       0.327000
