~Version Information Block
VERS .                  2.0:  CWLS LOG ASCII STANDARD - VERSION 2.0
WRAP .                   NO:  One line per depth step
~Well Information Block
#MNEM.UNIT        Data Type   Information
#---------- ----------------  -----------
STRT .FT             950.00:  START DEPTH
STOP .FT           11637.50:  STOP DEPTH
STEP .FT               0.50:  STEP
NULL .              -999.25:  NULL VALUE
COMP .                     :  COMPANY
WELL .                SA-32:  WELL
FLD  .                     :  FIELD
LOC  .                     :  LOCATION
CTRY .                     :  COUNTRY
STAT .                     :  STATE
CNTY .                     :  COUNTY
SRVC .                     :  SERVICE COMPANY
DATE .                     :  DATE
API  .                     :  API NUMBER
UWI  .                     :  UNIQUE WELL ID
~Curve Information Block
#MNEM.UNIT         API CODE   Curve Description
#---------- ----------------  -----------------
DEPTH.FT                   :  DEPTH
GR   .GAPI                 :  Gamma Ray
RT   .OHMM                 :  Deep resistivity
RHOB .G/C3                 :  Bulk density
NPHI .V/V                  :  NEUT*100
~Parameter Information Block
#MNEM.UNIT            Value   Description
#---------- ----------------  -----------
PROJECT.            SERANG_FE:  
~Other Information Block
# 
~A       DEPTH             GR             RT           RHOB           NPHI 
# ...
       5230.00        91.7700         1.7540         2.2500       0.418000
       5230.50        88.9000         1.7850         2.2500       0.428000
       5231.00        86.3900         1.7670         2.2420       0.446000
       5231.50        83.5200         1.7630         2.2400       0.458000
       5232.00        82.4500         1.7560         2.2400       0.460000
       5232.50        83.1700         1.7360         2.2400       0.444000
       5233.00        84.9600         1.7660         2.2480       0.424000
       5233.50        86.0300         1.7220         2.2500       0.404000
       5234.00        86.0300         1.6950         2.2420       0.392000
       5234.50        86.0300         1.6990         2.2480       0.390000
       5235.00        84.2400         1.7470         2.2500       0.390000
       5235.50        82.4500         1.7370         2.2500       0.406000
       5236.00        80.6600         1.7270         2.2420       0.435000
       5236.50        81.3700         1.7420         2.2400       0.489000
       5237.00        84.9600         1.8050         2.2320       0.525000
       5237.50        89.2600         1.8060         2.2300       0.555000
       5238.00        92.1200         1.7860         2.2300       0.552000
       5238.50        91.0500         1.8220         2.2300       0.534000
       5239.00        89.6200         1.8080         2.2300       0.505000
       5239.50        88.5400         1.8190         2.2300       0.475000
       5240.00        87.8300         1.8090         2.2300       0.454000
       5240.50        87.4700         1.8520         2.2300       0.458000
       5241.00        89.2600         1.8270         2.2380       0.468000
       5241.50        92.8400         1.8120         2.2400       0.495000
       5242.00        95.7100         1.7820         2.2320       0.508000
       5242.50        96.7900         1.7740         2.2300       0.526000
       5243.00        95.7100         1.8070         2.2300       0.522000
       5243.50        95.7100         1.8050         2.2220       0.512000
       5244.00        95.7100         1.8170         2.2200       0.485000
       5244.50        96.7900         1.8100         2.2200       0.472000
       5245.00        96.7900         1.8020         2.2280       0.462000
       5245.50        96.7900         1.7830         2.2300       0.460000
       5246.00        96.7900         1.8060         2.2380       0.452000
       5246.50        94.9900         1.8500         2.2400       0.425000
       5247.00        93.2000         1.8450         2.2400       0.404000
       5247.50        91.4100         1.8190         2.2400       0.392000
       5248.00        91.4100         1.7930         2.2320       0.398000
       5248.50        91.4100         1.8050         2.2220       0.408000
       5249.00        89.6200         1.8150         2.2120       0.435000
       5249.50        87.8200         1.7920         2.2020       0.473000
       5250.00        86.0300         1.7650         2.1920       0.505000
       5250.50        87.8200         1.7550         2.1900       0.502000
       5251.00        89.6200         1.7700         2.1980       0.467000
       5251.50        92.4800         1.7670         2.2000       0.444000
       5252.00        92.4800         1.7710         2.2080       0.448000
       5252.50        92.4800         1.7890         2.2100       0.450000
       5253.00        92.1300         1.7520         2.2100       0.434000
       5253.50        92.1300         1.7410         2.2100       0.430000
       5254.00        94.6400         1.7920         2.2180       0.455000
       5254.50        96.7900         1.8390         2.2200       0.501000
       5255.00        98.5800         1.8020         2.2120       0.502000
       5255.50        95.3500         1.7850         2.2100       0.467000
       5256.00        91.4100         1.7860         2.2100       0.460000
       5256.50        89.6200         1.7610         2.2100       0.493000
       5257.00        92.8400         1.7790         2.2100       0.516000
       5257.50        95.7100         1.7660         2.2020       0.512000
       5258.00        97.5000         1.8050         2.2080       0.502000
       5258.50        96.7900         1.7950         2.2100       0.484000
       5259.00        97.5000         1.8130         2.2180       0.464000
       5259.50        99.3000         1.8200         2.2200       0.460000
       5260.00       101.0900         1.8170         2.2120       0.460000
       5260.50       102.1600         1.7990         2.2100       0.485000
       5261.00       102.1600         1.7810         2.2180       0.506000
       5261.50       102.1600         1.8130         2.2200       0.526000
       5262.00       101.4500         1.8310         2.2200       0.530000
       5262.50       100.7300         1.8520         2.2200       0.514000
       5263.00        98.9400         1.8300         2.2200       0.494000
       5263.50        97.8600         1.8350         2.2200       0.474000
       5264.00        96.7900         1.8530         2.2200       0.470000
       5264.50        96.7900         1.8550         2.2200       0.470000
       5265.00        97.5000         1.8320         2.2200       0.470000
       5265.50        99.3000         1.8100         2.2200       0.470000
       5266.00       100.3700         1.8020         2.2120       0.470000
       5266.50        99.6600         1.7910         2.2100       0.470000
       5267.00        97.8600         1.8170         2.2100       0.470000
       5267.50        96.0700         1.7990         2.2180       0.470000
       5268.00        94.9900         1.7670         2.2120       0.495000
       5268.50        94.2800         1.7630         2.2020       0.516000
       5269.00        93.9200         1.7760         2.2000       0.536000
       5269.50        93.2000         1.7760         2.2000       0.540000
       5270.00        92.1300         1.7480         2.2000       0.532000
       5270.50        93.2000         1.7560         2.1920       0.505000
       5271.00        94.9900         1.7090         2.1820       0.459000
       5271.50        96.7900         1.6990         2.1800       0.425000
       5272.00        94.9900         1.7390         2.1880       0.412000
       5272.50        92.4900         1.7100         2.1980       0.410000
       5273.00        89.9800         1.7070         2.2000       0.418000
       5273.50        88.1900         1.7030         2.1920       0.453000
       5274.00        86.3900         1.7130         2.1820       0.509000
       5274.50        83.5200         1.7120         2.1720       0.569000
       5275.00        81.0100         1.6960         2.1700       0.580000
       5275.50        79.2200         1.7040         2.1700       0.523000
       5276.00        77.4300         1.7010         2.1700       0.477000
       5276.50        76.3500         1.7300         2.1620       0.478000
       5277.00        75.2800         1.7190         2.1600       0.513000
       5277.50        75.2800         1.6980         2.1600       0.520000
       5278.00        75.2800         1.7200         2.1520       0.479000
       5278.50        75.2800         1.7480         2.1500       0.421000
       5279.00        75.2800         1.7870         2.1420       0.394000
       5279.50        75.2800         1.7160         2.1320       0.398000
       5280.00        74.5600         1.7600         2.1300       0.441000
       5280.50        73.8500         1.7850         2.1380       0.483000
       5281.00        71.3400         1.8640         2.1480       0.490000
       5281.50        69.5400         1.9000         2.1750       0.457000
       5282.00        66.6700         1.9030         2.1960       0.417000
       5282.50        64.8800         1.9020         2.2250       0.394000
       5283.00        63.0900         1.8800         2.2460       0.390000
