~Version Information Block
VERS .                  2.0:  CWLS LOG ASCII STANDARD - VERSION 2.0
WRAP .                   NO:  One line per depth step
~Well Information Block
#MNEM.UNIT        Data Type   Information
#---------- ----------------  -----------
STRT .FT             410.50:  START DEPTH
STOP .FT           11980.00:  STOP DEPTH
STEP .FT               0.50:  STEP
NULL .              -999.25:  NULL VALUE
COMP .                     :  COMPANY
WELL .             SA-35ST1:  WELL
FLD  .                     :  FIELD
LOC  .                     :  LOCATION
CTRY .                     :  COUNTRY
STAT .                     :  STATE
CNTY .                     :  COUNTY
SRVC .                     :  SERVICE COMPANY
DATE .                     :  DATE
API  .                     :  API NUMBER
UWI  .                     :  UNIQUE WELL ID
~Curve Information Block
#MNEM.UNIT         API CODE   Curve Description
#---------- ----------------  -----------------
DEPTH.FT                   :  
GR   .GAPI                 :  Merged WIRE with WIRE_ST at 6750.00 F
RT   .OHMM                 :  Merged WIRE with WIRE_ST at 6750.00 F
RHOB .G/C3                 :  Merged WIRE with WIRE_ST at 6750.00 F
NPHI .V/V                  :  Merged WIRE with WIRE_ST at 6750.00 F
~Parameter Information Block
#MNEM.UNIT            Value   Description
#---------- ----------------  -----------
PROJECT.            SERANG_FE:  
~Other Information Block
# 
~A       DEPTH             GR             RT           RHOB           NPHI 
# ...
       8382.00        68.7100         1.7600         2.4800       0.348700
       8382.50        66.6600         1.7600         2.4826       0.329200
       8383.00        65.4400         1.7600         2.4927       0.320000
       8383.50        63.3900         1.7600         2.5055       0.320000
       8384.00        64.6200         1.7600         2.5228       0.322300
       8384.50        67.4800         1.7600         2.5300       0.340000
       8385.00        69.5300         1.7600         2.5241       0.340000
       8385.50        69.5300         1.7600         2.5010       0.340000
       8386.00        67.4800         1.7600         2.4709       0.340000
       8386.50        67.0700         1.7778         2.4407       0.341700
       8387.00        68.3000         1.8785         2.4232       0.350000
       8387.50        67.8900         1.8685         2.4364       0.351900
       8388.00        68.3000         1.8584         2.4565       0.360000
       8388.50        67.8900         1.8516         2.4733       0.362200
       8389.00        68.3000         1.8551         2.4766       0.367700
       8389.50        68.7100         1.8283         2.4803       0.360000
       8390.00        69.5300         1.8166         2.4930       0.357500
       8390.50        70.3400         1.8120         2.4764       0.350000
       8391.00        68.7100         1.8683         2.4555       0.352800
       8391.50        67.4800         1.8441         2.4227       0.362900
       8392.00        67.4800         1.7700         2.4100       0.376000
       8392.50        68.3000         1.7700         2.4138       0.390000
       8393.00        68.3000         1.7718         2.4277       0.390000
       8393.50        67.8900         1.7800         2.4361       0.386700
       8394.00        67.4800         1.7857         2.4221       0.380000
       8394.50        68.7100         1.8022         2.4060       0.383600
       8395.00        69.9400         1.7759         2.3959       0.390000
       8395.50        70.3400         1.8040         2.3900       0.390000
       8396.00        71.5700         1.8139         2.3942       0.390000
       8396.50        71.5700         1.7921         2.4042       0.381900
       8397.00        71.9800         1.8042         2.4100       0.365900
       8397.50        69.1200         1.8305         2.4013       0.364300
       8398.00        68.3000         1.8700         2.3900       0.378700
       8398.50        68.7100         1.8830         2.3944       0.385500
       8399.00        71.1600         1.9497         2.4089       0.380000
       8399.50        73.2100         2.0089         2.4245       0.380000
       8400.00        74.8400         1.9408         2.4300       0.380000
       8400.50        74.8400         1.8354         2.4345       0.371100
       8401.00        74.4300         1.8362         2.4400       0.355500
       8401.50        72.8000         1.9040         2.4355       0.354500
       8402.00        70.7500         1.9288         2.4211       0.364500
       8402.50        68.7100         1.8600         2.4055       0.378900
       8403.00        67.0700         1.8745         2.3911       0.390000
       8403.50        68.7100         1.9078         2.3622       0.390000
       8404.00        69.9400         1.8675         2.3355       0.390000
       8404.50        71.1600         1.8400         2.3389       0.398900
       8405.00        69.9400         1.8129         2.3589       0.414500
       8405.50        69.1200         1.8998         2.3655       0.424500
       8406.00        71.1600         1.8674         2.3466       0.434500
       8406.50        73.2100         1.8417         2.3255       0.444500
       8407.00        74.0300         1.7847         2.3289       0.463400
       8407.50        72.8000         1.7753         2.3489       0.480000
       8408.00        71.5700         1.8062         2.3689       0.480000
       8408.50        72.8000         1.8555         2.3845       0.471100
       8409.00        73.2100         1.8810         2.3855       0.451100
       8409.50        74.0300         1.8794         2.3934       0.440000
       8410.00        72.8000         1.7944         2.4367       0.444500
       8410.50        71.1600         1.7999         2.4789       0.436600
       8411.00        69.9400         1.8730         2.4811       0.424500
       8411.50        71.1600         1.9184         2.4477       0.434500
       8412.00        74.0300         1.8578         2.4022       0.462200
       8412.50        76.4800         1.7711         2.3756       0.481100
       8413.00        75.6600         1.7708         2.4100       0.456700
       8413.50        76.4800         1.8350         2.4644       0.426700
       8414.00        76.4800         1.8882         2.4700       0.414400
       8414.50        76.4800         1.9178         2.4611       0.428900
       8415.00        75.6600         1.8962         2.4411       0.444400
       8415.50        74.4300         1.9131         2.4344       0.445500
       8416.00        76.4800         1.9231         2.4489       0.431100
       8416.50        77.3000         1.9141         2.4600       0.411100
       8417.00        78.9300         1.8768         2.4511       0.408900
       8417.50        78.5200         1.8474         2.4400       0.428900
       8418.00        78.5200         1.7772         2.4489       0.440000
       8418.50        76.4800         1.8123         2.4555       0.440000
       8419.00        76.8900         1.9667         2.4500       0.440000
       8419.50        76.0700         1.9199         2.4500       0.453300
       8420.00        78.1200         1.8969         2.4633       0.470000
       8420.50        78.9300         1.9743         2.4800       0.456700
       8421.00        76.8900         1.9982         2.4889       0.435600
       8421.50        76.4800         1.8835         2.5133       0.434500
       8422.00        74.4300         1.9144         2.5433       0.453300
       8422.50        76.0700         1.9495         2.5645       0.474400
       8423.00        76.8900         1.8981         2.5567       0.471100
       8423.50        76.0700         1.8650         2.5311       0.451100
       8424.00        77.3000         1.8704         2.4933       0.431100
       8424.50        75.2500         1.8798         2.4422       0.415500
       8425.00        77.7100         1.9468         2.4200       0.414400
       8425.50        79.3400         1.7942         2.4378       0.433300
       8426.00        82.2100         1.7760         2.4822       0.450000
       8426.50        83.0200         1.8275         2.4922       0.450000
       8427.00        80.5700         1.8475         2.4567       0.432200
       8427.50        78.9300         1.8410         2.4355       0.410000
       8428.00        77.3000         1.8176         2.4255       0.401100
       8428.50        78.9300         1.8416         2.4155       0.403300
       8429.00        80.1600         1.8716         2.4100       0.415500
       8429.50        81.8000         1.9095         2.4278       0.414400
       8430.00        82.2100         1.9361         2.4500       0.411100
       8430.50        81.8000         1.9141         2.4455       0.395600
       8431.00        80.1600         1.8740         2.4311       0.394500
       8431.50        78.5200         1.8540         2.4200       0.395600
       8432.00        78.9300         1.9087         2.4422       0.398900
       8432.50        80.1600         1.9555         2.4789       0.410000
       8433.00        79.7500         1.8748         2.4811       0.410000
       8433.50        78.1200         1.8183         2.4478       0.410000
       8434.00        74.8400         1.8966         2.4067       0.410000
       8434.50        73.6200         1.9984         2.3944       0.418900
       8435.00        74.8400         1.9636         2.4044       0.434500
