~Version Information Block
VERS .                  2.0:  CWLS LOG ASCII STANDARD - VERSION 2.0
WRAP .                   NO:  One line per depth step
~Well Information Block
#MNEM.UNIT        Data Type   Information
#---------- ----------------  -----------
STRT .FT             410.50:  START DEPTH
STOP .FT           11980.00:  STOP DEPTH
STEP .FT               0.50:  STEP
NULL .              -999.25:  NULL VALUE
COMP .                     :  COMPANY
WELL .             SA-35ST1:  WELL
FLD  .                     :  FIELD
LOC  .                     :  LOCATION
CTRY .                     :  COUNTRY
STAT .                     :  STATE
CNTY .                     :  COUNTY
SRVC .                     :  SERVICE COMPANY
DATE .                     :  DATE
API  .                     :  API NUMBER
UWI  .                     :  UNIQUE WELL ID
~Curve Information Block
#MNEM.UNIT         API CODE   Curve Description
#---------- ----------------  -----------------
DEPTH.FT                   :  
GR   .GAPI                 :  Merged WIRE with WIRE_ST at 6750.00 F
RT   .OHMM                 :  Merged WIRE with WIRE_ST at 6750.00 F
RHOB .G/C3                 :  Merged WIRE with WIRE_ST at 6750.00 F
NPHI .V/V                  :  Merged WIRE with WIRE_ST at 6750.00 F
~Parameter Information Block
#MNEM.UNIT            Value   Description
#---------- ----------------  -----------
PROJECT.            SERANG_FE:  
~Other Information Block
# 
~A       DEPTH             GR             RT           RHOB           NPHI 
# ...
       6242.00        84.6875         1.1038         2.2028       0.511800
       6242.50        83.7538         1.1488         2.1825       0.540500
       6243.00        83.3850         1.1828         2.1710       0.549200
       6243.50        83.3637         1.1812         2.1845       0.551900
       6244.00        83.5825         1.1445         2.2257       0.551900
       6244.50        84.1281         1.0952         2.2765       0.535700
       6245.00        85.1069         1.0450         2.3119       0.475600
       6245.50        86.5175         1.0183         2.3298       0.403400
       6246.00        88.1875         1.0182         2.3447       0.361100
       6246.50        89.8794         1.0519         2.3609       0.349000
       6247.00        91.3544         1.1336         2.3671       0.345500
       6247.50        92.1338         1.2707         2.3520       0.337800
       6248.00        91.8500         1.4256         2.3158       0.333300
       6248.50        90.0687         1.5510         2.2771       0.340600
       6249.00        87.4425         1.6296         2.2523       0.360900
       6249.50        85.1206         1.6686         2.2382       0.387500
       6250.00        83.8187         1.6840         2.2195       0.407900
       6250.50        83.3850         1.6845         2.1891       0.414300
       6251.00        83.4075         1.6670         2.1653       0.405400
       6251.50        83.8444         1.6284         2.1838       0.383600
       6252.00        84.9337         1.5855         2.2568       0.361100
       6252.50        86.8025         1.5521         2.3410       0.352300
       6253.00        89.1888         1.5273         2.3799       0.357000
       6253.50        91.4431         1.5090         2.3848       0.367900
       6254.00        92.9600         1.4997         2.3761       0.378400
       6254.50        93.6100         1.4993         2.3745       0.388200
       6255.00        93.7400         1.5055         2.3765       0.396500
       6255.50        93.6963         1.5074         2.3748       0.398100
       6256.00        93.4131         1.5020         2.3647       0.398500
       6256.50        92.3494         1.4885         2.3513       0.400900
       6257.00        89.6600         1.4713         2.3410       0.405200
       6257.50        85.1263         1.4549         2.3340       0.403200
       6258.00        80.0044         1.4414         2.3271       0.395500
       6258.50        76.1181         1.4204         2.3199       0.386500
       6259.00        74.2075         1.3822         2.3145       0.376800
       6259.50        73.9469         1.3377         2.3109       0.371700
       6260.00        74.9019         1.3033         2.3072       0.375500
       6260.50        77.2462         1.2803         2.3033       0.398900
       6261.00        80.0250         1.2691         2.3008       0.424800
       6261.50        81.8919         1.2800         2.2998       0.445400
       6262.00        82.2831         1.3334         2.2989       0.463600
       6262.50        81.9150         1.4092         2.2980       0.482700
       6263.00        81.1119         1.4658         2.2975       0.504200
       6263.50        80.1787         1.4917         2.2971       0.529000
       6264.00        79.2250         1.5023         2.2956       0.550200
       6264.50        78.4663         1.5048         2.2941       0.554700
       6265.00        77.9231         1.5033         2.2958       0.537200
       6265.50        77.3794         1.5026         2.3016       0.506700
       6266.00        76.7494         1.5059         2.3078       0.487100
       6266.50        76.1637         1.5126         2.3100       0.489700
       6267.00        75.7094         1.5149         2.3079       0.505800
       6267.50        75.4069         1.5127         2.3043       0.518700
       6268.00        75.3206         1.5079         2.3047       0.519500
       6268.50        75.3194         1.5034         2.3110       0.518700
       6269.00        75.2319         1.5037         2.3140       0.523500
       6269.50        74.7750         1.5119         2.3073       0.524600
       6270.00        73.9937         1.5265         2.2859       0.509800
       6270.50        73.3000         1.5357         2.2614       0.484500
       6271.00        72.9750         1.5368         2.2474       0.469700
       6271.50        72.9100         1.5333         2.2474       0.469200
       6272.00        72.9531         1.5308         2.2554       0.469600
       6272.50        73.1694         1.5300         2.2641       0.463500
       6273.00        73.6469         1.5288         2.2749       0.460000
       6273.50        74.2781         1.5240         2.2923       0.467700
       6274.00        74.8656         1.5131         2.3160       0.481500
       6274.50        75.2994         1.4935         2.3327       0.480100
       6275.00        75.5375         1.4865         2.3308       0.457900
       6275.50        75.5369         1.5059         2.3187       0.433800
       6276.00        75.4481         1.5642         2.3103       0.428000
       6276.50        75.5550         1.6039         2.3068       0.438000
       6277.00        76.1394         1.6104         2.3042       0.447100
       6277.50        77.0512         1.5998         2.3049       0.441900
       6278.00        77.9863         1.5922         2.3097       0.429500
       6278.50        78.8125         1.5901         2.3180       0.428400
       6279.00        79.5944         1.5888         2.3297       0.446600
       6279.50        80.3094         1.5839         2.3346       0.478500
       6280.00        80.7194         1.5765         2.3229       0.503100
       6280.50        80.6756         1.5702         2.2994       0.510400
       6281.00        80.0912         1.5639         2.2778       0.502100
       6281.50        79.2250         1.5565         2.2652       0.480300
       6282.00        78.5100         1.5489         2.2607       0.447400
       6282.50        78.1850         1.5378         2.2595       0.407600
       6283.00        78.1200         1.5228         2.2592       0.370600
       6283.50        78.1200         1.5121         2.2568       0.345500
       6284.00        78.1200         1.5070         2.2524       0.333700
       6284.50        78.1200         1.5032         2.2473       0.330600
       6285.00        78.1200         1.5031         2.2431       0.331800
       6285.50        78.1200         1.5093         2.2410       0.336000
       6286.00        78.1200         1.5205         2.2418       0.342400
       6286.50        78.1200         1.5280         2.2462       0.349000
       6287.00        78.1200         1.5300         2.2539       0.355900
       6287.50        78.1200         1.5300         2.2611       0.365800
       6288.00        78.1631         1.5300         2.2657       0.381900
       6288.50        78.3794         1.5331         2.2703       0.402900
       6289.00        78.8562         1.5456         2.2838       0.419000
       6289.50        79.4856         1.5644         2.3095       0.419100
       6290.00        80.0713         1.5687         2.3381       0.405200
       6290.50        80.5256         1.5549         2.3487       0.388900
       6291.00        80.7625         1.5249         2.3409       0.387000
       6291.50        80.6756         1.5087         2.3177       0.399100
       6292.00        80.0912         1.5094         2.2928       0.418200
       6292.50        79.2250         1.5162         2.2699       0.434300
       6293.00        78.5100         1.5123         2.2483       0.448200
       6293.50        78.1850         1.4955         2.2349       0.458600
       6294.00        78.1200         1.4895         2.2346       0.459000
       6294.50        78.1200         1.4960         2.2459       0.455100
       6295.00        78.1200         1.5145         2.2629       0.455100
