~Version Information Block
VERS .                  2.0:  CWLS LOG ASCII STANDARD - VERSION 2.0
WRAP .                   NO:  One line per depth step
~Well Information Block
#MNEM.UNIT        Data Type   Information
#---------- ----------------  -----------
STRT .FT             950.00:  START DEPTH
STOP .FT           11598.00:  STOP DEPTH
STEP .FT               0.50:  STEP
NULL .              -999.25:  NULL VALUE
COMP .                     :  COMPANY
WELL .          SA-32RD1ST1:  WELL
FLD  .                     :  FIELD
LOC  .                     :  LOCATION
CTRY .                     :  COUNTRY
STAT .                     :  STATE
CNTY .                     :  COUNTY
SRVC .                     :  SERVICE COMPANY
DATE .                     :  DATE
API  .                     :  API NUMBER
UWI  .                     :  UNIQUE WELL ID
~Curve Information Block
#MNEM.UNIT         API CODE   Curve Description
#---------- ----------------  -----------------
DEPTH.FT                   :  
GR   .GAPI                 :  Merged WIRE with WIRE_ST at 7550.00 F
RT   .OHMM                 :  Merged WIRE with WIRE_ST at 7550.00 F
RHOB .G/C3                 :  Merged WIRE with WIRE_ST at 7550.00 F
NPHI .V/V                  :  Merged WIRE with WIRE_ST at 7550.00 F
~Parameter Information Block
#MNEM.UNIT            Value   Description
#---------- ----------------  -----------
PROJECT.            SERANG_FE:  
~Other Information Block
# 
~A       DEPTH             GR             RT           RHOB           NPHI 
# ...
       3839.00        33.5100         2.0000         2.2300         0.3900
       3839.50        31.5100         2.0300         2.2400         0.4000
       3840.00        31.3400         1.9900         2.2500         0.4000
       3840.50        31.1700         1.9900         2.2500         0.3700
       3841.00        31.1700         1.9900         2.2600         0.3500
       3841.50        31.4200         1.9900         2.2500         0.3600
       3842.00        31.6700         1.9900         2.2400         0.3800
       3842.50        33.2400         1.9900         2.2400         0.4500
       3843.00        34.5500         1.9900         2.2300         0.5100
       3843.50        35.8700         1.9800         2.2300         0.5100
       3844.00        36.2500         1.9800         2.2300         0.4900
       3844.50        36.6300         1.9600         2.2300         0.4300
       3845.00        37.7000         1.9600         2.2300         0.4300
       3845.50        38.4000         1.8700         2.2200         0.3800
       3846.00        38.8400         1.8700         2.2200         0.3700
       3846.50        38.5700         1.8700         2.2100         0.4300
       3847.00        38.3100         1.7700         2.2200         0.5100
       3847.50        38.3100         1.7700         2.2200         0.5100
       3848.00        38.3200         1.7700         2.2400         0.4600
       3848.50        38.9400         1.7700         2.2300         0.4200
       3849.00        39.5600         1.7700         2.2300         0.4600
       3849.50        41.1200         1.7500         2.2000         0.4700
       3850.00        42.0700         1.7500         2.2000         0.4800
       3850.50        43.0100         1.6600         2.1900         0.5100
       3851.00        44.1400         1.6600         2.1800         0.5300
       3851.50        45.2800         1.6600         2.1500         0.5600
       3852.00        46.4100         1.6700         2.1300         0.5600
       3852.50        47.3600         1.6700         2.1200         0.5500
       3853.00        48.3000         1.6700         2.1200         0.5400
       3853.50        49.2400         1.6600         2.1300         0.5200
       3854.00        51.4500         1.6600         2.1500         0.5200
       3854.50        53.6600         1.6600         2.1300         0.5000
       3855.00        55.8700         1.7100         2.1200         0.4800
       3855.50        55.8700         1.7100         2.0800         0.4600
       3856.00        52.1700         1.7100         2.0400         0.4800
       3856.50        47.7700         1.6600         2.0600         0.5000
       3857.00        43.3700         1.7100         2.0800         0.5100
       3857.50        42.6100         1.7100         2.1200         0.4500
       3858.00        42.5600         1.7100         2.1000         0.3900
       3858.50        43.8000         1.6900         2.0900         0.3800
       3859.00        45.1100         1.6900         2.1000         0.4100
       3859.50        46.4100         1.6900         2.1200         0.4300
       3860.00        46.9200         1.6900         2.1400         0.4100
       3860.50        47.4300         1.4600         2.1600         0.3900
       3861.00        50.0200         1.4600         2.1500         0.4900
       3861.50        52.1000         1.4600         2.1500         0.6000
       3862.00        54.1700         1.6900         2.1600         0.6900
       3862.50        55.3100         1.6900         2.1500         0.5900
       3863.00        56.4400         1.6900         2.1500         0.5000
       3863.50        57.5800         1.6000         2.1200         0.4600
       3864.00        57.5800         1.6000         2.1100         0.4600
       3864.50        57.5800         1.6000         2.1000         0.5000
       3865.00        57.5800         1.6000         2.1100         0.5400
       3865.50        58.4100         1.6000         2.1200         0.5300
       3866.00        59.2400         1.6000         2.1300         0.5100
       3866.50        60.0700         1.6200         2.1500         0.5000
       3867.00        60.4500         1.6200         2.1600         0.5200
       3867.50        60.8200         1.6200         2.1700         0.5300
       3868.00        61.2000         1.6000         2.1400         0.5200
       3868.50        60.9400         1.6000         2.1100         0.4300
       3869.00        60.6700         1.6000         2.0800         0.3700
       3869.50        60.4100         1.7900         2.0800         0.3400
       3870.00        60.4100         1.7900         2.0800         0.4100
       3870.50        58.4600         1.7900         2.0800         0.5000
       3871.00        56.5100         1.9400         2.1100         0.5000
       3871.50        54.5600         1.9400         2.1200         0.4200
       3872.00        54.5600         1.9400         2.1200         0.4200
       3872.50        52.9200         1.9400         2.1400         0.5100
       3873.00        51.2800         2.0500         2.1400         0.5200
       3873.50        49.6400         2.0500         2.1900         0.4600
       3874.00        49.6400         2.0500         2.2000         0.4100
       3874.50        49.6400         2.0500         2.2100         0.4200
       3875.00        49.0200         2.0500         2.1800         0.4200
       3875.50        48.3900         2.1600         2.1700         0.3900
       3876.00        46.1300         2.1600         2.1700         0.3900
       3876.50        44.4800         2.1600         2.1400         0.3600
       3877.00        42.8400         2.1900         2.1400         0.3400
       3877.50        42.5400         2.1900         2.2000         0.3500
       3878.00        42.2300         2.1200         2.2000         0.3700
       3878.50        40.9900         2.1200         2.1400         0.3900
       3879.00        40.0400         2.1200         2.0800         0.4600
       3879.50        39.1000         1.9200         2.1000         0.5400
       3880.00        40.2900         1.9200         2.1100         0.6000
       3880.50        41.4800         1.9200         2.0900         0.5600
       3881.00        42.6700         1.5700         2.0800         0.4500
       3881.50        42.6700         1.5700         2.0900         0.3800
       3882.00        42.6700         1.5700         2.1000         0.3500
       3882.50        42.2900         1.5700         2.0500         0.3800
       3883.00        41.9200         1.5700         2.0100         0.3700
       3883.50        41.5400         1.3200         1.9900         0.3500
       3884.00        41.2200         1.3200         2.0100         0.3700
       3884.50        40.8900         1.3200         2.0200         0.4200
       3885.00        40.5700         1.3300         2.0200         0.4700
       3885.50        39.9500         1.3300         2.0200         0.4600
       3886.00        39.3300         1.3500         2.0400         0.4600
       3886.50        38.7000         1.3500         2.0700         0.4500
       3887.00        38.8400         1.3500         2.1000         0.4500
       3887.50        38.9700         1.2700         2.1100         0.4500
       3888.00        39.1000         1.2700         2.1100         0.4400
       3888.50        38.4600         1.2700         2.1100         0.4400
       3889.00        37.8200         1.2700         2.1100         0.4700
       3889.50        37.1700         1.2600         2.1100         0.4700
       3890.00        37.1700         1.2600         2.1100         0.3800
       3890.50        37.1700         1.2600         2.1100         0.3700
       3891.00        37.1700         1.2600         2.1100         0.3300
       3891.50        36.9900         1.2600         2.0400         0.3400
       3892.00        37.1800         1.2500         1.9700         0.3300
