~Version Information Block
VERS .                  2.0:  CWLS LOG ASCII STANDARD - VERSION 2.0
WRAP .                   NO:  One line per depth step
~Well Information Block
#MNEM.UNIT        Data Type   Information
#---------- ----------------  -----------
STRT .FT             950.00:  START DEPTH
STOP .FT           11637.50:  STOP DEPTH
STEP .FT               0.50:  STEP
NULL .              -999.25:  NULL VALUE
COMP .                     :  COMPANY
WELL .                SA-32:  WELL
FLD  .                     :  FIELD
LOC  .                     :  LOCATION
CTRY .                     :  COUNTRY
STAT .                     :  STATE
CNTY .                     :  COUNTY
SRVC .                     :  SERVICE COMPANY
DATE .                     :  DATE
API  .                     :  API NUMBER
UWI  .                     :  UNIQUE WELL ID
~Curve Information Block
#MNEM.UNIT         API CODE   Curve Description
#---------- ----------------  -----------------
DEPTH.FT                   :  DEPTH
GR   .GAPI                 :  Gamma Ray
RT   .OHMM                 :  Deep resistivity
RHOB .G/C3                 :  Bulk density
NPHI .V/V                  :  NEUT*100
~Parameter Information Block
#MNEM.UNIT            Value   Description
#---------- ----------------  -----------
PROJECT.            SERANG_FE:  
~Other Information Block
# 
~A       DEPTH             GR             RT           RHOB           NPHI 
# ...
       5925.50        70.9800         2.0430         2.4100       0.240000
       5926.00        69.9000         2.0370         2.4020       0.240000
       5926.50        69.1800         2.0100         2.3920       0.232000
       5927.00        68.4600         2.0010         2.3900       0.230000
       5927.50        65.9500         1.9640         2.3980       0.230000
       5928.00        63.0900         1.9300         2.4000       0.238000
       5928.50        60.2200         1.9400         2.4150       0.240000
       5929.00        58.4300         1.9440         2.4280       0.248000
       5929.50        57.7200         1.9100         2.4220       0.250000
       5930.00        55.9200         1.9160         2.4130       0.258000
       5930.50        54.1300         1.9170         2.3800       0.260000
       5931.00        52.3300         1.8900         2.3550       0.268000
       5931.50        50.5400         1.8360         2.3280       0.263000
       5932.00        49.4700         1.7200         2.3120       0.268000
       5932.50        48.3900         1.7040         2.2950       0.270000
       5933.00        48.3900         1.6260         2.2830       0.270000
       5933.50        48.3900         1.5300         2.2720       0.278000
       5934.00        48.3900         1.5110         2.2700       0.287000
       5934.50        47.6800         1.4700         2.2700       0.297000
       5935.00        46.9600         1.4540         2.2700       0.307000
       5935.50        45.1700         1.4200         2.2630       0.325000
       5936.00        44.0900         1.3730         2.2450       0.330000
       5936.50        42.3000         1.2700         2.2250       0.338000
       5937.00        41.5800         1.2320         2.1970       0.347000
       5937.50        39.7900         1.1500         2.1750       0.350000
       5938.00        38.7100         1.1150         2.1550       0.350000
       5938.50        37.6400         1.0400         2.1500       0.343000
       5939.00        37.6400         1.0120         2.1650       0.340000
       5939.50        37.6400         0.9500         2.1700       0.333000
       5940.00        37.6400         0.9500         2.1630       0.323000
       5940.50        37.6400         0.9500         2.1450       0.320000
       5941.00        37.6400         0.9500         2.1470       0.320000
       5941.50        36.9200         0.9500         2.1720       0.320000
       5942.00        36.2100         0.9600         2.1870       0.327000
       5942.50        35.1300         0.9990         2.1900       0.337000
       5943.00        34.7700         1.0400         2.1970       0.355000
       5943.50        35.4800         1.0690         2.2000       0.360000
       5944.00        36.5600         1.1300         2.2370       0.353000
       5944.50        38.3600         1.1270         2.2570       0.328000
       5945.00        39.0800         1.1520         2.2900       0.313000
       5945.50        40.8700         1.2200         2.3070       0.303000
       5946.00        42.6600         1.2420         2.3170       0.300000
       5946.50        44.4500         1.2900         2.3200       0.307000
       5947.00        47.6700         1.2960         2.3200       0.310000
       5947.50        50.1800         1.3100         2.3270       0.325000
       5948.00        55.5600         1.3640         2.3300       0.337000
       5948.50        58.4300         1.4800         2.3370       0.362000
       5949.00        63.0900         1.4990         2.3400       0.377000
       5949.50        64.8800         1.5400         2.3400       0.387000
       5950.00        67.7500         1.5690         2.3250       0.383000
       5950.50        68.8300         1.6300         2.3130       0.380000
       5951.00        69.9000         1.6300         2.2950       0.373000
       5951.50        70.6200         1.6300         2.2900       0.363000
       5952.00        71.3300         1.6300         2.2750       0.345000
       5952.50        73.1300         1.6300         2.2700       0.340000
       5953.00        74.2000         1.6430         2.2630       0.340000
       5953.50        75.2800         1.6700         2.2600       0.340000
       5954.00        75.2800         1.6290         2.2530       0.340000
       5954.50        75.2800         1.5400         2.2570       0.347000
       5955.00        74.5600         1.5400         2.2530       0.350000
       5955.50        73.8400         1.5370         2.2650       0.357000
       5956.00        72.0500         1.5300         2.2770       0.367000
       5956.50        70.9800         1.5240         2.2950       0.377000
       5957.00        69.9000         1.5100         2.3000       0.380000
       5957.50        70.6200         1.5100         2.3000       0.380000
       5958.00        71.3300         1.5260         2.3070       0.365000
       5958.50        73.1300         1.5600         2.3170       0.345000
       5959.00        74.2000         1.5440         2.3200       0.340000
       5959.50        76.0000         1.5100         2.3130       0.347000
       5960.00        76.7100         1.5320         2.2880       0.365000
       5960.50        77.4300         1.5800         2.2730       0.377000
       5961.00        78.5000         1.5800         2.2700       0.395000
       5961.50        79.5800         1.5770         2.2700       0.407000
       5962.00        81.3700         1.5700         2.2770       0.410000
       5962.50        82.0900         1.5600         2.2870       0.410000
       5963.00        83.8800         1.5400         2.2970       0.410000
       5963.50        84.9600         1.5620         2.2930       0.403000
       5964.00        86.0300         1.6100         2.2900       0.378000
       5964.50        85.3200         1.6100         2.2900       0.363000
       5965.00        84.6000         1.5810         2.2970       0.360000
       5965.50        82.8100         1.5200         2.3220       0.375000
       5966.00        81.7300         1.5330         2.3520       0.395000
       5966.50        80.6600         1.5600         2.3600       0.415000
       5967.00        80.6600         1.5600         2.3450       0.435000
       5967.50        80.6600         1.5600         2.3250       0.440000
       5968.00        80.6600         1.5600         2.3200       0.425000
       5968.50        81.3700         1.5600         2.3200       0.405000
       5969.00        82.0900         1.5600         2.3200       0.393000
       5969.50        83.8800         1.5660         2.3200       0.390000
       5970.00        84.9600         1.5800         2.3270       0.390000
       5970.50        86.0300         1.5740         2.3300       0.390000
       5971.00        86.0300         1.5600         2.3300       0.390000
       5971.50        86.0300         1.5630         2.3230       0.405000
       5972.00        85.3100         1.5670         2.3050       0.410000
       5972.50        84.5900         1.5600         2.2930       0.388000
       5973.00        81.3700         1.5730         2.2750       0.358000
       5973.50        78.8700         1.6000         2.2700       0.328000
       5974.00        73.4900         1.6030         2.2550       0.327000
       5974.50        70.6200         1.5840         2.2430       0.337000
       5975.00        66.6800         1.5300         2.2330       0.340000
       5975.50        65.6000         1.5330         2.2370       0.340000
       5976.00        64.5200         1.5400         2.2550       0.340000
       5976.50        65.2400         1.5530         2.2750       0.340000
       5977.00        65.9600         1.5800         2.2870       0.340000
       5977.50        67.7500         1.5770         2.2830       0.347000
       5978.00        68.8300         1.5700         2.2730       0.350000
       5978.50        69.9000         1.5570         2.2700       0.357000
