~Version Information Block
VERS .                  2.0:  CWLS LOG ASCII STANDARD - VERSION 2.0
WRAP .                   NO:  One line per depth step
~Well Information Block
#MNEM.UNIT        Data Type   Information
#---------- ----------------  -----------
STRT .FT             950.00:  START DEPTH
STOP .FT           11637.50:  STOP DEPTH
STEP .FT               0.50:  STEP
NULL .              -999.25:  NULL VALUE
COMP .                     :  COMPANY
WELL .                SA-32:  WELL
FLD  .                     :  FIELD
LOC  .                     :  LOCATION
CTRY .                     :  COUNTRY
STAT .                     :  STATE
CNTY .                     :  COUNTY
SRVC .                     :  SERVICE COMPANY
DATE .                     :  DATE
API  .                     :  API NUMBER
UWI  .                     :  UNIQUE WELL ID
~Curve Information Block
#MNEM.UNIT         API CODE   Curve Description
#---------- ----------------  -----------------
DEPTH.FT                   :  DEPTH
GR   .GAPI                 :  Gamma Ray
RT   .OHMM                 :  Deep resistivity
RHOB .G/C3                 :  Bulk density
NPHI .V/V                  :  NEUT*100
~Parameter Information Block
#MNEM.UNIT            Value   Description
#---------- ----------------  -----------
PROJECT.            SERANG_FE:  
~Other Information Block
# 
~A       DEPTH             GR             RT           RHOB           NPHI 
# ...
       4534.50        74.2000         1.4580         2.3000       0.368000
       4535.00        75.2800         1.5180         2.3000       0.370000
       4535.50        75.2800         1.5050         2.3000       0.361000
       4536.00        75.2800         1.5040         2.2910       0.333000
       4536.50        75.2800         1.5360         2.2810       0.321000
       4537.00        73.4900         1.4970         2.2710       0.320000
       4537.50        71.6900         1.5150         2.2700       0.347000
       4538.00        69.9000         1.5070         2.2790       0.368000
       4538.50        69.9000         1.5280         2.2710       0.388000
       4539.00        69.1800         1.5040         2.2610       0.399000
       4539.50        67.3900         1.4520         2.2600       0.400000
       4540.00        65.6000         1.4670         2.2600       0.400000
       4540.50        66.3200         1.4900         2.2600       0.409000
       4541.00        73.4900         1.4880         2.2690       0.428000
       4541.50        81.3700         1.4750         2.2700       0.439000
       4542.00        86.7500         1.4510         2.2790       0.440000
       4542.50        86.7500         1.4130         2.2800       0.440000
       4543.00        84.2400         1.3970         2.2890       0.431000
       4543.50        82.4500         1.4200         2.2900       0.412000
       4544.00        78.8600         1.4180         2.2810       0.392000
       4544.50        77.7900         1.4050         2.2800       0.372000
       4545.00        76.7100         1.3900         2.2800       0.361000
       4545.50        78.5000         1.3970         2.2800       0.351000
       4546.00        79.5800         1.4130         2.2800       0.350000
       4546.50        80.6600         1.3970         2.2800       0.341000
       4547.00        80.6600         1.4180         2.2800       0.340000
       4547.50        79.9400         1.4120         2.2800       0.349000
       4548.00        78.8600         1.4270         2.2800       0.368000
       4548.50        78.8600         1.4270         2.2800       0.397000
       4549.00        79.5800         1.3550         2.2710       0.409000
       4549.50        80.6600         1.3750         2.2700       0.419000
       4550.00        81.3700         1.4010         2.2610       0.429000
       4550.50        83.1700         1.4400         2.2690       0.448000
       4551.00        84.9600         1.4260         2.2700       0.450000
       4551.50        86.0300         1.3890         2.2790       0.459000
       4552.00        86.0300         1.4090         2.2800       0.460000
       4552.50        86.7500         1.3810         2.2890       0.469000
       4553.00        89.2600         1.3990         2.2810       0.461000
       4553.50        92.1300         1.3250         2.2710       0.460000
       4554.00        93.2000         1.2990         2.2520       0.451000
       4554.50        91.7700         1.2550         2.2410       0.432000
       4555.00        87.4600         1.2490         2.2310       0.412000
       4555.50        84.2300         1.2750         2.2210       0.392000
       4556.00        78.1400         1.3470         2.2200       0.381000
       4556.50        74.5600         1.6400         2.2110       0.371000
       4557.00        67.4000         1.7000         2.2190       0.379000
       4557.50        60.9500         1.9070         2.2110       0.407000
       4558.00        54.4900         1.9300         2.2190       0.428000
       4558.50        50.5400         1.8840         2.2020       0.421000
       4559.00        49.4700         1.7300         2.2090       0.393000
       4559.50        47.6700         1.6820         2.2100       0.381000
       4560.00        46.9600         1.4970         2.2370       0.371000
       4560.50        45.1600         1.4200         2.2670       0.361000
       4561.00        44.8100         1.4910         2.3060       0.342000
       4561.50        44.4500         1.7300         2.3190       0.331000
       4562.00        45.5200         1.7510         2.3380       0.330000
       4562.50        45.8800         1.8200         2.3400       0.330000
       4563.00        45.1700         1.8820         2.3580       0.330000
       4563.50        44.0900         2.0900         2.3690       0.321000
       4564.00        43.0200         2.1610         2.3880       0.338000
       4564.50        43.0200         2.4350         2.3990       0.322000
       4565.00        43.0200         2.5500         2.3910       0.311000
       4565.50        42.3000         2.5680         2.3900       0.274000
       4566.00        40.5100         2.6300         2.3810       0.252000
       4566.50        38.7200         2.6440         2.3800       0.232000
       4567.00        36.9200         2.7150         2.3800       0.230000
       4567.50        35.1300         2.8000         2.3800       0.239000
       4568.00        33.3400         2.8390         2.3800       0.240000
       4568.50        32.2600         3.1220         2.3800       0.240000
       4569.00        31.5500         3.6300         2.3890       0.231000
       4569.50        30.4700         3.7340         2.3900       0.221000
       4570.00        29.4000         4.0590         2.3810       0.220000
       4570.50        30.1100         4.1210         2.3620       0.211000
       4571.00        31.1900         4.5600         2.3510       0.219000
       4571.50        32.2600         4.4840         2.3410       0.220000
       4572.00        32.2600         4.1770         2.3490       0.229000
       4572.50        32.2600         3.8850         2.3410       0.230000
       4573.00        32.9800         3.4750         2.3400       0.239000
       4573.50        34.7700         3.3370         2.3400       0.240000
       4574.00        36.5600         3.1580         2.3580       0.249000
       4574.50        37.6400         3.1800         2.3870       0.250000
       4575.00        37.6400         3.2800         2.3990       0.250000
       4575.50        37.6400         3.3100         2.4090       0.241000
       4576.00        37.6400         3.4150         2.4280       0.231000
       4576.50        37.6400         3.4090         2.4300       0.221000
       4577.00        37.6400         3.4070         2.4390       0.220000
       4577.50        37.6400         3.6480         2.4310       0.220000
       4578.00        37.6400         3.7100         2.4300       0.220000
       4578.50        37.6400         3.7190         2.4300       0.229000
       4579.00        37.6400         3.7500         2.4480       0.230000
       4579.50        37.6400         3.8260         2.4590       0.239000
       4580.00        37.6400         3.9860         2.4690       0.231000
       4580.50        37.6400         3.6700         2.4700       0.230000
       4581.00        38.3500         3.6750         2.4520       0.212000
       4581.50        40.1500         3.7110         2.4320       0.210000
       4582.00        41.9400         3.6510         2.4300       0.201000
       4582.50        42.3000         3.2200         2.4300       0.200000
       4583.00        40.5100         3.1990         2.4570       0.200000
       4583.50        38.7100         3.2340         2.4600       0.200000
       4584.00        37.6400         3.6330         2.4690       0.209000
       4584.50        37.6400         3.6390         2.4520       0.210000
       4585.00        37.6400         3.0700         2.4410       0.210000
       4585.50        38.3600         3.1530         2.4220       0.210000
       4586.00        39.0800         3.3540         2.4110       0.219000
       4586.50        40.8700         3.0310         2.3920       0.220000
       4587.00        41.9400         2.8000         2.3810       0.256000
       4587.50        43.0200         3.1910         2.3710       0.278000
