~Version Information Block
VERS .                  2.0:  CWLS LOG ASCII STANDARD - VERSION 2.0
WRAP .                   NO:  One line per depth step
~Well Information Block
#MNEM.UNIT        Data Type   Information
#---------- ----------------  -----------
STRT .FT             950.00:  START DEPTH
STOP .FT           11637.50:  STOP DEPTH
STEP .FT               0.50:  STEP
NULL .              -999.25:  NULL VALUE
COMP .                     :  COMPANY
WELL .                SA-32:  WELL
FLD  .                     :  FIELD
LOC  .                     :  LOCATION
CTRY .                     :  COUNTRY
STAT .                     :  STATE
CNTY .                     :  COUNTY
SRVC .                     :  SERVICE COMPANY
DATE .                     :  DATE
API  .                     :  API NUMBER
UWI  .                     :  UNIQUE WELL ID
~Curve Information Block
#MNEM.UNIT         API CODE   Curve Description
#---------- ----------------  -----------------
DEPTH.FT                   :  DEPTH
GR   .GAPI                 :  Gamma Ray
RT   .OHMM                 :  Deep resistivity
RHOB .G/C3                 :  Bulk density
NPHI .V/V                  :  NEUT*100
~Parameter Information Block
#MNEM.UNIT            Value   Description
#---------- ----------------  -----------
PROJECT.            SERANG_FE:  
~Other Information Block
# 
~A       DEPTH             GR             RT           RHOB           NPHI 
# ...
      10901.00        72.0560         3.4400         2.4700       0.230000
      10901.50        69.7240         3.4600         2.4700       0.230000
      10902.00        67.1310         3.5100         2.4600       0.230000
      10902.50        65.8350         3.5600         2.4600       0.230000
      10903.00        64.9710         3.6200         2.4600       0.230000
      10903.50        63.5030         3.6500         2.4500       0.220000
      10904.00        61.7750         3.5300         2.4400       0.220000
      10904.50        60.0470         3.5200         2.4300       0.210000
      10905.00        58.7510         3.5500         2.4500       0.210000
      10905.50        57.8870         3.7900         2.4800       0.210000
      10906.00        60.4790         3.7600         2.4900       0.210000
      10906.50        63.7630         3.7300         2.4800       0.210000
      10907.00        67.2190         3.6000         2.4700       0.210000
      10907.50        68.9470         3.5300         2.4800       0.210000
      10908.00        68.2550         3.5700         2.4800       0.210000
      10908.50        66.9590         3.5900         2.4600       0.210000
      10909.00        63.3300         3.6200         2.4200       0.200000
      10909.50        63.0730         3.6500         2.4000       0.210000
      10910.00        63.9370         3.6000         2.4000       0.210000
      10910.50        66.7010         3.5400         2.4100       0.220000
      10911.00        68.8590         3.4500         2.4100       0.230000
      10911.50        71.1060         3.4600         2.4100       0.230000
      10912.00        72.4020         3.4000         2.4100       0.230000
      10912.50        72.2290         3.4200         2.4000       0.230000
      10913.00        71.2790         3.4200         2.4000       0.240000
      10913.50        70.4150         3.4200         2.3800       0.250000
      10914.00        70.5870         3.4000         2.3700       0.250000
      10914.50        71.4510         3.4300         2.3600       0.250000
      10915.00        72.1430         3.3900         2.3500       0.250000
      10915.50        73.0070         3.3900         2.3500       0.250000
      10916.00        73.4390         3.3900         2.3600       0.250000
      10916.50        73.6120         3.3500         2.3800       0.250000
      10917.00        76.3770         3.3100         2.4000       0.250000
      10917.50        79.6600         3.2700         2.4200       0.250000
      10918.00        82.2520         3.2900         2.4200       0.250000
      10918.50        80.1780         3.2400         2.4200       0.250000
      10919.00        78.1910         3.2200         2.4300       0.250000
      10919.50        78.7940         3.2100         2.4500       0.250000
      10920.00        81.3860         3.1700         2.4800       0.240000
      10920.50        83.9780         3.2300         2.4800       0.240000
      10921.00        84.6710         3.2000         2.4800       0.250000
      10921.50        86.0520         3.1900         2.4800       0.260000
      10922.00        86.9160         3.1900         2.4800       0.250000
      10922.50        89.0760         3.1400         2.4800       0.250000
      10923.00        88.9900         3.1100         2.4800       0.260000
      10923.50        88.9900         3.1200         2.4600       0.280000
      10924.00        86.8310         2.9800         2.4600       0.280000
      10924.50        87.9530         2.9600         2.4600       0.290000
      10925.00        89.2490         3.0100         2.4700       0.290000
      10925.50        92.7050         2.9900         2.4600       0.290000
      10926.00        95.4700         2.9400         2.4600       0.280000
      10926.50        97.6300         2.9900         2.4700       0.270000
      10927.00        98.2350         3.0100         2.4900       0.270000
      10927.50        98.2350         2.9700         2.5100       0.280000
      10928.00        97.1120         2.9800         2.5000       0.280000
      10928.50        96.0750         2.9600         2.4900       0.290000
      10929.00        93.4830         3.0000         2.4900       0.300000
      10929.50        91.1500         2.9400         2.5000       0.310000
      10930.00        91.4970         2.8800         2.5000       0.310000
      10930.50        94.5210         2.8700         2.5000       0.310000
      10931.00        97.5450         2.8300         2.5200       0.300000
      10931.50        98.3210         2.8300         2.5400       0.310000
      10932.00        97.0250         2.7900         2.5400       0.300000
      10932.50        96.5930         2.8300         2.5400       0.290000
      10933.00        94.3470         2.8300         2.5300       0.270000
      10933.50        92.6190         2.8200         2.5300       0.280000
      10934.00        90.1120         2.8500         2.5300       0.280000
      10934.50        89.4200         2.9100         2.5300       0.270000
      10935.00        89.4200         2.9300         2.5300       0.260000
      10935.50        90.2860         2.9100         2.5200       0.260000
      10936.00        89.8540         2.9200         2.5100       0.260000
      10936.50        89.0760         2.9200         2.5100       0.260000
      10937.00        88.8160         2.9300         2.5100       0.270000
      10937.50        89.7670         2.9400         2.5100       0.280000
      10938.00        90.2870         2.8800         2.5200       0.280000
      10938.50        89.5960         2.9100         2.5100       0.280000
      10939.00        88.3000         2.9000         2.5000       0.280000
      10939.50        87.2620         2.9300         2.5000       0.270000
      10940.00        86.8300         3.0200         2.5200       0.260000
      10940.50        85.4470         3.1700         2.5400       0.260000
      10941.00        83.7190         3.3100         2.5400       0.260000
      10941.50        82.5100         3.7700         2.5200       0.260000
      10942.00        82.2510         3.8300         2.5100       0.260000
      10942.50        78.3630         4.5500         2.5100       0.250000
      10943.00        71.3640         5.6600         2.4900       0.220000
      10943.50        62.6390         8.6700         2.4800       0.190000
      10944.00        52.6150        10.9100         2.4600       0.170000
      10944.50        42.4210        13.0800         2.4700       0.140000
      10945.00        32.0540        20.4000         2.5000       0.110000
      10945.50        27.3900        22.4900         2.5400       0.090000
      10946.00        25.9200        22.5800         2.5700       0.080000
      10946.50        27.2160        21.1700         2.5600       0.090000
      10947.00        28.5990        20.2000         2.5200       0.090000
      10947.50        31.1910        21.3400         2.4800       0.110000
      10948.00        35.0790        16.6900         2.4300       0.130000
      10948.50        40.6070         8.5700         2.4100       0.140000
      10949.00        47.0870         6.8200         2.4000       0.140000
      10949.50        54.2580         6.0400         2.4000       0.160000
      10950.00        58.6640         5.4300         2.3800       0.180000
      10950.50        59.4410         4.9500         2.3500       0.190000
      10951.00        55.2940         5.7400         2.3200       0.190000
      10951.50        50.8880         5.9500         2.2800       0.190000
      10952.00        46.2230         5.7000         2.2600       0.230000
      10952.50        44.4950         5.9400         2.1800       0.220000
      10953.00        42.7670         6.4900         2.2500       0.220000
      10953.50        40.6070         7.1700         2.0800       0.220000
      10954.00        36.9770         7.6000         2.1500       0.220000
