~Version Information Block
VERS .                  2.0:  CWLS LOG ASCII STANDARD - VERSION 2.0
WRAP .                   NO:  One line per depth step
~Well Information Block
#MNEM.UNIT        Data Type   Information
#---------- ----------------  -----------
STRT .FT            1300.00:  START DEPTH
STOP .FT            8397.00:  STOP DEPTH
STEP .FT               0.50:  STEP
NULL .              -999.25:  NULL VALUE
COMP .                     :  COMPANY
WELL .              SA-44HZ:  WELL
FLD  .                     :  FIELD
LOC  .                     :  LOCATION
CTRY .                     :  COUNTRY
STAT .                     :  STATE
CNTY .                     :  COUNTY
SRVC .                     :  SERVICE COMPANY
DATE .                     :  DATE
API  .                     :  API NUMBER
UWI  .                     :  UNIQUE WELL ID
~Curve Information Block
#MNEM.UNIT         API CODE   Curve Description
#---------- ----------------  -----------------
DEPTH.FT                   :  DEPTH
GR   .GAPI                 :  Gamma Ray
RT   .OHMM                 :  Deep resistivity
RHOB .G/C3                 :  Bulk density
NPHI .V/V                  :  Neutron porosity
~Parameter Information Block
#MNEM.UNIT            Value   Description
#---------- ----------------  -----------
PROJECT.            SERANG_FE:  
~Other Information Block
# 
~A       DEPTH             GR             RT           RHOB           NPHI 
# ...
       7399.00        31.2683         3.9396         2.1493       0.138200
       7399.50        30.5717         3.9695         2.1482       0.135700
       7400.00        29.4333         3.9930         2.1466       0.133200
       7400.50        28.2950         4.0000         2.1446       0.131000
       7401.00        27.3933         4.0195         2.1427       0.129100
       7401.50        28.5317         4.0904         2.1413       0.127700
       7402.00        29.4383         4.1837         2.1405       0.126800
       7402.50        30.1905         4.3005         2.1401       0.125900
       7403.00        29.2789         4.4336         2.1400       0.124400
       7403.50        28.1506         4.5685         2.1400       0.122000
       7404.00        27.8417         4.7066         2.1400       0.119400
       7404.50        27.8367         4.8261         2.1397       0.117400
       7405.00        28.5067         4.9343         2.1387       0.116500
       7405.50        29.1917         4.9967         2.1369       0.116300
       7406.00        29.8767         5.0100         2.1344       0.116400
       7406.50        30.5667         5.0344         2.1322       0.116900
       7407.00        30.6825         5.0970         2.1307       0.117900
       7407.50        31.0300         5.1736         2.1301       0.119700
       7408.00        31.0300         5.2259         2.1300       0.121800
       7408.50        31.3511         5.1916         2.1300       0.123800
       7409.00        31.8328         5.1150         2.1300       0.125200
       7409.50        34.0911         5.0384         2.1300       0.125900
       7410.00        37.3233         4.9869         2.1300       0.126200
       7410.50        40.1250         4.9503         2.1300       0.126200
       7411.00        40.8800         4.8272         2.1300       0.126700
       7411.50        40.3400         4.6118         2.1300       0.128700
       7412.00        38.5167         4.3534         2.1300       0.133800
       7412.50        36.9633         4.1511         2.1300       0.143200
       7413.00        35.6633         4.0527         2.1302       0.156500
       7413.50        36.1700         3.8150         2.1311       0.171000
       7414.00        36.6767         3.4604         2.1333       0.183800
       7414.50        36.9300         3.0672         2.1377       0.193400
       7415.00        36.9300         2.7505         2.1444       0.200700
       7415.50        35.4250         2.4684         2.1524       0.207500
       7416.00        33.9200         2.0932         2.1598       0.216100
       7416.50        37.8050         1.7397         2.1653       0.227900
       7417.00        41.6900         1.4822         2.1687       0.242600
       7417.50        44.2150         1.3451         2.1713       0.258600
       7418.00        50.3300         1.2747         2.1746       0.273100
       7418.50        50.3300         1.2114         2.1807       0.283800
       7419.00        53.9200         1.1593         2.1906       0.290100
       7419.50        67.7200         1.1356         2.2046       0.293000
       7420.00        68.7700         1.1256         2.2220       0.294000
       7420.50        68.7700         1.1489         2.2414       0.294400
       7421.00        68.7700         1.1999         2.2606       0.295300
       7421.50        67.7200         1.2548         2.2776       0.297300
       7422.00        68.7700         1.3258         2.2905       0.300600
       7422.50        75.3150         1.4234         2.2985       0.305200
       7423.00        75.3150         1.5116         2.3020       0.310500
       7423.50        83.1150         1.5347         2.3022       0.315300
       7424.00        85.4200         1.5287         2.3005       0.318900
       7424.50        85.4200         1.5655         2.2981       0.321100
       7425.00        85.4200         1.6644         2.2957       0.322100
       7425.50        80.8100         1.7316         2.2936       0.322500
       7426.00        80.8100         1.7483         2.2920       0.308800
       7426.50        72.2150         1.7418         2.2910       0.259300
       7427.00        63.6200         1.7488         2.2904       0.189800
       7427.50        59.7100         1.7652         2.2901       0.134700
       7428.00        55.8000         1.7553         2.2900       0.115500
       7428.50        55.8000         1.7303         2.2900       0.116700
       7429.00        55.8000         1.6771         2.2900       0.120300
       7429.50        63.8800         1.6048         2.2507       0.128300
       7430.00        75.2500         1.5332         2.1504       0.141900
       7430.50        75.2500         1.4898         2.0501       0.160900
       7431.00        78.5400         1.4800         1.9900       0.182500
       7431.50        78.5400         1.4800         1.9900       0.203000
       7432.00        78.5400         1.4800         1.9900       0.219400
       7432.50        79.6750         1.4800         1.9901       0.231000
       7433.00        80.8100         1.4800         1.9907       0.238800
       7433.50        80.8100         1.4800         1.9924       0.244400
       7434.00        80.8100         1.4800         1.9969       0.248800
       7434.50        80.8100         1.4800         2.0064       0.252500
       7435.00        80.8100         1.4743         2.0234       0.256200
       7435.50        80.8100         1.4643         2.0510       0.260100
       7436.00        80.8100         1.4486         2.0911       0.264700
       7436.50        84.2950         1.4211         2.1436       0.270200
       7437.00        90.1850         1.3944         2.2043       0.276800
       7437.50        90.1850         1.3784         2.2650       0.284300
       7438.00        92.5900         1.3865         2.3165       0.291800
       7438.50        92.1867         1.4032         2.3519       0.298500
       7439.00        90.5883         1.4149         2.3699       0.302900
       7439.50        88.9900         1.4200         2.3738       0.304100
       7440.00        87.0033         1.4200         2.3690       0.301900
       7440.50        83.1783         1.4256         2.3604       0.297000
       7441.00        79.3533         1.4411         2.3517       0.290300
       7441.50        76.3200         1.4611         2.3444       0.283200
       7442.00        73.4533         1.4756         2.3388       0.276400
       7442.50        70.5867         1.4800         2.3342       0.270300
       7443.00        67.7200         1.4800         2.3300       0.265100
       7443.50        67.7200         1.5187         2.3260       0.260900
       7444.00        63.6850         1.5886         2.3219       0.257400
       7444.50        59.6500         1.6200         2.3176       0.254400
       7445.00        59.6500         1.6200         2.3128       0.251500
       7445.50        59.6500         1.6858         2.3071       0.248300
       7446.00        58.6800         1.8057         2.3006       0.244700
       7446.50        57.7100         1.8600         2.2935       0.241100
       7447.00        57.7100         1.9090         2.2861       0.237800
       7447.50        57.7100         1.9989         2.2786       0.235400
       7448.00        57.7100         2.0888         2.2711       0.234600
       7448.50        57.7100         2.1300         2.2636       0.235600
       7449.00        56.4467         2.1030         2.2562       0.238100
       7449.50        55.1833         2.0531         2.2490       0.241400
       7450.00        53.9200         2.0300         2.2418       0.244400
       7450.50        54.5467         2.0139         2.2345       0.245900
       7451.00        55.1733         1.9839         2.2268       0.245100
       7451.50        55.8000         1.9789         2.2188       0.241700
       7452.00        54.5600         2.0365         2.2111       0.236100
