~Version Information Block
VERS .                  2.0:  CWLS LOG ASCII STANDARD - VERSION 2.0
WRAP .                   NO:  One line per depth step
~Well Information Block
#MNEM.UNIT        Data Type   Information
#---------- ----------------  -----------
STRT .FT             350.00:  START DEPTH
STOP .FT           10167.50:  STOP DEPTH
STEP .FT               0.50:  STEP
NULL .              -999.25:  NULL VALUE
COMP .                     :  COMPANY
WELL .                SA-41:  WELL
FLD  .                     :  FIELD
LOC  .                     :  LOCATION
CTRY .                     :  COUNTRY
STAT .                     :  STATE
CNTY .                     :  COUNTY
SRVC .                     :  SERVICE COMPANY
DATE .                     :  DATE
API  .                     :  API NUMBER
UWI  .                     :  UNIQUE WELL ID
~Curve Information Block
#MNEM.UNIT         API CODE   Curve Description
#---------- ----------------  -----------------
DEPTH.FT                   :  DEPTH
GR   .GAPI                 :  Gamma Ray
RT   .OHMM                 :  Deep resistivity
RHOB .G/C3                 :  Bulk density
NPHI .V/V                  :  Neutron porosity
~Parameter Information Block
#MNEM.UNIT            Value   Description
#---------- ----------------  -----------
PROJECT.            SERANG_FE:  
~Other Information Block
# 
~A       DEPTH             GR             RT           RHOB           NPHI 
# ...
       4255.50        80.9521         1.2577         2.3038         0.4735
       4256.00        80.1805         1.2848         2.3061         0.4701
       4256.50        79.4088         1.2994         2.3021         0.4691
       4257.00        77.7814         1.2998         2.2912         0.4723
       4257.50        78.0116         1.2966         2.2803         0.4787
       4258.00        78.5930         1.2831         2.2696         0.4872
       4258.50        79.5212         1.2710         2.2604         0.4906
       4259.00        80.5917         1.2635         2.2532         0.4859
       4259.50        81.4843         1.2576         2.2489         0.4787
       4260.00        82.9706         1.2548         2.2448         0.4754
       4260.50        84.1010         1.2545         2.2400         0.4813
       4261.00        84.5637         1.2658         2.2380         0.4869
       4261.50        84.0101         1.2851         2.2384         0.4925
       4262.00        83.3666         1.3081         2.2422         0.4897
       4262.50        82.4870         1.3278         2.2454         0.4906
       4263.00        82.0301         1.3424         2.2506         0.4912
       4263.50        80.9561         1.3565         2.2560         0.4934
       4264.00        80.2055         1.3669         2.2654         0.4911
       4264.50        79.3817         1.3723         2.2765         0.4831
       4265.00        79.1551         1.3876         2.2873         0.4707
       4265.50        78.4450         1.4114         2.2937         0.4574
       4266.00        77.7051         1.4236         2.2955         0.4412
       4266.50        77.6713         1.4191         2.2953         0.4313
       4267.00        78.3050         1.4040         2.2936         0.4240
       4267.50        79.3150         1.3943         2.2908         0.4245
       4268.00        79.9458         1.4032         2.2869         0.4201
       4268.50        81.6401         1.3959         2.2838         0.4231
       4269.00        83.0610         1.3877         2.2748         0.4247
       4269.50        84.2608         1.3823         2.2638         0.4297
       4270.00        84.2606         1.3709         2.2540         0.4347
       4270.50        84.8641         1.3416         2.2498         0.4382
       4271.00        85.4451         1.3165         2.2478         0.4488
       4271.50        85.6150         1.3163         2.2487         0.4544
       4272.00        84.6078         1.3317         2.2521         0.4656
       4272.50        83.2538         1.3504         2.2575         0.4655
       4273.00        82.6071         1.3714         2.2613         0.4678
       4273.50        82.3736         1.4105         2.2622         0.4676
       4274.00        81.8400         1.4527         2.2662         0.4713
       4274.50        81.2064         1.4947         2.2713         0.4735
       4275.00        80.7495         1.5280         2.2754         0.4763
       4275.50        80.6028         1.5531         2.2775         0.4769
       4276.00        80.2926         1.5674         2.2775         0.4744
       4276.50        78.8986         1.5809         2.2768         0.4667
       4277.00        76.9176         1.5920         2.2747         0.4551
       4277.50        74.9594         1.6011         2.2743         0.4417
       4278.00        73.7421         1.6003         2.2749         0.4322
       4278.50        73.2553         1.5986         2.2775         0.4222
       4279.00        73.2359         1.6011         2.2791         0.4181
       4279.50        73.9026         1.6033         2.2799         0.4116
       4280.00        73.8121         1.6166         2.2811         0.4013
       4280.50        73.2085         1.6447         2.2822         0.3939
       4281.00        71.9347         1.6708         2.2848         0.3935
       4281.50        70.4712         1.6862         2.2865         0.4097
       4282.00        69.0269         1.6918         2.2875         0.4208
       4282.50        67.3332         1.6974         2.2849         0.4319
       4283.00        66.4432         1.7024         2.2828         0.4375
       4283.50        66.5301         1.6709         2.2815         0.4438
       4284.00        67.0766         1.6268         2.2826         0.4424
       4284.50        68.4303         1.6009         2.2829         0.4409
       4285.00        69.6520         1.5569         2.2826         0.4431
       4285.50        70.9737         1.4975         2.2839         0.4473
       4286.00        72.3009         1.4467         2.2891         0.4489
       4286.50        73.9906         1.4026         2.2974         0.4403
       4287.00        76.9843         1.3673         2.3083         0.4272
       4287.50        79.7824         1.3518         2.3205         0.4123
       4288.00        82.0580         1.3351         2.3272         0.3997
       4288.50        83.0296         1.3481         2.3288         0.3895
       4289.00        83.7799         1.3582         2.3253         0.3822
       4289.50        82.8717         1.3481         2.3233         0.3780
       4290.00        81.9001         1.3516         2.3227         0.3749
       4290.50        80.3826         1.3695         2.3197         0.3726
       4291.00        80.1690         1.3898         2.3119         0.3655
       4291.50        79.4465         1.4038         2.2997         0.3568
       4292.00        77.2889         1.4152         2.2852         0.3571
       4292.50        74.2241         1.4121         2.2717         0.3685
       4293.00        71.3416         1.4052         2.2651         0.3771
       4293.50        70.0443         1.3982         2.2601         0.3753
       4294.00        69.0239         1.3975         2.2528         0.3707
       4294.50        68.5427         1.3994         2.2403         0.3672
       4295.00        67.3688         1.3993         2.2264         0.3677
       4295.50        66.3915         1.3966         2.2157         0.3693
       4296.00        64.6417         1.3914         2.2057         0.3760
       4296.50        63.5845         1.3885         2.1975         0.3793
       4297.00        62.9238         1.3886         2.1877         0.3767
       4297.50        61.7917         1.3872         2.1770         0.3659
       4298.00        59.6340         1.3899         2.1624         0.3596
       4298.50        57.6600         1.3925         2.1511         0.3633
       4299.00        56.7812         1.3968         2.1456         0.3683
       4299.50        57.6850         1.3988         2.1405         0.3721
       4300.00        58.1116         1.3978         2.1359         0.3673
       4300.50        57.9350         1.3971         2.1258         0.3572
       4301.00        57.0013         1.3938         2.1172         0.3444
       4301.50        56.2346         1.3891         2.1057         0.3349
       4302.00        54.9438         1.3809         2.0955         0.3294
       4302.50        52.8860         1.3678         2.0870         0.3236
       4303.00        49.2671         1.3536         2.0821         0.3178
       4303.50        45.6380         1.3382         2.0803         0.3121
       4304.00        42.0929         1.3228         2.0786         0.3113
       4304.50        39.4087         1.3079         2.0819         0.3127
       4305.00        38.2789         1.2964         2.0858         0.3149
       4305.50        37.8522         1.2874         2.0921         0.3171
       4306.00        38.9775         1.2813         2.0981         0.3180
       4306.50        40.6617         1.2771         2.1070         0.3184
       4307.00        42.6325         1.2720         2.1179         0.3177
       4307.50        44.5052         1.2656         2.1276         0.3185
       4308.00        45.6625         1.2597         2.1362         0.3238
       4308.50        46.5121         1.2568         2.1406         0.3291
