~Version Information Block
VERS .                  2.0:  CWLS LOG ASCII STANDARD - VERSION 2.0
WRAP .                   NO:  One line per depth step
~Well Information Block
#MNEM.UNIT        Data Type   Information
#---------- ----------------  -----------
STRT .FT            1300.00:  START DEPTH
STOP .FT            8397.00:  STOP DEPTH
STEP .FT               0.50:  STEP
NULL .              -999.25:  NULL VALUE
COMP .                     :  COMPANY
WELL .              SA-44HZ:  WELL
FLD  .                     :  FIELD
LOC  .                     :  LOCATION
CTRY .                     :  COUNTRY
STAT .                     :  STATE
CNTY .                     :  COUNTY
SRVC .                     :  SERVICE COMPANY
DATE .                     :  DATE
API  .                     :  API NUMBER
UWI  .                     :  UNIQUE WELL ID
~Curve Information Block
#MNEM.UNIT         API CODE   Curve Description
#---------- ----------------  -----------------
DEPTH.FT                   :  DEPTH
GR   .GAPI                 :  Gamma Ray
RT   .OHMM                 :  Deep resistivity
RHOB .G/C3                 :  Bulk density
NPHI .V/V                  :  Neutron porosity
~Parameter Information Block
#MNEM.UNIT            Value   Description
#---------- ----------------  -----------
PROJECT.            SERANG_FE:  
~Other Information Block
# 
~A       DEPTH             GR             RT           RHOB           NPHI 
# ...
       3226.00        86.1089         1.2723         2.1777       0.496500
       3226.50        87.0741         1.2603         2.1762       0.500500
       3227.00        88.4941         1.2614         2.1745       0.504900
       3227.50        90.4622         1.2745         2.1730       0.508200
       3228.00        92.9000         1.2655         2.1717       0.508400
       3228.50        94.8081         1.2323         2.1708       0.504700
       3229.00        95.4519         1.1955         2.1703       0.497600
       3229.50        94.0093         1.2012         2.1701       0.489200
       3230.00        91.3944         1.2380         2.1700       0.481200
       3230.50        88.4333         1.2932         2.1700       0.473900
       3231.00        85.9607         1.3587         2.1700       0.466300
       3231.50        83.7096         1.4222         2.1700       0.458100
       3232.00        81.4130         1.4080         2.1700       0.450000
       3232.50        79.2993         1.3208         2.1700       0.443400
       3233.00        77.6989         1.2205         2.1700       0.439100
       3233.50        77.9589         1.1212         2.1700       0.437000
       3234.00        79.7400         1.0646         2.1700       0.436200
       3234.50        82.7900         1.0322         2.1700       0.435900
       3235.00        84.8233         1.0222         2.1700       0.435400
       3235.50        85.8400         1.0542         2.1700       0.434700
       3236.00        85.5800         1.1240         2.1700       0.433800
       3236.50        85.0600         1.1906         2.1700       0.432900
       3237.00        84.2800         1.2292         2.1700       0.432300
       3237.50        83.7600         1.2400         2.1700       0.432400
       3238.00        83.3722         1.2647         2.1700       0.433200
       3238.50        82.9889         1.3296         2.1699       0.434600
       3239.00        82.3500         1.4097         2.1696       0.436200
       3239.50        81.7111         1.4606         2.1691       0.437400
       3240.00        81.2017         1.4597         2.1682       0.438100
       3240.50        80.6956         1.4253         2.1669       0.438400
       3241.00        80.0650         1.3786         2.1654       0.438500
       3241.50        79.4344         1.3357         2.1637       0.438900
       3242.00        79.4400         1.3123         2.1623       0.440500
       3242.50        80.4656         1.3068         2.1612       0.445100
       3243.00        82.3850         1.3344         2.1605       0.453700
       3243.50        84.2178         1.3500         2.1598       0.465600
       3244.00        85.1094         1.3500         2.1589       0.478000
       3244.50        84.9733         1.3500         2.1573       0.487900
       3245.00        84.3667         1.3500         2.1546       0.493700
       3245.50        83.8467         1.3500         2.1508       0.496200
       3246.00        83.3311         1.3500         2.1461       0.496800
       3246.50        82.7333         1.3500         2.1413       0.496900
       3247.00        81.9667         1.3500         2.1370       0.496900
       3247.50        81.4556         1.3500         2.1338       0.496700
       3248.00        81.3278         1.3500         2.1317       0.496400
       3248.50        81.7111         1.3965         2.1307       0.495900
       3249.00        82.3500         1.4200         2.1302       0.495300
       3249.50        83.1630         1.4200         2.1300       0.494700
       3250.00        84.0685         1.4200         2.1300       0.494300
       3250.50        85.2408         1.4200         2.1300       0.494200
       3251.00        86.5481         1.4200         2.1300       0.494100
       3251.50        87.8593         1.4200         2.1300       0.494100
       3252.00        88.9148         1.4200         2.1300       0.493500
       3252.50        89.7111         1.4200         2.1300       0.491900
       3253.00        90.1111         1.4200         2.1299       0.489000
       3253.50        89.9778         1.4200         2.1296       0.486000
       3254.00        89.4000         1.4200         2.1292       0.483900
       3254.50        88.6459         1.4200         2.1284       0.483300
       3255.00        87.9837         1.4200         2.1271       0.484000
       3255.50        87.3259         1.4200         2.1254       0.485900
       3256.00        86.7141         1.4200         2.1232       0.489100
       3256.50        85.9318         1.4200         2.1206       0.493200
       3257.00        84.8963         1.4200         2.1180       0.497600
       3257.50        83.5200         1.4200         2.1156       0.501200
       3258.00        82.2311         1.4200         2.1136       0.503400
       3258.50        81.9800         1.4200         2.1121       0.504500
       3259.00        83.2889         1.4200         2.1112       0.504500
       3259.50        85.9000         1.4200         2.1106       0.503100
       3260.00        88.5111         1.4200         2.1104       0.499600
       3260.50        90.0778         1.4200         2.1104       0.493200
       3261.00        90.6000         1.4200         2.1107       0.484000
       3261.50        90.3355         1.4200         2.1114       0.473400
       3262.00        89.5422         1.4200         2.1124       0.463600
       3262.50        88.2200         1.4200         2.1139       0.456900
       3263.00        86.8978         1.4200         2.1159       0.454100
       3263.50        85.9744         1.4200         2.1182       0.454900
       3264.00        85.3200         1.4420         2.1206       0.457600
       3264.50        84.6700         1.4721         2.1230       0.460600
       3265.00        84.1941         1.4800         2.1251       0.462700
       3265.50        84.3263         1.4800         2.1267       0.463600
       3266.00        85.2408         1.5060         2.1277       0.464000
       3266.50        86.4593         1.5411         2.1281       0.464000
       3267.00        87.9092         1.5500         2.1280       0.464000
       3267.50        89.6481         1.5500         2.1274       0.464000
       3268.00        91.8500         1.5500         2.1265       0.464300
       3268.50        93.8778         1.5500         2.1253       0.469900
       3269.00        94.9578         1.5500         2.1240       0.477200
       3269.50        94.9533         1.5234         2.1229       0.484100
       3270.00        94.2700         1.4883         2.1219       0.485700
       3270.50        93.4074         1.4800         2.1212       0.485700
       3271.00        92.4596         1.4800         2.1207       0.485700
       3271.50        91.2474         1.4569         2.1204       0.485700
       3272.00        89.9926         1.4269         2.1204       0.485700
       3272.50        88.9170         1.4110         2.1206       0.486000
       3273.00        88.3792         1.3902         2.1210       0.486600
       3273.50        88.2000         1.3669         2.1216       0.488000
       3274.00        88.2889         1.3526         2.1224       0.490400
       3274.50        88.5555         1.3500         2.1234       0.493700
       3275.00        89.0889         1.3029         2.1245       0.498000
       3275.50        89.7111         1.2900         2.1254       0.502900
       3276.00        90.2445         1.2900         2.1260       0.508100
       3276.50        90.5111         1.3243         2.1261       0.512800
       3277.00        90.6000         1.3677         2.1256       0.516700
       3277.50        91.0111         1.4112         2.1244       0.518200
       3278.00        92.2445         1.4200         2.1226       0.516300
       3278.50        94.3000         1.4200         2.1204       0.510400
       3279.00        96.3556         1.4200         2.1181       0.502300
