~Version Information Block
VERS .                  2.0:  CWLS LOG ASCII STANDARD - VERSION 2.0
WRAP .                   NO:  One line per depth step
~Well Information Block
#MNEM.UNIT        Data Type   Information
#---------- ----------------  -----------
STRT .FT             350.00:  START DEPTH
STOP .FT           10167.50:  STOP DEPTH
STEP .FT               0.50:  STEP
NULL .              -999.25:  NULL VALUE
COMP .                     :  COMPANY
WELL .                SA-41:  WELL
FLD  .                     :  FIELD
LOC  .                     :  LOCATION
CTRY .                     :  COUNTRY
STAT .                     :  STATE
CNTY .                     :  COUNTY
SRVC .                     :  SERVICE COMPANY
DATE .                     :  DATE
API  .                     :  API NUMBER
UWI  .                     :  UNIQUE WELL ID
~Curve Information Block
#MNEM.UNIT         API CODE   Curve Description
#---------- ----------------  -----------------
DEPTH.FT                   :  DEPTH
GR   .GAPI                 :  Gamma Ray
RT   .OHMM                 :  Deep resistivity
RHOB .G/C3                 :  Bulk density
NPHI .V/V                  :  Neutron porosity
~Parameter Information Block
#MNEM.UNIT            Value   Description
#---------- ----------------  -----------
PROJECT.            SERANG_FE:  
~Other Information Block
# 
~A       DEPTH             GR             RT           RHOB           NPHI 
# ...
       6181.50        76.4800         1.4062         2.3411         0.3331
       6182.00        76.0000         1.4062         2.3411         0.3331
       6182.50        76.4800         1.4062         2.3411         0.3331
       6183.00        76.3200         1.4062         2.3411         0.3331
       6183.50        76.4800         1.4062         2.3411         0.3331
       6184.00        76.4800         1.4476         2.3360         0.3468
       6184.50        75.8400         1.4920         2.3259         0.3545
       6185.00        75.1900         1.5423         2.3078         0.3592
       6185.50        72.7700         1.5897         2.2877         0.3629
       6186.00        69.3700         1.6321         2.2706         0.3665
       6186.50        63.5500         1.6675         2.2524         0.3672
       6187.00        57.7300         1.6939         2.2333         0.3689
       6187.50        51.9100         1.7122         2.2132         0.3726
       6188.00        47.5400         1.7226         2.1991         0.3823
       6188.50        44.9500         1.7260         2.1880         0.3910
       6189.00        45.1100         1.6830         2.1810         0.3840
       6189.50        46.4100         1.6380         2.1800         0.3810
       6190.00        47.2200         1.5800         2.1890         0.3810
       6190.50        47.7000         1.5220         2.2040         0.3820
       6191.00        48.3500         1.4740         2.2140         0.3900
       6191.50        50.6100         1.4300         2.2240         0.4060
       6192.00        53.3700         1.3790         2.2350         0.4280
       6192.50        58.2300         1.3260         2.2490         0.4480
       6193.00        64.5300         1.2940         2.2590         0.4580
       6193.50        72.2900         1.3080         2.2710         0.4610
       6194.00        78.5900         1.3640         2.2860         0.4600
       6194.50        81.5000         1.4490         2.2990         0.4590
       6195.00        80.5300         1.5230         2.3130         0.4560
       6195.50        76.6500         1.5960         2.3260         0.4520
       6196.00        68.4000         1.6490         2.3410         0.4410
       6196.50        61.1200         1.7000         2.3550         0.4260
       6197.00        55.3000         1.7610         2.3680         0.4060
       6197.50        54.3300         1.8310         2.3780         0.3900
       6198.00        54.4900         1.8930         2.3810         0.3810
       6198.50        56.9200         1.9110         2.3740         0.3830
       6199.00        59.8300         1.8840         2.3650         0.3920
       6199.50        62.5800         1.8270         2.3560         0.4050
       6200.00        65.9700         1.7850         2.3490         0.4140
       6200.50        67.9100         1.7400         2.3380         0.4240
       6201.00        69.3700         1.7080         2.3290         0.4330
       6201.50        67.9100         1.6720         2.3210         0.4430
       6202.00        68.0800         1.6270         2.3190         0.4480
       6202.50        69.5300         1.5800         2.3210         0.4490
       6203.00        71.9600         1.5270         2.3270         0.4430
       6203.50        74.7100         1.4820         2.3370         0.4330
       6204.00        75.6800         1.4510         2.3460         0.4190
       6204.50        75.6800         1.4240         2.3570         0.4030
       6205.00        73.2500         1.4010         2.3630         0.3950
       6205.50        71.3100         1.3890         2.3710         0.3890
       6206.00        69.5300         1.3850         2.3690         0.3860
       6206.50        69.6900         1.3910         2.3610         0.3810
       6207.00        70.1800         1.4120         2.3560         0.3780
       6207.50        70.0200         1.4310         2.3420         0.3750
       6208.00        69.8500         1.4600         2.3330         0.3750
       6208.50        70.3400         1.4890         2.3280         0.3780
       6209.00        70.8300         1.5120         2.3290         0.3840
       6209.50        71.3100         1.5290         2.3290         0.3900
       6210.00        72.2800         1.5510         2.3300         0.3920
       6210.50        73.7400         1.5690         2.3320         0.3890
       6211.00        74.7100         1.5780         2.3440         0.3820
       6211.50        74.2200         1.5840         2.3620         0.3750
       6212.00        75.1900         1.5910         2.3690         0.3690
       6212.50        75.1900         1.6040         2.3810         0.3650
       6213.00        74.7100         1.6000         2.3910         0.3630
       6213.50        73.2500         1.5890         2.3970         0.3570
       6214.00        72.7700         1.5840         2.3990         0.3490
       6214.50        72.2800         1.5890         2.4010         0.3410
       6215.00        71.1500         1.5860         2.4030         0.3360
       6215.50        69.6900         1.5740         2.4020         0.3370
       6216.00        68.2400         1.5660         2.3990         0.3410
       6216.50        67.9100         1.5620         2.3990         0.3460
       6217.00        68.7200         1.5550         2.4030         0.3500
       6217.50        70.9900         1.5420         2.4070         0.3530
       6218.00        74.3800         1.5350         2.4090         0.3550
       6218.50        77.9400         1.5340         2.4120         0.3600
       6219.00        81.5000         1.5270         2.4150         0.3660
       6219.50        83.4400         1.5130         2.4150         0.3720
       6220.00        83.4400         1.5000         2.4120         0.3770
       6220.50        82.9500         1.4930         2.4100         0.3800
       6221.00        81.5000         1.4900         2.4110         0.3820
       6221.50        81.0100         1.5050         2.4110         0.3830
       6222.00        79.0700         1.5280         2.4100         0.3840
       6222.50        77.6200         1.5460         2.4100         0.3840
       6223.00        75.6800         1.5650         2.4110         0.3820
       6223.50        74.3800         1.5800         2.4130         0.3790
       6224.00        73.2500         1.5960         2.4150         0.3780
       6224.50        72.2800         1.6090         2.4170         0.3790
       6225.00        71.4700         1.6210         2.4200         0.3790
       6225.50        71.6400         1.6320         2.4210         0.3770
       6226.00        71.6400         1.6360         2.4200         0.3750
       6226.50        72.2800         1.6180         2.4170         0.3730
       6227.00        71.8000         1.6040         2.4150         0.3750
       6227.50        72.2800         1.5980         2.4110         0.3750
       6228.00        72.7700         1.5910         2.4070         0.3750
       6228.50        74.7100         1.5880         2.4020         0.3740
       6229.00        76.1600         1.5860         2.3970         0.3730
       6229.50        76.6500         1.5950         2.3960         0.3700
       6230.00        75.1900         1.6090         2.3960         0.3670
       6230.50        72.7700         1.6220         2.3960         0.3660
       6231.00        70.3400         1.6260         2.3930         0.3660
       6231.50        69.8500         1.6310         2.3920         0.3680
       6232.00        70.6600         1.6250         2.3920         0.3680
       6232.50        72.4400         1.6210         2.3950         0.3700
       6233.00        72.9300         1.6170         2.3970         0.3730
       6233.50        74.0600         1.6070         2.3980         0.3760
       6234.00        78.1000         1.5990         2.3970         0.3780
       6234.50        81.5000         1.5910         2.3950         0.3780
