~Version Information Block
VERS .                  2.0:  CWLS LOG ASCII STANDARD - VERSION 2.0
WRAP .                   NO:  One line per depth step
~Well Information Block
#MNEM.UNIT        Data Type   Information
#---------- ----------------  -----------
STRT .FT             350.00:  START DEPTH
STOP .FT           10167.50:  STOP DEPTH
STEP .FT               0.50:  STEP
NULL .              -999.25:  NULL VALUE
COMP .                     :  COMPANY
WELL .                SA-41:  WELL
FLD  .                     :  FIELD
LOC  .                     :  LOCATION
CTRY .                     :  COUNTRY
STAT .                     :  STATE
CNTY .                     :  COUNTY
SRVC .                     :  SERVICE COMPANY
DATE .                     :  DATE
API  .                     :  API NUMBER
UWI  .                     :  UNIQUE WELL ID
~Curve Information Block
#MNEM.UNIT         API CODE   Curve Description
#---------- ----------------  -----------------
DEPTH.FT                   :  DEPTH
GR   .GAPI                 :  Gamma Ray
RT   .OHMM                 :  Deep resistivity
RHOB .G/C3                 :  Bulk density
NPHI .V/V                  :  Neutron porosity
~Parameter Information Block
#MNEM.UNIT            Value   Description
#---------- ----------------  -----------
PROJECT.            SERANG_FE:  
~Other Information Block
# 
~A       DEPTH             GR             RT           RHOB           NPHI 
        350.00         4.2500         0.4400      -999.2500      -999.2500
        350.50         4.2500         0.4400      -999.2500      -999.2500
        351.00         4.2500         0.4400      -999.2500      -999.2500
        351.50         4.2500         0.4144      -999.2500      -999.2500
        352.00         4.2500         0.3930      -999.2500      -999.2500
        352.50         4.2500         0.3710      -999.2500      -999.2500
        353.00         4.3600         0.3470      -999.2500      -999.2500
        353.50         4.6700         0.3230      -999.2500      -999.2500
        354.00         4.9700         0.2990      -999.2500      -999.2500
        354.50         4.7500         0.2750      -999.2500      -999.2500
        355.00         4.3300         0.2470      -999.2500      -999.2500
        355.50         3.8400         0.2190      -999.2500      -999.2500
        356.00         3.7600         0.1910      -999.2500      -999.2500
        356.50         3.6900         0.1930      -999.2500      -999.2500
        357.00         3.3500         0.1960      -999.2500      -999.2500
        357.50         3.0000         0.1970      -999.2500      -999.2500
        358.00         2.6600         0.2000      -999.2500      -999.2500
        358.50         2.4900         0.1980      -999.2500      -999.2500
        359.00         2.3200         0.1960      -999.2500      -999.2500
        359.50         2.1400         0.1940      -999.2500      -999.2500
        360.00         2.1400         0.1960      -999.2500      -999.2500
        360.50         2.3300         0.1980      -999.2500      -999.2500
        361.00         2.5100         0.2000      -999.2500      -999.2500
        361.50         2.6900         0.1950      -999.2500      -999.2500
        362.00         2.6900         0.1900      -999.2500      -999.2500
        362.50         2.8400         0.1850      -999.2500      -999.2500
        363.00         2.9800         0.1900      -999.2500      -999.2500
        363.50         3.1300         0.2000      -999.2500      -999.2500
        364.00         3.1300         0.2100      -999.2500      -999.2500
        364.50         3.1300         0.2200      -999.2500      -999.2500
        365.00         3.1600         0.2200      -999.2500      -999.2500
        365.50         3.1900         0.2200      -999.2500      -999.2500
        366.00         3.2200         0.2200      -999.2500      -999.2500
        366.50         3.2200         0.2200      -999.2500      -999.2500
        367.00         3.3500         0.2200      -999.2500      -999.2500
        367.50         3.4700         0.2200      -999.2500      -999.2500
        368.00         3.6000         0.2100      -999.2500      -999.2500
        368.50         3.6000         0.2000      -999.2500      -999.2500
        369.00         3.6000         0.1900      -999.2500      -999.2500
        369.50         3.6300         0.1800      -999.2500      -999.2500
        370.00         3.6700         0.1820      -999.2500      -999.2500
        370.50         3.7100         0.1840      -999.2500      -999.2500
        371.00         3.7100         0.1860      -999.2500      -999.2500
        371.50         3.7100         0.1880      -999.2500      -999.2500
        372.00         3.8000         0.1900      -999.2500      -999.2500
        372.50         3.9000         0.1980      -999.2500      -999.2500
        373.00         3.9900         0.2060      -999.2500      -999.2500
        373.50         3.9900         0.2140      -999.2500      -999.2500
        374.00         3.9900         0.2220      -999.2500      -999.2500
        374.50         3.8200         0.2230      -999.2500      -999.2500
        375.00         3.6500         0.2220      -999.2500      -999.2500
        375.50         3.4700         0.2210      -999.2500      -999.2500
        376.00         3.4700         0.2200      -999.2500      -999.2500
        376.50         3.6500         0.2220      -999.2500      -999.2500
        377.00         3.8300         0.2240      -999.2500      -999.2500
        377.50         4.0000         0.2200      -999.2500      -999.2500
        378.00         4.0000         0.2160      -999.2500      -999.2500
        378.50         4.1800         0.2120      -999.2500      -999.2500
        379.00         4.3600         0.2140      -999.2500      -999.2500
        379.50         4.5400         0.2230      -999.2500      -999.2500
        380.00         4.5400         0.2320      -999.2500      -999.2500
        380.50         4.5400         0.2410      -999.2500      -999.2500
        381.00         4.7800         0.2500      -999.2500      -999.2500
        381.50         5.0300         0.2560      -999.2500      -999.2500
        382.00         5.2700         0.2560      -999.2500      -999.2500
        382.50         5.2700         0.2560      -999.2500      -999.2500
        383.00         5.2700         0.2560      -999.2500      -999.2500
        383.50         5.2700         0.2560      -999.2500      -999.2500
        384.00         5.4300         0.2500      -999.2500      -999.2500
        384.50         5.5900         0.2440      -999.2500      -999.2500
        385.00         5.7600         0.2350      -999.2500      -999.2500
        385.50         5.7600         0.2260      -999.2500      -999.2500
        386.00         5.7600         0.2170      -999.2500      -999.2500
        386.50         5.7600         0.2080      -999.2500      -999.2500
        387.00         5.8600         0.2050      -999.2500      -999.2500
        387.50         5.9600         0.2020      -999.2500      -999.2500
        388.00         6.0500         0.2000      -999.2500      -999.2500
        388.50         6.0500         0.1980      -999.2500      -999.2500
        389.00         6.0500         0.1960      -999.2500      -999.2500
        389.50         6.0500         0.1940      -999.2500      -999.2500
        390.00         6.1600         0.1980      -999.2500      -999.2500
        390.50         6.2700         0.2020      -999.2500      -999.2500
        391.00         6.3800         0.2060      -999.2500      -999.2500
        391.50         6.3800         0.2100      -999.2500      -999.2500
        392.00         6.2200         0.2120      -999.2500      -999.2500
        392.50         6.0600         0.2140      -999.2500      -999.2500
        393.00         5.9000         0.2150      -999.2500      -999.2500
        393.50         5.9000         0.2160      -999.2500      -999.2500
        394.00         5.7300         0.2170      -999.2500      -999.2500
        394.50         5.5600         0.2170      -999.2500      -999.2500
        395.00         5.4000         0.2140      -999.2500      -999.2500
        395.50         5.4000         0.2110      -999.2500      -999.2500
        396.00         5.0200         0.2080      -999.2500      -999.2500
        396.50         4.6400         0.2120      -999.2500      -999.2500
        397.00         4.2500         0.2180      -999.2500      -999.2500
        397.50         4.2500         0.2240      -999.2500      -999.2500
        398.00         4.2500         0.2300      -999.2500      -999.2500
        398.50         4.3800         0.2360      -999.2500      -999.2500
        399.00         4.5100         0.2380      -999.2500      -999.2500
        399.50         4.6300         0.2410      -999.2500      -999.2500
        400.00         4.6300         0.2440      -999.2500      -999.2500
        400.50         4.6300         0.2470      -999.2500      -999.2500
        401.00         4.5300         0.2500      -999.2500      -999.2500
        401.50         4.4300         0.2510      -999.2500      -999.2500
        402.00         4.3300         0.2520      -999.2500      -999.2500
        402.50         4.3300         0.2530      -999.2500      -999.2500
        403.00         4.3300         0.2540      -999.2500      -999.2500
