~Version Information Block
VERS .                  2.0:  CWLS LOG ASCII STANDARD - VERSION 2.0
WRAP .                   NO:  One line per depth step
~Well Information Block
#MNEM.UNIT        Data Type   Information
#---------- ----------------  -----------
STRT .FT            1300.00:  START DEPTH
STOP .FT            8397.00:  STOP DEPTH
STEP .FT               0.50:  STEP
NULL .              -999.25:  NULL VALUE
COMP .                     :  COMPANY
WELL .              SA-44HZ:  WELL
FLD  .                     :  FIELD
LOC  .                     :  LOCATION
CTRY .                     :  COUNTRY
STAT .                     :  STATE
CNTY .                     :  COUNTY
SRVC .                     :  SERVICE COMPANY
DATE .                     :  DATE
API  .                     :  API NUMBER
UWI  .                     :  UNIQUE WELL ID
~Curve Information Block
#MNEM.UNIT         API CODE   Curve Description
#---------- ----------------  -----------------
DEPTH.FT                   :  DEPTH
GR   .GAPI                 :  Gamma Ray
RT   .OHMM                 :  Deep resistivity
RHOB .G/C3                 :  Bulk density
NPHI .V/V                  :  Neutron porosity
~Parameter Information Block
#MNEM.UNIT            Value   Description
#---------- ----------------  -----------
PROJECT.            SERANG_FE:  
~Other Information Block
# 
~A       DEPTH             GR             RT           RHOB           NPHI 
# ...
       6436.00        92.5900         2.0247         2.3894       0.343700
       6436.50        92.5900         1.9521         2.3966       0.346200
       6437.00        92.5900         1.8164         2.4000       0.347400
       6437.50        96.3150         1.6845         2.4030       0.347700
       6438.00       100.0400         1.6166         2.4083       0.347800
       6438.50        99.2067         1.5471         2.4165       0.347400
       6439.00        96.7283         1.4800         2.4258       0.345200
       6439.50        94.2500         1.4800         2.4333       0.338700
       6440.00        91.3950         1.4788         2.4378       0.325200
       6440.50        89.7867         1.4143         2.4396       0.304900
       6441.00        84.8350         1.3501         2.4400       0.281700
       6441.50        77.0667         1.3716         2.4402       0.261400
       6442.00        68.8122         1.5218         2.4418       0.248000
       6442.50        62.7889         1.6723         2.4456       0.241300
       6443.00        60.1356         3.0256         2.4512       0.238100
       6443.50        58.3667         5.9251         2.4563       0.234300
       6444.00        56.1733         9.0425         2.4592       0.226700
       6444.50        54.7278        11.2669         2.4600       0.214300
       6445.00        53.2822        11.7295         2.4600       0.198400
       6445.50        54.1872        11.8220         2.4600       0.181700
       6446.00        56.9578        11.5016         2.4600       0.167000
       6446.50        60.3800        11.2128         2.4600       0.155400
       6447.00        62.3294        11.1442         2.4600       0.146800
       6447.50        60.0300        11.2755         2.4598       0.140600
       6448.00        54.5089        11.5487         2.4592       0.136900
       6448.50        47.5111        11.4244         2.4575       0.135900
       6449.00        42.6178        11.0859         2.4540       0.137600
       6449.50        40.5639        10.4298         2.4467       0.141200
       6450.00        41.7355         9.9476         2.4382       0.145400
       6450.50        45.4900         9.2453         2.4337       0.149500
       6451.00        50.5628         8.4648         2.4285       0.153400
       6451.50        56.6111         7.6593         2.4243       0.157400
       6452.00        61.0344         6.9057         2.4216       0.161800
       6452.50        62.8683         6.0714         2.4194       0.166100
       6453.00        62.9767         5.1124         2.4164       0.170200
       6453.50        62.3150         4.1735         2.4111       0.174300
       6454.00        63.3167         3.5377         2.4023       0.178900
       6454.50        63.6383         3.1670         2.3899       0.183700
       6455.00        62.6567         3.0640         2.3752       0.187900
       6455.50        60.0283         3.0354         2.3604       0.190600
       6456.00        57.7400         2.9616         2.3480       0.191600
       6456.50        57.0733         2.8407         2.3385       0.191300
       6457.00        56.4533         2.7448         2.3300       0.190200
       6457.50        55.5205         2.7416         2.3184       0.188800
       6458.00        53.8483         2.8123         2.3009       0.187400
       6458.50        53.2167         2.8983         2.2785       0.185800
       6459.00        53.8361         2.9683         2.2569       0.183800
       6459.50        56.8333         3.0169         2.2413       0.181300
       6460.00        59.7283         3.0611         2.2332       0.178300
       6460.50        63.0100         3.1070         2.2305       0.174600
       6461.00        64.3350         3.2080         2.2300       0.169600
       6461.50        65.6600         3.3881         2.2300       0.162700
       6462.00        66.7100         3.6099         2.2300       0.154200
       6462.50        67.7600         3.8908         2.2300       0.145400
       6463.00        69.1533         4.1813         2.2300       0.138200
       6463.50        68.7900         4.7022         2.2300       0.133400
       6464.00        67.7433         5.6350         2.2300       0.130900
       6464.50        62.5717         6.6562         2.2300       0.128000
       6465.00        58.1067         8.2172         2.2300       0.122000
       6465.50        51.2267        10.2789         2.2300       0.112300
       6466.00        45.4283        13.1097         2.2300       0.102000
       6466.50        39.3767        16.3531         2.2294       0.095000
       6467.00        36.4233        19.0473         2.2265       0.092200
       6467.50        35.9167        21.1825         2.2176       0.091700
       6468.00        35.6633        22.5744         2.2002       0.091400
       6468.50        35.4100        23.7000         2.1755       0.090600
       6469.00        35.4100        24.6090         2.1493       0.088500
       6469.50        35.4100        25.1204         2.1285       0.085100
       6470.00        35.4100        25.3822         2.1162       0.081100
       6470.50        35.4100        25.4600         2.1107       0.077500
       6471.00        35.6633        25.2480         2.1074       0.075200
       6471.50        36.1700        24.8774         2.1022       0.074200
       6472.00        38.9000        24.4072         2.0929       0.073900
       6472.50        43.9017        23.8706         2.0794       0.073900
       6473.00        48.3517        23.3444         2.0640       0.074000
       6473.50        50.5800        22.8236         2.0498       0.074300
       6474.00        49.6850        23.2598         2.0394       0.074700
       6474.50        49.6817        24.6531         2.0334       0.075300
       6475.00        49.6767        26.4144         2.0304       0.075900
       6475.50        50.2700        27.8369         2.0278       0.076100
       6476.00        49.9733        28.4760         2.0229       0.075800
       6476.50        49.3800        28.4212         2.0134       0.075000
       6477.00        48.7867        27.9249         1.9986       0.073900
       6477.50        44.6367        27.7932         1.9802       0.072700
       6478.00        39.8000        28.4998         1.9617       0.071800
       6478.50        34.9633        30.0373         1.9468       0.071200
       6479.00        32.9967        31.6766         1.9372       0.070800
       6479.50        30.2200        33.1198         1.9323       0.070600
       6480.00        28.8217        35.5519         1.9303       0.070400
       6480.50        29.3739        39.1132         1.9290       0.070400
       6481.00        32.8922        42.2318         1.9268       0.070600
       6481.50        36.3272        43.0824         1.9228       0.070900
       6482.00        39.3283        42.8140         1.9167       0.071300
       6482.50        41.1567        43.4495         1.9093       0.071800
       6483.00        41.1500        44.9247         1.9020       0.072400
       6483.50        40.6100        46.4361         1.8963       0.073100
       6484.00        40.3400        47.3652         1.8927       0.073700
       6484.50        40.8800        48.1061         1.8908       0.074000
       6485.00        41.4200        48.8629         1.8901       0.073700
       6485.50        41.6900        49.6227         1.8895       0.073200
       6486.00        40.0900        50.0673         1.8888       0.072900
       6486.50        38.4900        50.1200         1.8877       0.073600
       6487.00        38.4900        51.5729         1.8868       0.075600
       6487.50        38.4900        53.2004         1.8870       0.079200
       6488.00        37.7100        54.8280         1.8896       0.084400
       6488.50        36.9300        54.8500         1.8959       0.091400
       6489.00        36.9300        54.9756         1.9068       0.100500
