~Version Information Block
VERS .                  2.0:  CWLS LOG ASCII STANDARD - VERSION 2.0
WRAP .                   NO:  One line per depth step
~Well Information Block
#MNEM.UNIT        Data Type   Information
#---------- ----------------  -----------
STRT .FT            1300.00:  START DEPTH
STOP .FT            8397.00:  STOP DEPTH
STEP .FT               0.50:  STEP
NULL .              -999.25:  NULL VALUE
COMP .                     :  COMPANY
WELL .              SA-44HZ:  WELL
FLD  .                     :  FIELD
LOC  .                     :  LOCATION
CTRY .                     :  COUNTRY
STAT .                     :  STATE
CNTY .                     :  COUNTY
SRVC .                     :  SERVICE COMPANY
DATE .                     :  DATE
API  .                     :  API NUMBER
UWI  .                     :  UNIQUE WELL ID
~Curve Information Block
#MNEM.UNIT         API CODE   Curve Description
#---------- ----------------  -----------------
DEPTH.FT                   :  DEPTH
GR   .GAPI                 :  Gamma Ray
RT   .OHMM                 :  Deep resistivity
RHOB .G/C3                 :  Bulk density
NPHI .V/V                  :  Neutron porosity
~Parameter Information Block
#MNEM.UNIT            Value   Description
#---------- ----------------  -----------
PROJECT.            SERANG_FE:  
~Other Information Block
# 
~A       DEPTH             GR             RT           RHOB           NPHI 
# ...
       2744.50        86.6267         1.2685         2.1400       0.476700
       2745.00        86.3644         1.1800         2.1400       0.476700
       2745.50        86.6267         1.1950         2.1400       0.476800
       2746.00        87.4133         1.2517         2.1400       0.477300
       2746.50        87.9378         1.3058         2.1400       0.478700
       2747.00        89.8333         1.3346         2.1400       0.481600
       2747.50        93.1000         1.3146         2.1400       0.485700
       2748.00        96.3667         1.2973         2.1403       0.489900
       2748.50        98.0000         1.2900         2.1413       0.493100
       2749.00        98.0000         1.2601         2.1437       0.494300
       2749.50        98.0000         1.1800         2.1479       0.493800
       2750.00        98.2811         1.1800         2.1537       0.492000
       2750.50        98.8433         1.1754         2.1598       0.489800
       2751.00        99.6867         1.1587         2.1648       0.487500
       2751.50       100.2489         1.1420         2.1679       0.485100
       2752.00       100.1083         1.1300         2.1694       0.482500
       2752.50        99.2650         1.1300         2.1699       0.479200
       2753.00        98.4217         1.1300         2.1701       0.475600
       2753.50        98.0000         1.1300         2.1703       0.472400
       2754.00        98.0000         1.1441         2.1708       0.470100
       2754.50        98.0000         1.1800         2.1719       0.469000
       2755.00        97.7244         1.1800         2.1736       0.468700
       2755.50        96.7622         1.1800         2.1756       0.468600
       2756.00        95.1133         1.1800         2.1774       0.468700
       2756.50        93.1933         1.1800         2.1788       0.469400
       2757.00        91.8922         1.1800         2.1796       0.471200
       2757.50        91.0744         1.1703         2.1799       0.474900
       2758.00        91.6167         1.1370         2.1800       0.480000
       2758.50        92.4317         1.1036         2.1798       0.485500
       2759.00        93.5183         1.0800         2.1791       0.489800
       2759.50        94.0650         1.0726         2.1776       0.492300
       2760.00        94.5433         1.0476         2.1747       0.493200
       2760.50        95.0900         1.0300         2.1709       0.493400
       2761.00        95.6411         1.0300         2.1668       0.493500
       2761.50        96.3333         1.0300         2.1635       0.493800
       2762.00        97.1667         1.0300         2.1614       0.495000
       2762.50        97.7222         1.0350         2.1604       0.497700
       2763.00       101.9867         1.0567         2.1600       0.502000
       2763.50       109.9600         1.0901         2.1596       0.507300
       2764.00       117.9333         1.1184         2.1581       0.512400
       2764.50       121.9200         1.1300         2.1542       0.516700
       2765.00       121.9200         1.1637         2.1465       0.520300
       2765.50       133.9033         1.2400         2.1347       0.523700
       2766.00       145.8867         1.2400         2.1209       0.527300
       2766.50       159.5372         1.2400         2.1080       0.530500
       2767.00       164.5389         1.2400         2.0985       0.533300
       2767.50       172.8750         1.2556         2.0930       0.535800
       2768.00       181.2111         1.2900         2.0907       0.538800
       2768.50       185.6345         1.2900         2.0902       0.542400
       2769.00       186.1450         1.2900         2.0907       0.546000
       2769.50       184.9883         1.2900         2.0921       0.548600
       2770.00       182.1767         1.2900         2.0945       0.549700
       2770.50       177.7100         1.2487         2.0970       0.549400
       2771.00       171.0100         1.1186         2.0989       0.548400
       2771.50       164.7811         1.0300         2.0997       0.547300
       2772.00       159.0233         1.0524         2.1000       0.546300
       2772.50       153.7367         1.1225         2.1000       0.545600
       2773.00       150.2122         1.1926         2.1000       0.543400
       2773.50       144.4983         1.2400         2.1000       0.534600
       2774.00       136.5950         1.2400         2.1000       0.515900
       2774.50       128.6917         1.2400         2.1000       0.490400
       2775.00       124.7400         1.2400         2.1000       0.468100
       2775.50       118.6500         1.3646         2.0999       0.455200
       2776.00       106.4700         1.6200         2.0995       0.448900
       2776.50        94.2900         1.6200         2.0981       0.442900
       2777.00        87.9378         1.6200         2.0949       0.432500
       2777.50        87.4133         1.6881         2.0893       0.417900
       2778.00        86.6267         1.8933         2.0813       0.400300
       2778.50        86.1022         2.0300         2.0719       0.381300
       2779.00        82.1883         2.2704         2.0624       0.362300
       2779.50        74.8850         2.9880         2.0542       0.343800
       2780.00        67.5817         3.7055         2.0475       0.325800
       2780.50        63.9300         4.1800         2.0418       0.308600
       2781.00        60.2583         4.3602         2.0365       0.292400
       2781.50        52.9150         4.8907         2.0317       0.277500
       2782.00        45.5717         5.2400         2.0274       0.264700
       2782.50        41.7189         5.2400         2.0242       0.254600
       2783.00        41.3567         5.5205         2.0220       0.247500
       2783.50        40.8133         6.3363         2.0208       0.242700
       2784.00        40.4511         6.8700         2.0199       0.239200
       2784.50        40.0033         6.8700         2.0176       0.236500
       2785.00        39.4700         6.8700         2.0115       0.234700
       2785.50        38.9367         6.8700         2.0001       0.233700
       2786.00        38.6700         6.8700         1.9857       0.233300
       2786.50        39.2083         6.6275         1.9727       0.233200
       2787.00        40.2850         5.9368         1.9645       0.233400
       2787.50        41.3617         5.4900         1.9615       0.234000
       2788.00        42.2722         5.4900         1.9616       0.235400
       2788.50        43.0167         5.2927         1.9629       0.237900
       2789.00        44.1333         4.7371         1.9646       0.241400
       2789.50        44.8778         4.3800         1.9664       0.246000
       2790.00        45.2500         4.3561         1.9679       0.251800
       2790.50        45.8233         4.2894         1.9694       0.259300
       2791.00        46.3967         4.2226         1.9713       0.269000
       2791.50        46.9700         4.1800         1.9748       0.281500
       2792.00        46.9700         4.1800         1.9815       0.297200
       2792.50        49.1317         3.6741         1.9925       0.316000
       2793.00        53.4550         2.7900         2.0075       0.337800
       2793.50        57.7783         2.7900         2.0245       0.362400
       2794.00        59.9400         2.7900         2.0409       0.389100
       2794.50        61.6433         2.4422         2.0540       0.416700
       2795.00        65.0500         1.4962         2.0630       0.443100
       2795.50        68.4567         0.9000         2.0687       0.465500
       2796.00        70.1600         0.9111         2.0734       0.481400
       2796.50        72.3833         0.9412         2.0793       0.489400
       2797.00        76.8300         0.9712         2.0877       0.489900
       2797.50        81.2767         0.9900         2.0988       0.484700
