~Version Information Block
VERS .                  2.0:  CWLS LOG ASCII STANDARD - VERSION 2.0
WRAP .                   NO:  One line per depth step
~Well Information Block
#MNEM.UNIT        Data Type   Information
#---------- ----------------  -----------
STRT .FT            1300.00:  START DEPTH
STOP .FT            8397.00:  STOP DEPTH
STEP .FT               0.50:  STEP
NULL .              -999.25:  NULL VALUE
COMP .                     :  COMPANY
WELL .              SA-44HZ:  WELL
FLD  .                     :  FIELD
LOC  .                     :  LOCATION
CTRY .                     :  COUNTRY
STAT .                     :  STATE
CNTY .                     :  COUNTY
SRVC .                     :  SERVICE COMPANY
DATE .                     :  DATE
API  .                     :  API NUMBER
UWI  .                     :  UNIQUE WELL ID
~Curve Information Block
#MNEM.UNIT         API CODE   Curve Description
#---------- ----------------  -----------------
DEPTH.FT                   :  DEPTH
GR   .GAPI                 :  Gamma Ray
RT   .OHMM                 :  Deep resistivity
RHOB .G/C3                 :  Bulk density
NPHI .V/V                  :  Neutron porosity
~Parameter Information Block
#MNEM.UNIT            Value   Description
#---------- ----------------  -----------
PROJECT.            SERANG_FE:  
~Other Information Block
# 
~A       DEPTH             GR             RT           RHOB           NPHI 
# ...
       8308.50        25.6500        64.9977         1.9823       0.202500
       8309.00        25.0150        64.0466         1.9806       0.197600
       8309.50        25.0150        63.3658         1.9807       0.194000
       8310.00        25.0150        62.8644         1.9821       0.191500
       8310.50        25.6500        63.2394         1.9843       0.189900
       8311.00        25.6500        63.7228         1.9864       0.189000
       8311.50        25.0150        64.6365         1.9875       0.188700
       8312.00        23.7650        65.6240         1.9875       0.188700
       8312.50        23.7650        66.7643         1.9886       0.188800
       8313.00        21.9600        68.4368         1.9915       0.188900
       8313.50        21.3550        70.0339         1.9957       0.189000
       8314.00        22.3633        71.9432         1.9986       0.189100
       8314.50        24.4233        73.4642         1.9999       0.189300
       8315.00        26.9900        76.7353         2.0000       0.189600
       8315.50        28.2950        80.5131         2.0060       0.190100
       8316.00        29.6400        83.4595         2.0187       0.190900
       8316.50        31.0500        82.7695         2.0381       0.192000
       8317.00        31.5200        78.4654         2.0520       0.193700
       8317.50        31.5200        72.8933         2.0594       0.196000
       8318.00        33.0100        67.7202         2.0600       0.199000
       8318.50        36.0867        65.0407         2.0600       0.202700
       8319.00        39.5633        64.1709         2.0615       0.206700
       8319.50        39.5633        65.2943         2.0662       0.210400
       8320.00        40.1133        66.0644         2.0742       0.213200
       8320.50        40.1350        66.5074         2.0826       0.215000
       8321.00        43.3400        63.4603         2.0879       0.216200
       8321.50        45.0300        59.8011         2.0898       0.217200
       8322.00        44.1850        56.0937         2.0900       0.218500
       8322.50        41.2600        54.9375         2.0900       0.220000
       8323.00        39.3750        54.1413         2.0900       0.221300
       8323.50        35.4100        52.6443         2.0900       0.222100
       8324.00        24.3800        52.1565         2.0900       0.222100
       8324.50        24.3800        53.5915         2.0900       0.221300
       8325.00        23.1600        56.3362         2.0900       0.219700
       8325.50        21.9400        58.5077         2.0900       0.217400
       8326.00        22.5450        59.5109         2.0900       0.214800
       8326.50        23.1500        59.9967         2.0892       0.211800
       8327.00        23.1500        60.0400         2.0857       0.208600
       8327.50        19.6400        60.8738         2.0778       0.205300
       8328.00        19.6400        61.7972         2.0661       0.202000
       8328.50        19.6400        63.1571         2.0540       0.198600
       8329.00        17.4600        64.1673         2.0454       0.195600
       8329.50        18.5500        65.1340         2.0412       0.193400
       8330.00        18.5500        65.6641         2.0392       0.192200
       8330.50        19.6400        65.7100         2.0357       0.191900
       8331.00        24.3800        66.6273         2.0278       0.192100
       8331.50        24.3800        67.6416         2.0160       0.192500
       8332.00        24.3800        68.6550         2.0040       0.192800
       8332.50        21.9400        68.7500         1.9953       0.193100
       8333.00        21.9400        68.7500         1.9912       0.193600
       8333.50        21.9400        68.7500         1.9901       0.194400
       8334.00        21.9400        68.7500         1.9900       0.195600
       8334.50        20.7700        66.1128         1.9900       0.196900
       8335.00        20.7700        63.2067         1.9900       0.198000
       8335.50        20.7700        59.1497         1.9900       0.198600
       8336.00        24.3800        56.4649         1.9900       0.198600
       8336.50        24.3800        54.2930         1.9900       0.198000
       8337.00        24.3800        53.6814         1.9900       0.197200
       8337.50        24.3800        54.3752         1.9903       0.196300
       8338.00        33.9200        56.3911         1.9914       0.195600
       8338.50        33.9200        58.1568         1.9935       0.194700
       8339.00        37.8050        61.2130         1.9961       0.193400
       8339.50        41.6900        64.1410         1.9983       0.191500
       8340.00        41.6900        65.7210         1.9995       0.189300
       8340.50        41.6900        64.5205         2.0000       0.187400
       8341.00        41.6900        61.3392         2.0000       0.186100
       8341.50        36.9300        58.9147         2.0000       0.185400
       8342.00        36.9300        57.9071         2.0000       0.185300
       8342.50        34.6950        57.4273         2.0000       0.185500
       8343.00        32.4600        57.0024         2.0000       0.185800
       8343.50        31.0500        56.5790         2.0000       0.186200
       8344.00        29.6400        55.7673         2.0051       0.186600
       8344.50        28.9600        56.0847         2.0158       0.186800
       8345.00        28.2800        56.5085         2.0321       0.186800
       8345.50        30.3700        57.3203         2.0436       0.186700
       8346.00        32.4600        57.3900         2.0496       0.186600
       8346.50        32.4600        57.3900         2.0500       0.186500
       8347.00        32.4600        57.3900         2.0500       0.186500
       8347.50        33.1900        57.3900         2.0500       0.186400
       8348.00        33.9200        57.7962         2.0500       0.186400
       8348.50        31.1000        58.6564         2.0500       0.186400
       8349.00        27.6150        60.1084      -999.2500       0.186400
       8349.50        27.8367        61.4842      -999.2500    -999.250000
       8350.00        29.2300        62.4311      -999.2500    -999.250000
       8350.50        28.3733        62.7860      -999.2500    -999.250000
       8351.00        27.4967        62.3844      -999.2500    -999.250000
       8351.50        27.9833        62.3617      -999.2500    -999.250000
       8352.00        31.1633        63.3103      -999.2500    -999.250000
       8352.50        34.4167        65.3465      -999.2500    -999.250000
       8353.00        31.2367        68.0035      -999.2500    -999.250000
       8353.50        28.4800        70.4675      -999.2500    -999.250000
       8354.00        24.8033        73.4898      -999.2500    -999.250000
       8354.50        25.6600        76.1137      -999.2500    -999.250000
       8355.00        27.4533        78.5646      -999.2500    -999.250000
       8355.50        28.7533        80.0291      -999.2500    -999.250000
       8356.00        28.7533        81.6442      -999.2500    -999.250000
       8356.50        27.3933        83.5207      -999.2500    -999.250000
       8357.00        27.8467        86.0302      -999.2500    -999.250000
       8357.50        27.8467        89.1112      -999.2500    -999.250000
       8358.00        28.2950        92.3045      -999.2500    -999.250000
       8358.50        31.1800        95.5777      -999.2500    -999.250000
       8359.00        36.1700        97.1213      -999.2500    -999.250000
       8359.50        36.9433        97.2015      -999.2500    -999.250000
       8360.00        35.4833        95.4214      -999.2500    -999.250000
       8360.50        34.7600        93.7436      -999.2500    -999.250000
       8361.00        31.0300        90.6806      -999.2500    -999.250000
       8361.50        32.4600        87.1807      -999.2500    -999.250000
