~Version Information Block
VERS .                  2.0:  CWLS LOG ASCII STANDARD - VERSION 2.0
WRAP .                   NO:  One line per depth step
~Well Information Block
#MNEM.UNIT        Data Type   Information
#---------- ----------------  -----------
STRT .FT            1300.00:  START DEPTH
STOP .FT            8397.00:  STOP DEPTH
STEP .FT               0.50:  STEP
NULL .              -999.25:  NULL VALUE
COMP .                     :  COMPANY
WELL .              SA-44HZ:  WELL
FLD  .                     :  FIELD
LOC  .                     :  LOCATION
CTRY .                     :  COUNTRY
STAT .                     :  STATE
CNTY .                     :  COUNTY
SRVC .                     :  SERVICE COMPANY
DATE .                     :  DATE
API  .                     :  API NUMBER
UWI  .                     :  UNIQUE WELL ID
~Curve Information Block
#MNEM.UNIT         API CODE   Curve Description
#---------- ----------------  -----------------
DEPTH.FT                   :  DEPTH
GR   .GAPI                 :  Gamma Ray
RT   .OHMM                 :  Deep resistivity
RHOB .G/C3                 :  Bulk density
NPHI .V/V                  :  Neutron porosity
~Parameter Information Block
#MNEM.UNIT            Value   Description
#---------- ----------------  -----------
PROJECT.            SERANG_FE:  
~Other Information Block
# 
~A       DEPTH             GR             RT           RHOB           NPHI 
# ...
       1353.50        75.5800         1.3500      -999.2500    -999.250000
       1354.00        75.5800         1.3500      -999.2500    -999.250000
       1354.50        75.5800         1.3500      -999.2500    -999.250000
       1355.00        75.5800         1.3500      -999.2500    -999.250000
       1355.50        75.5800         1.3500      -999.2500    -999.250000
       1356.00        76.3217         1.3500      -999.2500    -999.250000
       1356.50        77.8050         1.3500      -999.2500    -999.250000
       1357.00        79.2883         1.3500      -999.2500    -999.250000
       1357.50        79.2944         1.3500      -999.2500    -999.250000
       1358.00        77.8233         1.3499      -999.2500    -999.250000
       1358.50        75.7372         1.2900      -999.2500    -999.250000
       1359.00        74.6278         1.2900      -999.2500    -999.250000
       1359.50        74.4950         1.2900      -999.2500    -999.250000
       1360.00        75.0978         1.3100      -999.2500    -999.250000
       1360.50        75.7067         1.3200      -999.2500    -999.250000
       1361.00        76.5689         1.3300      -999.2500    -999.250000
       1361.50        77.6805         1.3200      -999.2500    -999.250000
       1362.00        78.5433         1.3300      -999.2500    -999.250000
       1362.50        78.6628         1.3401      -999.2500    -999.250000
       1363.00        78.0422         1.4168      -999.2500    -999.250000
       1363.50        77.1778         1.4834      -999.2500    -999.250000
       1364.00        76.3167         1.5282      -999.2500    -999.250000
       1364.50        75.8255         1.4849      -999.2500    -999.250000
       1365.00        75.5800         1.4299      -999.2500    -999.250000
       1365.50        75.5800         1.3850      -999.2500    -999.250000
       1366.00        75.5800         1.3616      -999.2500    -999.250000
       1366.50        75.4594         1.3300      -999.2500    -999.250000
       1367.00        75.0978         1.3099      -999.2500    -999.250000
       1367.50        74.4950         1.2816      -999.2500    -999.250000
       1368.00        73.8922         1.2650      -999.2500    -999.250000
       1368.50        75.0122         1.2483      -999.2500    -999.250000
       1369.00        77.8550         1.2200      -999.2500    -999.250000
       1369.50        80.8183         1.2000      -999.2500    -999.250000
       1370.00        82.5556         1.1800      -999.2500    -999.250000
       1370.50        83.0667         1.1801      -999.2500    -999.250000
       1371.00        83.8333         1.2101      -999.2500    -999.250000
       1371.50        83.8367         1.2400      -999.2500    -999.250000
       1372.00        83.0767         1.2400      -999.2500    -999.250000
       1372.50        81.5533         1.2400      -999.2500    -999.250000
       1373.00        80.5378         1.2400      -999.2500    -999.250000
       1373.50        78.9267         1.2400      -999.2500    -999.250000
       1374.00        76.7200         1.2400      -999.2500    -999.250000
       1374.50        74.5133         1.2400      -999.2500    -999.250000
       1375.00        73.8967         1.2400      -999.2500    -999.250000
       1375.50        74.8700         1.2399      -999.2500    -999.250000
       1376.00        76.3300         1.2099      -999.2500    -999.250000
       1376.50        76.5778         1.1800      -999.2500    -999.250000
       1377.00        75.6133         1.1800      -999.2500    -999.250000
       1377.50        73.4367         1.2000      -999.2500    -999.250000
       1378.00        71.9856         1.2200      -999.2500    -999.250000
       1378.50        71.2600         1.2400      -999.2500    -999.250000
       1379.00        71.2600         1.2200      -999.2500    -999.250000
       1379.50        71.2600         1.2000      -999.2500    -999.250000
       1380.00        71.9856         1.1800      -999.2500    -999.250000
       1380.50        73.4367         1.1800      -999.2500    -999.250000
       1381.00        75.6133         1.1800      -999.2500    -999.250000
       1381.50        77.3133         1.1800      -999.2500    -999.250000
       1382.00        78.5367         1.1801      -999.2500    -999.250000
       1382.50        79.2833         1.2000      -999.2500    -999.250000
       1383.00        79.7811         1.2200      -999.2500    -999.250000
       1383.50        80.4083         1.2400      -999.2500    -999.250000
       1384.00        81.1650         1.2400      -999.2500    -999.250000
       1384.50        81.4278         1.2400      -999.2500    -999.250000
       1385.00        80.3245         1.2400      -999.2500    -999.250000
       1385.50        77.8550         1.2401      -999.2500    -999.250000
       1386.00        75.6267         1.2651      -999.2500    -999.250000
       1386.50        74.6272         1.2900      -999.2500    -999.250000
       1387.00        74.8567         1.3001      -999.2500    -999.250000
       1387.50        75.3389         1.3201      -999.2500    -999.250000
       1388.00        74.8600         1.3402      -999.2500    -999.250000
       1388.50        73.4200         1.4168      -999.2500    -999.250000
       1389.00        71.9800         1.4835      -999.2500    -999.250000
       1389.50        70.7944         1.5500      -999.2500    -999.250000
       1390.00        69.8633         1.5497      -999.2500    -999.250000
       1390.50        68.4667         1.4497      -999.2500    -999.250000
       1391.00        68.2400         1.3500      -999.2500    -999.250000
       1391.50        69.1833         1.3399      -999.2500    -999.250000
       1392.00        71.2967         1.3199      -999.2500    -999.250000
       1392.50        72.7056         1.3000      -999.2500    -999.250000
       1393.00        73.4100         1.2900      -999.2500    -999.250000
       1393.50        73.4100         1.2900      -999.2500    -999.250000
       1394.00        73.4100         1.2900      -999.2500    -999.250000
       1394.50        73.4100         1.2900      -999.2500    -999.250000
       1395.00        72.7000         1.2900      -999.2500    -999.250000
       1395.50        71.2800         1.2900      -999.2500    -999.250000
       1396.00        69.8600         1.2900      -999.2500    -999.250000
       1396.50        69.1500         1.2900      -999.2500    -999.250000
       1397.00        69.1500         1.2733      -999.2500    -999.250000
       1397.50        69.1500         1.2566      -999.2500    -999.250000
       1398.00        69.1500         1.2400      -999.2500    -999.250000
       1398.50        69.5017         1.2400      -999.2500    -999.250000
       1399.00        70.2050         1.2400      -999.2500    -999.250000
       1399.50        70.9083         1.2400      -999.2500    -999.250000
       1400.00        71.2600         1.2400      -999.2500    -999.250000
       1400.50        71.2600         1.2400      -999.2500    -999.250000
       1401.00        74.1833         1.2400      -999.2500    -999.250000
       1401.50        77.1067         1.2400      -999.2500    -999.250000
       1402.00        80.0300         1.2400      -999.2500    -999.250000
       1402.50        79.5356         1.2400      -999.2500    -999.250000
       1403.00        78.5467         1.2400      -999.2500    -999.250000
       1403.50        77.0633         1.2400      -999.2500    -999.250000
       1404.00        76.0744         1.2400      -999.2500    -999.250000
       1404.50        75.9483         1.2400      -999.2500    -999.250000
       1405.00        76.6850         1.2400      -999.2500    -999.250000
       1405.50        77.4217         1.2400      -999.2500    -999.250000
       1406.00        77.7900         1.2400      -999.2500    -999.250000
       1406.50        78.1633         1.2399      -999.2500    -999.250000
