~Version Information Block
VERS .                  2.0:  CWLS LOG ASCII STANDARD - VERSION 2.0
WRAP .                   NO:  One line per depth step
~Well Information Block
#MNEM.UNIT        Data Type   Information
#---------- ----------------  -----------
STRT .FT             350.00:  START DEPTH
STOP .FT           10167.50:  STOP DEPTH
STEP .FT               0.50:  STEP
NULL .              -999.25:  NULL VALUE
COMP .                     :  COMPANY
WELL .                SA-41:  WELL
FLD  .                     :  FIELD
LOC  .                     :  LOCATION
CTRY .                     :  COUNTRY
STAT .                     :  STATE
CNTY .                     :  COUNTY
SRVC .                     :  SERVICE COMPANY
DATE .                     :  DATE
API  .                     :  API NUMBER
UWI  .                     :  UNIQUE WELL ID
~Curve Information Block
#MNEM.UNIT         API CODE   Curve Description
#---------- ----------------  -----------------
DEPTH.FT                   :  DEPTH
GR   .GAPI                 :  Gamma Ray
RT   .OHMM                 :  Deep resistivity
RHOB .G/C3                 :  Bulk density
NPHI .V/V                  :  Neutron porosity
~Parameter Information Block
#MNEM.UNIT            Value   Description
#---------- ----------------  -----------
PROJECT.            SERANG_FE:  
~Other Information Block
# 
~A       DEPTH             GR             RT           RHOB           NPHI 
# ...
       9445.00        83.6400         2.0320         2.4240         0.3290
       9445.50        76.8500         2.1680         2.4140         0.3100
       9446.00        71.8500         2.3210         2.4070         0.2920
       9446.50        68.6700         2.4800         2.4010         0.2730
       9447.00        65.7600         2.6360         2.3960         0.2560
       9447.50        64.2600         2.7830         2.3870         0.2410
       9448.00        63.0600         2.9060         2.3840         0.2310
       9448.50        63.5500         2.9850         2.3860         0.2250
       9449.00        63.6000         3.0610         2.3960         0.2220
       9449.50        64.5700         3.1070         2.4070         0.2210
       9450.00        65.4600         3.1370         2.4160         0.2220
       9450.50        67.0500         3.1260         2.4150         0.2240
       9451.00        69.9600         3.1740         2.4060         0.2270
       9451.50        74.4100         3.2520         2.3860         0.2330
       9452.00        81.0000         3.2290         2.3560         0.2450
       9452.50        88.6500         3.2060         2.3270         0.2650
       9453.00       100.9700         3.4010         2.3020         0.2930
       9453.50       119.9000         3.3000         2.2870         0.3220
       9454.00       150.0900         3.1420         2.2750         0.3500
       9454.50       181.9100         3.0500         2.2630         0.3750
       9455.00       209.4200         2.9330         2.2500         0.3960
       9455.50       221.0400         2.8050         2.2500         0.4150
       9456.00       213.7600         2.6170         2.2630         0.4300
       9456.50       200.2000         2.4260         2.3030         0.4380
       9457.00       181.7900         2.1940         2.3600         0.4360
       9457.50       165.3000         2.0310         2.4210         0.4240
       9458.00       146.2600         1.7600         2.4650         0.4010
       9458.50       131.9900         1.7740         2.4880         0.3750
       9459.00       124.8000         1.8260         2.4990         0.3490
       9459.50       124.0700         1.8450         2.5080         0.3240
       9460.00       130.2600         1.9330         2.5200         0.3000
       9460.50       141.8800         2.0830         2.5280         0.2750
       9461.00       152.5200         2.2090         2.5290         0.2510
       9461.50       150.2200         2.2980         2.5120         0.2320
       9462.00       131.7300         2.5120         2.4820         0.2170
       9462.50       106.0500         2.6460         2.4430         0.2060
       9463.00        85.6700         2.6500         2.4120         0.1980
       9463.50        74.0200         2.6390         2.3880         0.1920
       9464.00        66.2600         2.6300         2.3700         0.1870
       9464.50        58.7000         2.6000         2.3530         0.1850
       9465.00        53.2000         2.5120         2.3420         0.1860
       9465.50        47.6500         2.3940         2.3290         0.1900
       9466.00        42.3200         2.2910         2.3140         0.1960
       9466.50        38.1100         2.1800         2.2920         0.2030
       9467.00        35.4100         2.0250         2.2730         0.2110
       9467.50        35.0000         1.8680         2.2630         0.2190
       9468.00        35.9500         1.7350         2.2640         0.2280
       9468.50        33.6900         1.6380         2.2750         0.2360
       9469.00        31.0200         1.5850         2.2900         0.2430
       9469.50        30.5600         1.5460         2.3010         0.2480
       9470.00        34.0000         1.5290         2.3000         0.2520
       9470.50        42.9100         1.5080         2.2910         0.2540
       9471.00        51.6400         1.4780         2.2820         0.2570
       9471.50        59.5900         1.4550         2.2800         0.2590
       9472.00        60.0600         1.4850         2.2810         0.2600
       9472.50        54.6100         1.5310         2.2830         0.2590
       9473.00        47.7000         1.5730         2.2780         0.2560
       9473.50        42.3800         1.6130         2.2720         0.2530
       9474.00        39.7100         1.6620         2.2650         0.2490
       9474.50        37.4900         1.7070         2.2640         0.2460
       9475.00        36.1900         1.7560         2.2670         0.2430
       9475.50        35.9600         1.8170         2.2740         0.2400
       9476.00        40.8100         1.8880         2.2820         0.2370
       9476.50        46.9600         1.9690         2.2890         0.2340
       9477.00        52.8800         2.0540         2.3030         0.2330
       9477.50        55.2000         2.1350         2.3180         0.2340
       9478.00        55.4400         2.2150         2.3370         0.2360
       9478.50        55.4400         2.2850         2.3490         0.2380
       9479.00        55.6000         2.3250         2.3560         0.2410
       9479.50        57.5900         2.3610         2.3610         0.2440
       9480.00        59.5300         2.3920         2.3690         0.2460
       9480.50        60.9200         2.4230         2.3820         0.2480
       9481.00        61.1200         2.4490         2.3980         0.2500
       9481.50        61.6100         2.4620         2.4170         0.2520
       9482.00        62.0900         2.4700         2.4310         0.2540
       9482.50        62.2400         2.4720         2.4390         0.2560
       9483.00        61.2700         2.4640         2.4430         0.2580
       9483.50        60.3000         2.4430         2.4470         0.2610
       9484.00        60.0700         2.4060         2.4570         0.2630
       9484.50        62.3400         2.3700         2.4660         0.2650
       9485.00        66.7100         2.3400         2.4710         0.2690
       9485.50        71.7300         2.3280         2.4650         0.2730
       9486.00        76.0900         2.3620         2.4480         0.2730
       9486.50        79.0000         2.4410         2.4230         0.2700
       9487.00        81.1100         2.5510         2.3940         0.2640
       9487.50        81.2800         2.7340         2.3700         0.2550
       9488.00        76.4300         2.9490         2.3450         0.2450
       9488.50        68.5300         3.2050         2.3200         0.2360
       9489.00        59.7900         3.4750         2.2890         0.2270
       9489.50        53.9700         3.7500         2.2590         0.2190
       9490.00        50.3100         4.0180         2.2350         0.2080
       9490.50        47.4000         4.2580         2.2220         0.1990
       9491.00        45.9400         4.4530         2.2190         0.1940
       9491.50        45.1100         4.6210         2.2210         0.1930
       9492.00        45.1100         4.7550         2.2250         0.1940
       9492.50        45.6000         4.8300         2.2250         0.1960
       9493.00        45.6000         4.8900         2.2280         0.1980
       9493.50        46.4700         4.9250         2.2240         0.1970
       9494.00        47.3200         4.9600         2.2240         0.1970
       9494.50        48.7700         5.0060         2.2320         0.1960
       9495.00        48.8800         5.0670         2.2300         0.1960
       9495.50        48.0300         5.1470         2.2300         0.1940
       9496.00        46.5700         5.2490         2.2240         0.1900
       9496.50        44.9900         5.3410         2.2190         0.1850
       9497.00        43.5300         5.4480         2.2180         0.1810
       9497.50        42.5600         5.5510         2.2120         0.1780
       9498.00        42.1300         5.6450         2.2040         0.1750
