~Version Information Block
VERS .                  2.0:  CWLS LOG ASCII STANDARD - VERSION 2.0
WRAP .                   NO:  One line per depth step
~Well Information Block
#MNEM.UNIT        Data Type   Information
#---------- ----------------  -----------
STRT .FT             350.00:  START DEPTH
STOP .FT           10167.50:  STOP DEPTH
STEP .FT               0.50:  STEP
NULL .              -999.25:  NULL VALUE
COMP .                     :  COMPANY
WELL .                SA-41:  WELL
FLD  .                     :  FIELD
LOC  .                     :  LOCATION
CTRY .                     :  COUNTRY
STAT .                     :  STATE
CNTY .                     :  COUNTY
SRVC .                     :  SERVICE COMPANY
DATE .                     :  DATE
API  .                     :  API NUMBER
UWI  .                     :  UNIQUE WELL ID
~Curve Information Block
#MNEM.UNIT         API CODE   Curve Description
#---------- ----------------  -----------------
DEPTH.FT                   :  DEPTH
GR   .GAPI                 :  Gamma Ray
RT   .OHMM                 :  Deep resistivity
RHOB .G/C3                 :  Bulk density
NPHI .V/V                  :  Neutron porosity
~Parameter Information Block
#MNEM.UNIT            Value   Description
#---------- ----------------  -----------
PROJECT.            SERANG_FE:  
~Other Information Block
# 
~A       DEPTH             GR             RT           RHOB           NPHI 
# ...
      10087.00        67.9000         2.1550         2.4980         0.3520
      10087.50        74.4200         2.0160         2.4960         0.3700
      10088.00        79.3900         1.8720         2.4990         0.3840
      10088.50        82.4700         1.7170         2.5050         0.3950
      10089.00        82.9500         1.5910         2.5150         0.4020
      10089.50        82.9500         1.4930         2.5220         0.4050
      10090.00        81.5000         1.4260         2.5290         0.4050
      10090.50        79.5600         1.3890         2.5320         0.4020
      10091.00        78.1000         1.4000         2.5350         0.4010
      10091.50        77.5900         1.4730         2.5370         0.3970
      10092.00        77.1000         1.4770         2.5410         0.3930
      10092.50        75.1600         1.4870         2.5440         0.3850
      10093.00        74.2200         1.5000         2.5480         0.3770
      10093.50        74.3000         1.5450         2.5510         0.3680
      10094.00        74.0900         1.5880         2.5550         0.3590
      10094.50        72.6300         1.6270         2.5580         0.3500
      10095.00        69.6400         1.6590         2.5650         0.3410
      10095.50        67.9100         1.7200         2.5720         0.3300
      10096.00        67.7100         1.8740         2.5760         0.3150
      10096.50        68.5900         2.0590         2.5720         0.2970
      10097.00        68.1000         2.3110         2.5590         0.2780
      10097.50        64.9800         2.5770         2.5420         0.2610
      10098.00        58.7600         2.7990         2.5220         0.2460
      10098.50        51.0000         2.9650         2.5050         0.2350
      10099.00        44.6100         3.1050         2.4920         0.2270
      10099.50        41.7000         3.2020         2.4820         0.2220
      10100.00        43.0700         3.2870         2.4690         0.2180
      10100.50        47.9400         3.3320         2.4570         0.2190
      10101.00        53.0800         3.2360         2.4480         0.2250
      10101.50        58.9900         3.0270         2.4460         0.2370
      10102.00        63.9200         2.7920         2.4540         0.2540
      10102.50        68.4800         2.5050         2.4670         0.2770
      10103.00        72.5100         2.2440         2.4820         0.3020
      10103.50        76.3100         2.0370         2.4920         0.3250
      10104.00        82.0200         1.8470         2.5000         0.3440
      10104.50        87.2100         1.6720         2.5080         0.3610
      10105.00        89.3100         1.5190         2.5160         0.3780
      10105.50        88.9300         1.3940         2.5230         0.3920
      10106.00        86.9900         1.3100         2.5290         0.4000
      10106.50        87.3500         1.2910         2.5340         0.4030
      10107.00        85.4100         1.3380         2.5350         0.4010
      10107.50        82.8900         1.4840         2.5310         0.3930
      10108.00        78.3100         1.6200         2.5260         0.3810
      10108.50        75.4000         1.7030         2.5220         0.3690
      10109.00        71.6200         1.8550         2.5180         0.3600
      10109.50        69.3700         2.1570         2.5150         0.3510
      10110.00        69.8500         2.5280         2.5130         0.3410
      10110.50        71.2700         2.8790         2.5150         0.3300
      10111.00        69.8200         3.2060         2.5150         0.3210
      10111.50        62.0600         3.5390         2.5190         0.3140
      10112.00        53.8500         3.8440         2.5220         0.3080
      10112.50        45.6000         4.0620         2.5290         0.3030
      10113.00        40.7500         4.2730         2.5320         0.3000
      10113.50        37.8400         4.4680         2.5360         0.2970
      10114.00        37.3500         4.5780         2.5370         0.2940
      10114.50        38.3200         4.5530         2.5380         0.2920
      10115.00        39.8100         4.3830         2.5380         0.2910
      10115.50        41.4100         4.1770         2.5360         0.2930
      10116.00        42.8700         3.9990         2.5340         0.2970
      10116.50        43.7600         3.7850         2.5280         0.3030
      10117.00        46.0400         3.5690         2.5260         0.3090
      10117.50        49.4300         3.3380         2.5240         0.3140
      10118.00        51.1000         3.2740         2.5270         0.3170
      10118.50        51.5800         3.3960         2.5300         0.3180
      10119.00        53.5200         3.6410         2.5380         0.3150
      10119.50        55.1700         3.9240         2.5400         0.3090
      10120.00        51.8300         4.2610         2.5380         0.3010
      10120.50        43.3200         4.6950         2.5300         0.2920
      10121.00        34.7100         5.2130         2.5230         0.2830
      10121.50        30.5300         5.7730         2.5160         0.2740
      10122.00        29.7600         6.3030         2.5080         0.2670
      10122.50        31.7000         6.8180         2.5030         0.2610
      10123.00        34.3800         7.1930         2.5000         0.2560
      10123.50        36.8700         7.5320         2.5010         0.2520
      10124.00        38.8100         7.8510         2.4990         0.2490
      10124.50        38.3200         8.0950         2.4990         0.2460
      10125.00        35.4100         8.2620         2.5010         0.2440
      10125.50        32.5000         8.3320         2.5070         0.2430
      10126.00        30.5600         8.2490         2.5130         0.2430
      10126.50        31.5300         8.1110         2.5200         0.2430
      10127.00        33.4700         7.9940         2.5260         0.2420
      10127.50        37.3100         7.9090         2.5310         0.2420
      10128.00        40.7000         7.8040         2.5320         0.2410
      10128.50        44.6400         7.5780         2.5280         0.2410
      10129.00        47.7300         7.2600         2.5230         0.2411
      10129.50        52.0900         6.9480         2.5190         0.2438
      10130.00        52.5200         6.7030         2.5160         0.2471
      10130.50        54.3300         6.4590         2.5140         0.2500
      10131.00        54.8200         6.1780         2.5110         0.2520
      10131.50        57.7300         5.8380         2.5060      -999.2500
      10132.00        59.3400         5.4750         2.5056      -999.2500
      10132.50        60.1200         5.0970         2.5038      -999.2500
      10133.00        64.3700         4.6990         2.5014      -999.2500
      10133.50        68.5800         4.3010         2.4983      -999.2500
      10134.00        73.1400         3.9210         2.4940      -999.2500
      10134.50        75.5200         3.5800      -999.2500      -999.2500
      10135.00        80.6700         3.2490      -999.2500      -999.2500
      10135.50        85.0400         2.9490      -999.2500      -999.2500
      10136.00        87.1300         2.7180      -999.2500      -999.2500
      10136.50        85.3800         2.5700      -999.2500      -999.2500
      10137.00        83.4900         2.4420      -999.2500      -999.2500
      10137.50        83.9800         2.3500      -999.2500      -999.2500
      10138.00        84.9500         2.3020      -999.2500      -999.2500
      10138.50        87.3200         2.2890      -999.2500      -999.2500
      10139.00        88.2900         2.2680      -999.2500      -999.2500
      10139.50        90.2300         2.2440      -999.2500      -999.2500
      10140.00        89.7400         2.2340      -999.2500      -999.2500
