~Version Information Block
VERS .                  2.0:  CWLS LOG ASCII STANDARD - VERSION 2.0
WRAP .                   NO:  One line per depth step
~Well Information Block
#MNEM.UNIT        Data Type   Information
#---------- ----------------  -----------
STRT .FT             350.00:  START DEPTH
STOP .FT           10167.50:  STOP DEPTH
STEP .FT               0.50:  STEP
NULL .              -999.25:  NULL VALUE
COMP .                     :  COMPANY
WELL .                SA-41:  WELL
FLD  .                     :  FIELD
LOC  .                     :  LOCATION
CTRY .                     :  COUNTRY
STAT .                     :  STATE
CNTY .                     :  COUNTY
SRVC .                     :  SERVICE COMPANY
DATE .                     :  DATE
API  .                     :  API NUMBER
UWI  .                     :  UNIQUE WELL ID
~Curve Information Block
#MNEM.UNIT         API CODE   Curve Description
#---------- ----------------  -----------------
DEPTH.FT                   :  DEPTH
GR   .GAPI                 :  Gamma Ray
RT   .OHMM                 :  Deep resistivity
RHOB .G/C3                 :  Bulk density
NPHI .V/V                  :  Neutron porosity
~Parameter Information Block
#MNEM.UNIT            Value   Description
#---------- ----------------  -----------
PROJECT.            SERANG_FE:  
~Other Information Block
# 
~A       DEPTH             GR             RT           RHOB           NPHI 
# ...
       2276.00        57.0783         1.2110         2.0872         0.4525
       2276.50        57.5120         1.2142         2.0905         0.4606
       2277.00        58.0753         1.2191         2.0945         0.4683
       2277.50        58.6957         1.2240         2.1006         0.4751
       2278.00        59.5060         1.2303         2.1080         0.4710
       2278.50        60.3331         1.2356         2.1156         0.4626
       2279.00        61.1030         1.2469         2.1232         0.4567
       2279.50        61.9233         1.2578         2.1259         0.4531
       2280.00        62.1142         1.2687         2.1243         0.4508
       2280.50        62.3051         1.2714         2.1172         0.4479
       2281.00        62.5648         1.2711         2.1117         0.4452
       2281.50        62.4206         1.2694         2.1097         0.4443
       2282.00        62.2764         1.2687         2.1118         0.4395
       2282.50        60.8696         1.2688         2.1162         0.4351
       2283.00        59.5023         1.2689         2.1220         0.4321
       2283.50        58.2384         1.2712         2.1283         0.4308
       2284.00        57.6048         1.2774         2.1349         0.4336
       2284.50        57.5708         1.2838         2.1384         0.4430
       2285.00        56.9605         1.2901         2.1402         0.4546
       2285.50        56.3502         1.2975         2.1451         0.4571
       2286.00        57.0211         1.3057         2.1537         0.4497
       2286.50        59.2523         1.3139         2.1654         0.4422
       2287.00        62.4572         1.3247         2.1702         0.4403
       2287.50        64.5181         1.3343         2.1712         0.4423
       2288.00        65.4183         1.3436         2.1720         0.4400
       2288.50        65.3183         1.3517         2.1722         0.4407
       2289.00        65.2183         1.3557         2.1711         0.4419
       2289.50        65.1183         1.3594         2.1716         0.4401
       2290.00        63.7842         1.3632         2.1735         0.4365
       2290.50        62.4502         1.3678         2.1733         0.4383
       2291.00        60.6456         1.3697         2.1705         0.4423
       2291.50        59.7888         1.3715         2.1649         0.4408
       2292.00        59.1519         1.3723         2.1619         0.4368
       2292.50        59.0589         1.3732         2.1580         0.4337
       2293.00        59.3989         1.3726         2.1544         0.4406
       2293.50        59.5457         1.3720         2.1547         0.4464
       2294.00        59.6925         1.3748         2.1595         0.4517
       2294.50        60.0494         1.3762         2.1642         0.4514
       2295.00        60.5667         1.3786         2.1680         0.4523
       2295.50        61.5804         1.3812         2.1704         0.4582
       2296.00        62.2641         1.3846         2.1700         0.4668
       2296.50        62.4670         1.3881         2.1673         0.4743
       2297.00        62.4637         1.3891         2.1653         0.4708
       2297.50        62.6642         1.3892         2.1672         0.4715
       2298.00        63.6750         1.3899         2.1683         0.4797
       2298.50        64.5687         1.3893         2.1658         0.4913
       2299.00        64.6583         1.3855         2.1598         0.4915
       2299.50        63.9544         1.3835         2.1547         0.4860
       2300.00        63.0773         1.3803         2.1503         0.4860
       2300.50        62.6600         1.3747         2.1483         0.4836
       2301.00        62.0194         1.3678         2.1473         0.4819
       2301.50        60.7688         1.3618         2.1470         0.4793
       2302.00        58.7816         1.3561         2.1463         0.4870
       2302.50        57.1945         1.3523         2.1442         0.4868
       2303.00        56.3941         1.3531         2.1423         0.4823
       2303.50        56.4707         1.3552         2.1420         0.4723
       2304.00        56.6175         1.3591         2.1415         0.4692
       2304.50        56.5808         1.3607         2.1414         0.4712
       2305.00        56.4241         1.3638         2.1395         0.4700
       2305.50        56.6776         1.3669         2.1388         0.4713
       2306.00        56.9379         1.3703         2.1397         0.4739
       2306.50        57.6946         1.3724         2.1394         0.4804
       2307.00        57.8281         1.3752         2.1377         0.4817
       2307.50        58.2949         1.3773         2.1356         0.4781
       2308.00        58.7821         1.3759         2.1356         0.4666
       2308.50        59.9092         1.3768         2.1338         0.4549
       2309.00        60.7030         1.3739         2.1311         0.4464
       2309.50        61.3696         1.3688         2.1276         0.4420
       2310.00        61.3564         1.3625         2.1272         0.4409
       2310.50        61.3433         1.3546         2.1273         0.4380
       2311.00        61.1569         1.3487         2.1275         0.4359
       2311.50        60.5130         1.3433         2.1303         0.4342
       2312.00        60.3928         1.3383         2.1347         0.4384
       2312.50        60.1761         1.3343         2.1397         0.4475
       2313.00        61.2937         1.3317         2.1435         0.4514
       2313.50        62.4213         1.3268         2.1447         0.4500
       2314.00        64.2487         1.3245         2.1452         0.4506
       2314.50        65.4823         1.3240         2.1487         0.4589
       2315.00        67.0359         1.3275         2.1568         0.4712
       2315.50        68.5933         1.3326         2.1651         0.4761
       2316.00        69.8534         1.3441         2.1669         0.4698
       2316.50        70.2598         1.3487         2.1629         0.4537
       2317.00        69.3490         1.3527         2.1582         0.4370
       2317.50        68.0789         1.3565         2.1553         0.4279
       2318.00        66.8088         1.3595         2.1519         0.4397
       2318.50        65.4218         1.3662         2.1497         0.4588
       2319.00        64.5981         1.3730         2.1483         0.4768
       2319.50        63.9183         1.3794         2.1456         0.4787
       2320.00        63.9689         1.3814         2.1393         0.4722
       2320.50        64.9000         1.3816         2.1326         0.4681
       2321.00        66.6703         1.3743         2.1292         0.4798
       2321.50        68.4406         1.3780         2.1289         0.4996
       2322.00        70.0907         1.3806         2.1286         0.5188
       2322.50        71.3881         1.3833         2.1272         0.5285
       2323.00        72.6854         1.3881         2.1276         0.5270
       2323.50        73.5226         1.3863         2.1327         0.5240
       2324.00        73.8862         1.3843         2.1373         0.5164
       2324.50        74.3530         1.3864         2.1371         0.5163
       2325.00        74.6130         1.3872         2.1352         0.5160
       2325.50        74.7030         1.3868         2.1339         0.5207
       2326.00        74.5863         1.3850         2.1355         0.5204
       2326.50        74.8529         1.3765         2.1354         0.5208
       2327.00        75.1328         1.3697         2.1350         0.5189
       2327.50        75.2661         1.3636         2.1345         0.5154
       2328.00        74.8928         1.3540         2.1308         0.5085
       2328.50        74.3761         1.3489         2.1238         0.5036
       2329.00        74.0393         1.3437         2.1180         0.5059
