~Version Information Block
VERS .                  2.0:  CWLS LOG ASCII STANDARD - VERSION 2.0
WRAP .                   NO:  One line per depth step
~Well Information Block
#MNEM.UNIT        Data Type   Information
#---------- ----------------  -----------
STRT .FT            1300.00:  START DEPTH
STOP .FT            8397.00:  STOP DEPTH
STEP .FT               0.50:  STEP
NULL .              -999.25:  NULL VALUE
COMP .                     :  COMPANY
WELL .              SA-44HZ:  WELL
FLD  .                     :  FIELD
LOC  .                     :  LOCATION
CTRY .                     :  COUNTRY
STAT .                     :  STATE
CNTY .                     :  COUNTY
SRVC .                     :  SERVICE COMPANY
DATE .                     :  DATE
API  .                     :  API NUMBER
UWI  .                     :  UNIQUE WELL ID
~Curve Information Block
#MNEM.UNIT         API CODE   Curve Description
#---------- ----------------  -----------------
DEPTH.FT                   :  DEPTH
GR   .GAPI                 :  Gamma Ray
RT   .OHMM                 :  Deep resistivity
RHOB .G/C3                 :  Bulk density
NPHI .V/V                  :  Neutron porosity
~Parameter Information Block
#MNEM.UNIT            Value   Description
#---------- ----------------  -----------
PROJECT.            SERANG_FE:  
~Other Information Block
# 
~A       DEPTH             GR             RT           RHOB           NPHI 
# ...
       5045.00        86.2128         1.4528         2.3193       0.396500
       5045.50        85.9445         1.4280         2.3229       0.396300
       5046.00        85.5511         1.3947         2.3261       0.396800
       5046.50        85.4200         1.3650         2.3282       0.398200
       5047.00        85.6822         1.3500         2.3293       0.400600
       5047.50        85.9467         1.3500         2.3296       0.403600
       5048.00        86.2133         1.3500         2.3290       0.406300
       5048.50        86.0906         1.3500         2.3272       0.408200
       5049.00        86.7617         1.3500         2.3238       0.409200
       5049.50        88.2267         1.3542         2.3189       0.409800
       5050.00        90.7528         1.3658         2.3133       0.410200
       5050.50        92.2122         1.3775         2.3080       0.410500
       5051.00        92.6050         1.3809         2.3040       0.410400
       5051.50        91.5228         1.3733         2.3016       0.409300
       5052.00        90.7111         1.3775         2.3005       0.407000
       5052.50        88.6100         1.3933         2.3000       0.403800
       5053.00        85.4900         1.4195         2.2994       0.400300
       5053.50        82.3700         1.4471         2.2981       0.397300
       5054.00        80.5578         1.4671         2.2955       0.394800
       5054.50        80.0533         1.4800         2.2914       0.392600
       5055.00        79.2967         1.4923         2.2862       0.390400
       5055.50        78.7922         1.5273         2.2807       0.388200
       5056.00        78.5400         1.5500         2.2760       0.386400
       5056.50        79.2967         1.5500         2.2728       0.384900
       5057.00        80.0533         1.5500         2.2710       0.383400
       5057.50        80.8100         1.5500         2.2703       0.381600
       5058.00        80.8100         1.5500         2.2701       0.379700
       5058.50        81.5783         1.5500         2.2700       0.378000
       5059.00        83.1150         1.5419         2.2700       0.376900
       5059.50        84.6517         1.5185         2.2700       0.376400
       5060.00        85.4200         1.4952         2.2700       0.376200
       5060.50        85.8133         1.4800         2.2700       0.376200
       5061.00        86.6000         1.4800         2.2700       0.376500
       5061.50        87.3867         1.4800         2.2700       0.377400
       5062.00        87.5178         1.4800         2.2700       0.379700
       5062.50        86.9933         1.4800         2.2700       0.383300
       5063.00        86.2067         1.4696         2.2700       0.387600
       5063.50        85.6822         1.4397         2.2700       0.391400
       5064.00        85.0333         1.4200         2.2700       0.394000
       5064.50        84.2600         1.4200         2.2700       0.395200
       5065.00        83.4867         1.4200         2.2700       0.395600
       5065.50        83.6200         1.4200         2.2700       0.395600
       5066.00        84.6600         1.4200         2.2700       0.395500
       5066.50        86.2200         1.4303         2.2700       0.395200
       5067.00        86.9978         1.4603         2.2700       0.394300
       5067.50        86.9933         1.4800         2.2700       0.392700
       5068.00        86.2067         1.4959         2.2700       0.390400
       5068.50        85.4245         1.5426         2.2698       0.387800
       5069.00        84.6467         1.5853         2.2694       0.385100
       5069.50        84.2661         1.6004         2.2685       0.382100
       5070.00        84.9289         1.5771         2.2672       0.378300
       5070.50        86.6350         1.5577         2.2654       0.373800
       5071.00        89.1400         1.5500         2.2636       0.369000
       5071.50        91.4006         1.5500         2.2620       0.364600
       5072.00        93.4167         1.5500         2.2610       0.360700
       5072.50        94.2267         1.5500         2.2603       0.357100
       5073.00        94.2233         1.5500         2.2599       0.353900
       5073.50        93.4067         1.5500         2.2594       0.351300
       5074.00        92.8622         1.5500         2.2585       0.349700
       5074.50        91.7883         1.5500         2.2572       0.348900
       5075.00        90.1850         1.5500         2.2555       0.348900
       5075.50        88.7144         1.5265         2.2536       0.349200
       5076.00        88.3111         1.4800         2.2521       0.349700
       5076.50        88.9750         1.4800         2.2510       0.350800
       5077.00        89.6389         1.4800         2.2504       0.353000
       5077.50        89.6389         1.4800         2.2501       0.356300
       5078.00        88.9750         1.4767         2.2499       0.360300
       5078.50        88.1783         1.4633         2.2497       0.363800
       5079.00        87.7800         1.4433         2.2491       0.365800
       5079.50        88.1783         1.4267         2.2480       0.366200
       5080.00        88.9750         1.4200         2.2464       0.365600
       5080.50        89.9061         1.4200         2.2445       0.364500
       5081.00        90.7078         1.4200         2.2428       0.363600
       5081.50        91.3800         1.4200         2.2414       0.363600
       5082.00        92.0522         1.3985         2.2406       0.365000
       5082.50        92.8639         1.3336         2.2402       0.367800
       5083.00        93.8150         1.2900         2.2400       0.371400
       5083.50        94.6317         1.2900         2.2400       0.374600
       5084.00        94.7678         1.2900         2.2400       0.376400
       5084.50        94.2233         1.2900         2.2400       0.376600
       5085.00        93.4067         1.2720         2.2400       0.375400
       5085.50        92.8622         1.2170         2.2399       0.373500
       5086.00        92.5900         1.1800         2.2397       0.371700
       5086.50        92.5900         1.1800         2.2393       0.370500
       5087.00        92.5900         1.1979         2.2384       0.370700
       5087.50        91.3950         1.2529         2.2371       0.372800
       5088.00        89.0050         1.2932         2.2355       0.377100
       5088.50        86.6150         1.3065         2.2337       0.383200
       5089.00        85.4200         1.3265         2.2321       0.390700
       5089.50        83.5367         1.3432         2.2306       0.398300
       5090.00        79.7700         1.3403         2.2289       0.405100
       5090.50        76.0033         1.3103         2.2268       0.410200
       5091.00        73.8800         1.2900         2.2237       0.413500
       5091.50        73.4000         1.2900         2.2195       0.415100
       5092.00        72.6800         1.2997         2.2144       0.415900
       5092.50        72.2000         1.3297         2.2088       0.416200
       5093.00        71.9600         1.3500         2.2034       0.416500
       5093.50        71.9600         1.3500         2.1989       0.417000
       5094.00        71.9600         1.3500         2.1961       0.417800
       5094.50        71.7222         1.3500         2.1957       0.418700
       5095.00        71.2467         1.3500         2.1978       0.419900
       5095.50        70.5333         1.3500         2.2015       0.421700
       5096.00        70.2956         1.3500         2.2053       0.425400
       5096.50        70.5333         1.3500         2.2081       0.431700
       5097.00        71.2467         1.3436         2.2095       0.440200
       5097.50        72.7056         1.3237         2.2099       0.449100
       5098.00        74.9100         1.3010         2.2100       0.456200
