~Version Information Block
VERS .                  2.0:  CWLS LOG ASCII STANDARD - VERSION 2.0
WRAP .                   NO:  One line per depth step
~Well Information Block
#MNEM.UNIT        Data Type   Information
#---------- ----------------  -----------
STRT .FT            1300.00:  START DEPTH
STOP .FT            8397.00:  STOP DEPTH
STEP .FT               0.50:  STEP
NULL .              -999.25:  NULL VALUE
COMP .                     :  COMPANY
WELL .              SA-44HZ:  WELL
FLD  .                     :  FIELD
LOC  .                     :  LOCATION
CTRY .                     :  COUNTRY
STAT .                     :  STATE
CNTY .                     :  COUNTY
SRVC .                     :  SERVICE COMPANY
DATE .                     :  DATE
API  .                     :  API NUMBER
UWI  .                     :  UNIQUE WELL ID
~Curve Information Block
#MNEM.UNIT         API CODE   Curve Description
#---------- ----------------  -----------------
DEPTH.FT                   :  DEPTH
GR   .GAPI                 :  Gamma Ray
RT   .OHMM                 :  Deep resistivity
RHOB .G/C3                 :  Bulk density
NPHI .V/V                  :  Neutron porosity
~Parameter Information Block
#MNEM.UNIT            Value   Description
#---------- ----------------  -----------
PROJECT.            SERANG_FE:  
~Other Information Block
# 
~A       DEPTH             GR             RT           RHOB           NPHI 
# ...
       7827.00        65.6600         7.9795         2.2428       0.189400
       7827.50        65.6600         8.3611         2.2409       0.186800
       7828.00        63.6567         8.7207         2.2401       0.184700
       7828.50        67.2100         9.1302         2.2400       0.182900
       7829.00        67.9850         9.7683         2.2380       0.181400
       7829.50        74.1400        10.6173         2.2313       0.179700
       7830.00        69.8400        11.5620         2.2192       0.177800
       7830.50        69.8400        12.3267         2.2055       0.175300
       7831.00        64.6700        12.8475         2.1955       0.172400
       7831.50        60.6350        13.1921         2.1909       0.169100
       7832.00        59.6600        13.5500         2.1900       0.165700
       7832.50        58.6800        14.1708         2.1900       0.162700
       7833.00        58.6800        14.9677         2.1886       0.160300
       7833.50        59.6500        15.6578         2.1851       0.158400
       7834.00        57.7250        15.9672         2.1794       0.157100
       7834.50        55.8000        15.7993         2.1741       0.156500
       7835.00        51.2700        15.4245         2.1710       0.156700
       7835.50        45.8850        15.0597         2.1700       0.157900
       7836.00        45.0367        14.8541         2.1700       0.159900
       7836.50        43.9033        14.7653         2.1700       0.162800
       7837.00        43.9033        14.6480         2.1700       0.166200
       7837.50        46.2133        14.4579         2.1700       0.169900
       7838.00        49.1267        14.2860         2.1704       0.173600
       7838.50        51.1750        14.1204         2.1718       0.177100
       7839.00        50.2850        13.9662         2.1750       0.180500
       7839.50        48.4900        13.7811         2.1797       0.183800
       7840.00        50.9267        13.6377         2.1845       0.187100
       7840.50        52.7367        13.5549         2.1879       0.190100
       7841.00        53.3300        13.5300         2.1898       0.192400
       7841.50        51.4867        13.4065         2.1914       0.193800
       7842.00        50.2700        13.1539         2.1946       0.194400
       7842.50        50.8733        12.6241         2.2003       0.194300
       7843.00        51.1750        11.9258         2.2074       0.194100
       7843.50        55.8650        11.2011         2.2139       0.194100
       7844.00        63.6850        10.5509         2.2183       0.194400
       7844.50        66.4433        10.0098         2.2220       0.194900
       7845.00        70.5467         9.5098         2.2284       0.195700
       7845.50        72.6800         9.3313         2.2394       0.196600
       7846.00        73.0400         9.6655         2.2537       0.198000
       7846.50        70.9200        10.2365         2.2666       0.199800
       7847.00        67.7200        10.8600         2.2737       0.202300
       7847.50        63.6850        11.2911         2.2727       0.205000
       7848.00        56.7850        11.5890         2.2646       0.207500
       7848.50        54.6133        11.6171         2.2528       0.209500
       7849.00        55.2700        11.2872         2.2415       0.210400
       7849.50        55.9450        10.7975         2.2340       0.210500
       7850.00        66.7900        10.2051         2.2305       0.209900
       7850.50        75.2500         9.1638         2.2289       0.209000
       7851.00        77.1033         7.9372         2.2271       0.208300
       7851.50        80.0533         6.8567         2.2248       0.207800
       7852.00        75.7600         6.4724         2.2224       0.207300
       7852.50        73.2350         6.8316         2.2209       0.206200
       7853.00        62.6550         7.6145         2.2201       0.203200
       7853.50        59.6500         9.1539         2.2196       0.197900
       7854.00        59.6500        10.8216         2.2180       0.190900
       7854.50        57.7100        12.2929         2.2147       0.183600
       7855.00        57.7100        13.0815         2.2100       0.177800
       7855.50        55.8150        13.3771         2.2052       0.174000
       7856.00        53.9200        13.5039         2.2019       0.171600
       7856.50        53.9200        13.6079         2.2004       0.169800
       7857.00        53.9200        13.7132         2.2000       0.168300
       7857.50        53.9200        13.8969         2.2000       0.167100
       7858.00        55.8150        14.0288         2.2000       0.166300
       7858.50        57.7100        14.3915         2.2000       0.165600
       7859.00        59.6650        14.6051         2.2000       0.165100
       7859.50        61.6200        14.7422         2.1951       0.164300
       7860.00        63.6400        14.2779         2.1848       0.162600
       7860.50        65.6600        13.8578         2.1691       0.159700
       7861.00        63.6400        14.3804         2.1573       0.155300
       7861.50        59.6650        16.3866         2.1510       0.149900
       7862.00        59.6650        19.4965         2.1500       0.144100
       7862.50        57.7100        22.7626         2.1487       0.138700
       7863.00        50.2700        25.1266         2.1444       0.133800
       7863.50        50.2700        29.9054         2.1373       0.129500
       7864.00        45.1700        34.5924         2.1309       0.125800
       7864.50        40.0700        40.6932         2.1294       0.122700
       7865.00        36.2650        46.3580         2.1335       0.120600
       7865.50        32.4600        51.7900         2.1396       0.119400
       7866.00        31.0500        56.5784         2.1429       0.119200
       7866.50        29.6400        55.8676         2.1405       0.119400
       7867.00        29.6400        53.8228         2.1330       0.119800
       7867.50        32.4600        50.4544         2.1236       0.119800
       7868.00        32.4600        49.1536         2.1161       0.119300
       7868.50        32.4600        48.7148         2.1109       0.118200
       7869.00        34.6950        48.9480         2.1061       0.116900
       7869.50        36.9300        49.9362         2.0987       0.115700
       7870.00        34.6950        51.0752         2.0891       0.114800
       7870.50        32.4600        51.9122         2.0797       0.114500
       7871.00        29.7050        52.3645         2.0734       0.114300
       7871.50        26.9500        52.7659         2.0707       0.114100
       7872.00        26.9500        53.5077         2.0690       0.113700
       7872.50        25.6500        54.3169         2.0652       0.113000
       7873.00        25.6500        54.7864         2.0570       0.112000
       7873.50        25.6500        54.8500         2.0451       0.110700
       7874.00        28.2800        54.8500         2.0332       0.109500
       7874.50        28.2800        55.5710         2.0248       0.108700
       7875.00        28.2800        56.4204         2.0210       0.108200
       7875.50        28.2800        57.2697         2.0200       0.108100
       7876.00        29.6550        57.3900         2.0202       0.108300
       7876.50        31.0300        58.1533         2.0208       0.108700
       7877.00        31.0300        59.0394         2.0224       0.109300
       7877.50        25.6500        59.9255         2.0247       0.110200
       7878.00        25.6500        60.8457         2.0271       0.111100
       7878.50        28.3400        61.7719         2.0289       0.112100
       7879.00        31.0300        62.6981         2.0298       0.113200
       7879.50        31.0300        62.8100         2.0300       0.114400
       7880.00        36.9300        62.8100         2.0300       0.115600
