~Version Information Block
VERS .                  2.0:  CWLS LOG ASCII STANDARD - VERSION 2.0
WRAP .                   NO:  One line per depth step
~Well Information Block
#MNEM.UNIT        Data Type   Information
#---------- ----------------  -----------
STRT .FT             350.00:  START DEPTH
STOP .FT           10167.50:  STOP DEPTH
STEP .FT               0.50:  STEP
NULL .              -999.25:  NULL VALUE
COMP .                     :  COMPANY
WELL .                SA-41:  WELL
FLD  .                     :  FIELD
LOC  .                     :  LOCATION
CTRY .                     :  COUNTRY
STAT .                     :  STATE
CNTY .                     :  COUNTY
SRVC .                     :  SERVICE COMPANY
DATE .                     :  DATE
API  .                     :  API NUMBER
UWI  .                     :  UNIQUE WELL ID
~Curve Information Block
#MNEM.UNIT         API CODE   Curve Description
#---------- ----------------  -----------------
DEPTH.FT                   :  DEPTH
GR   .GAPI                 :  Gamma Ray
RT   .OHMM                 :  Deep resistivity
RHOB .G/C3                 :  Bulk density
NPHI .V/V                  :  Neutron porosity
~Parameter Information Block
#MNEM.UNIT            Value   Description
#---------- ----------------  -----------
PROJECT.            SERANG_FE:  
~Other Information Block
# 
~A       DEPTH             GR             RT           RHOB           NPHI 
# ...
       6823.50        82.6300         1.8100         2.3980         0.4430
       6824.00        80.5300         1.8180         2.3990         0.4380
       6824.50        79.0700         1.8250         2.3970         0.4350
       6825.00        79.2300         1.8270         2.3950         0.4370
       6825.50        80.6900         1.8160         2.3950         0.4410
       6826.00        82.6300         1.8130         2.3920         0.4440
       6826.50        84.5700         1.8080         2.3840         0.4450
       6827.00        85.0500         1.8010         2.3770         0.4430
       6827.50        84.5700         1.7950         2.3790         0.4390
       6828.00        82.4700         1.7850         2.3810         0.4380
       6828.50        80.0400         1.7740         2.3820         0.4390
       6829.00        78.4300         1.7650         2.3820         0.4430
       6829.50        77.9400         1.7510         2.3900         0.4460
       6830.00        79.8800         1.7460         2.3990         0.4500
       6830.50        81.9800         1.7460         2.4060         0.4520
       6831.00        82.9500         1.7390         2.4110         0.4500
       6831.50        83.9200         1.7340         2.4160         0.4460
       6832.00        83.4400         1.7280         2.4190         0.4440
       6832.50        83.9200         1.7200         2.4190         0.4470
       6833.00        85.3800         1.7150         2.4220         0.4470
       6833.50        87.9700         1.7110         2.4270         0.4450
       6834.00        90.8800         1.7030         2.4290         0.4380
       6834.50        91.0400         1.6940         2.4240         0.4340
       6835.00        89.4200         1.6840         2.4170         0.4300
       6835.50        87.4800         1.6790         2.4110         0.4270
       6836.00        85.8600         1.6740         2.4100         0.4230
       6836.50        85.3800         1.6720         2.4060         0.4220
       6837.00        85.3800         1.6680         2.4030         0.4240
       6837.50        85.3800         1.6680         2.3970         0.4270
       6838.00        84.7300         1.6660         2.3920         0.4300
       6838.50        83.6000         1.6580         2.3870         0.4340
       6839.00        81.9800         1.6520         2.3850         0.4410
       6839.50        81.6600         1.6570         2.3900         0.4450
       6840.00        82.3100         1.6590         2.3950         0.4480
       6840.50        84.2500         1.6500         2.4020         0.4520
       6841.00        85.7000         1.6450         2.4010         0.4580
       6841.50        86.1900         1.6380         2.4040         0.4560
       6842.00        85.0500         1.6420         2.4050         0.4470
       6842.50        83.6000         1.6360         2.4090         0.4370
       6843.00        81.8200         1.6290         2.4110         0.4330
       6843.50        82.1500         1.6290         2.4110         0.4330
       6844.00        83.4400         1.6320         2.4060         0.4300
       6844.50        86.6700         1.6310         2.3960         0.4260
       6845.00        89.5800         1.6290         2.3880         0.4240
       6845.50        91.2000         1.6290         2.3820         0.4230
       6846.00        91.6800         1.6280         2.3850         0.4230
       6846.50        90.7100         1.6320         2.3930         0.4270
       6847.00        90.7100         1.6290         2.4020         0.4340
       6847.50        89.2600         1.6310         2.4100         0.4400
       6848.00        88.2900         1.6290         2.4170         0.4420
       6848.50        86.3500         1.6270         2.4250         0.4440
       6849.00        85.3800         1.6230         2.4350         0.4480
       6849.50        84.7300         1.6240         2.4450         0.4540
       6850.00        85.7000         1.6230         2.4520         0.4570
       6850.50        87.1600         1.6260         2.4550         0.4570
       6851.00        87.9700         1.6270         2.4560         0.4570
       6851.50        87.9700         1.6260         2.4530         0.4580
       6852.00        87.1600         1.6270         2.4520         0.4610
       6852.50        85.5400         1.6240         2.4490         0.4610
       6853.00        83.9200         1.6290         2.4460         0.4590
       6853.50        83.1100         1.6370         2.4410         0.4570
       6854.00        84.0800         1.6440         2.4360         0.4570
       6854.50        85.3800         1.6430         2.4320         0.4590
       6855.00        87.0000         1.6460         2.4290         0.4610
       6855.50        88.4500         1.6500         2.4250         0.4630
       6856.00        89.7400         1.6590         2.4220         0.4610
       6856.50        90.7100         1.6640         2.4210         0.4560
       6857.00        90.7100         1.6670         2.4190         0.4480
       6857.50        90.7100         1.6730         2.4140         0.4430
       6858.00        89.7400         1.6760         2.4100         0.4450
       6858.50        88.7700         1.6760         2.4070         0.4460
       6859.00        87.3200         1.6800         2.4060         0.4440
       6859.50        85.3800         1.6800         2.4030         0.4370
       6860.00        83.4400         1.6830         2.4030         0.4320
       6860.50        81.9800         1.6780         2.4050         0.4310
       6861.00        81.5000         1.6710         2.4030         0.4310
       6861.50        81.5000         1.6690         2.3980         0.4360
       6862.00        81.9800         1.6690         2.3910         0.4460
       6862.50        82.6300         1.6740         2.3900         0.4590
       6863.00        83.6000         1.6700         2.3900         0.4670
       6863.50        84.0800         1.6640         2.3960         0.4700
       6864.00        84.4100         1.6580         2.4010         0.4700
       6864.50        84.4100         1.6540         2.4090         0.4700
       6865.00        85.3800         1.6470         2.4110         0.4680
       6865.50        86.8300         1.6460         2.4140         0.4630
       6866.00        88.2900         1.6380         2.4150         0.4610
       6866.50        88.9400         1.6300         2.4170         0.4590
       6867.00        89.4200         1.6250         2.4200         0.4570
       6867.50        88.9300         1.6120         2.4250         0.4550
       6868.00        87.8000         1.6110         2.4290         0.4540
       6868.50        85.8600         1.6100         2.4260         0.4560
       6869.00        85.8600         1.6100         2.4220         0.4560
       6869.50        86.3500         1.6120         2.4130         0.4580
       6870.00        88.2900         1.6120         2.4100         0.4600
       6870.50        88.2900         1.6130         2.4030         0.4640
       6871.00        87.9700         1.6190         2.3980         0.4660
       6871.50        86.5100         1.6200         2.3920         0.4680
       6872.00        85.0500         1.6190         2.3870         0.4670
       6872.50        84.8900         1.6150         2.3880         0.4630
       6873.00        84.8900         1.6090         2.3890         0.4540
       6873.50        85.8600         1.6000         2.3980         0.4460
       6874.00        86.0300         1.5860         2.4040         0.4410
       6874.50        87.4800         1.5810         2.4160         0.4370
       6875.00        89.4200         1.5820         2.4290         0.4330
       6875.50        90.8800         1.5890         2.4470         0.4250
       6876.00        91.5200         1.6080         2.4670         0.4140
       6876.50        91.5200         1.7380         2.4810         0.3990
