~Version Information Block
VERS .                  2.0:  CWLS LOG ASCII STANDARD - VERSION 2.0
WRAP .                   NO:  One line per depth step
~Well Information Block
#MNEM.UNIT        Data Type   Information
#---------- ----------------  -----------
STRT .FT            1300.00:  START DEPTH
STOP .FT            8397.00:  STOP DEPTH
STEP .FT               0.50:  STEP
NULL .              -999.25:  NULL VALUE
COMP .                     :  COMPANY
WELL .              SA-44HZ:  WELL
FLD  .                     :  FIELD
LOC  .                     :  LOCATION
CTRY .                     :  COUNTRY
STAT .                     :  STATE
CNTY .                     :  COUNTY
SRVC .                     :  SERVICE COMPANY
DATE .                     :  DATE
API  .                     :  API NUMBER
UWI  .                     :  UNIQUE WELL ID
~Curve Information Block
#MNEM.UNIT         API CODE   Curve Description
#---------- ----------------  -----------------
DEPTH.FT                   :  DEPTH
GR   .GAPI                 :  Gamma Ray
RT   .OHMM                 :  Deep resistivity
RHOB .G/C3                 :  Bulk density
NPHI .V/V                  :  Neutron porosity
~Parameter Information Block
#MNEM.UNIT            Value   Description
#---------- ----------------  -----------
PROJECT.            SERANG_FE:  
~Other Information Block
# 
~A       DEPTH             GR             RT           RHOB           NPHI 
# ...
       5526.50        91.3800         1.2900         2.2939       0.445500
       5527.00        90.5733         1.2820         2.2957       0.436700
       5527.50        90.1700         1.2656         2.2973       0.429000
       5528.00        90.1700         1.2489         2.2986       0.423800
       5528.50        90.1700         1.2403         2.2994       0.421100
       5529.00        90.1700         1.2400         2.2998       0.419400
       5529.50        90.1700         1.2400         2.2999       0.418000
       5530.00        90.1700         1.2400         2.3000       0.416600
       5530.50        89.9061         1.2400         2.3000       0.415000
       5531.00        89.1144         1.2400         2.3000       0.412600
       5531.50        87.7950         1.2400         2.3000       0.408200
       5532.00        86.4756         1.2400         2.3000       0.401700
       5532.50        86.0772         1.2400         2.3000       0.394300
       5533.00        86.6000         1.2400         2.2998       0.388800
       5533.50        87.2555         1.2400         2.2992       0.387500
       5534.00        87.2555         1.2400         2.2981       0.391800
       5534.50        86.6000         1.2400         2.2963       0.401000
       5535.00        85.9444         1.2400         2.2943       0.413300
       5535.50        86.3428         1.2400         2.2924       0.425800
       5536.00        87.7950         1.2400         2.2910       0.435900
       5536.50        89.3783         1.2400         2.2903       0.443100
       5537.00        89.9044         1.2400         2.2901       0.448500
       5537.50        89.3733         1.2400         2.2900       0.453400
       5538.00        88.5767         1.2400         2.2900       0.458300
       5538.50        87.7833         1.2400         2.2898       0.462700
       5539.00        86.9933         1.2400         2.2892       0.466300
       5539.50        86.2067         1.2400         2.2881       0.469700
       5540.00        86.2100         1.2400         2.2863       0.473700
       5540.50        87.0033         1.2400         2.2843       0.478400
       5541.00        88.5867         1.2400         2.2824       0.482700
       5541.50        89.6422         1.2400         2.2811       0.485000
       5542.00        90.1700         1.2400         2.2803       0.483600
       5542.50        90.9767         1.2400         2.2801       0.478100
       5543.00        91.7833         1.2400         2.2794       0.469500
       5543.50        92.5900         1.2400         2.2768       0.460200
       5544.00        92.5900         1.2400         2.2707       0.451900
       5544.50        92.5900         1.2400         2.2616       0.444700
       5545.00        92.5900         1.2400         2.2519       0.437800
       5545.50        91.7883         1.2400         2.2448       0.430500
       5546.00        90.1850         1.2400         2.2412       0.423600
       5546.50        88.5817         1.2400         2.2401       0.418300
       5547.00        87.7800         1.2400         2.2400       0.415400
       5547.50        87.7800         1.2400         2.2400       0.414800
       5548.00        87.7800         1.2400         2.2400       0.415700
       5548.50        87.5178         1.2400         2.2400       0.417100
       5549.00        86.9933         1.2400         2.2400       0.418200
       5549.50        86.2067         1.2400         2.2400       0.418800
       5550.00        86.2100         1.2558         2.2400       0.419100
       5550.50        87.0033         1.2724         2.2400       0.419600
       5551.00        88.5867         1.2812         2.2400       0.421300
       5551.50        89.6422         1.2659         2.2400       0.425800
       5552.00        90.9817         1.2493         2.2400       0.434000
       5552.50        92.6050         1.2405         2.2400       0.444900
       5553.00        94.2283         1.2400         2.2401       0.455900
       5553.50        94.7678         1.2400         2.2405       0.464300
       5554.00        94.2233         1.2400         2.2413       0.469100
       5554.50        93.4067         1.2400         2.2427       0.471000
       5555.00        92.8622         1.2118         2.2446       0.471500
       5555.50        91.7883         1.1818         2.2466       0.471200
       5556.00        90.1850         1.1800         2.2482       0.470300
       5556.50        88.5817         1.1800         2.2493       0.468600
       5557.00        87.7800         1.1800         2.2498       0.466400
       5557.50        88.1783         1.1800         2.2503       0.463700
       5558.00        88.9750         1.1800         2.2514       0.460700
       5558.50        89.7717         1.1800         2.2539       0.456700
       5559.00        90.1700         1.1800         2.2582       0.451500
       5559.50        90.1700         1.1800         2.2639       0.445200
       5560.00        90.1700         1.1800         2.2698       0.439000
       5560.50        90.1700         1.1566         2.2747       0.434000
       5561.00        90.1700         1.1316         2.2778       0.431100
       5561.50        90.1700         1.1300         2.2793       0.430700
       5562.00        90.1700         1.1300         2.2799       0.432500
       5562.50        90.1700         1.1300         2.2800       0.435700
       5563.00        90.9817         1.1300         2.2801       0.439100
       5563.50        92.6050         1.1300         2.2809       0.441200
       5564.00        94.2283         1.1534         2.2832       0.441200
       5564.50        94.7678         1.1784         2.2875       0.439000
       5565.00        94.2233         1.1800         2.2937       0.434900
       5565.50        93.4067         1.1800         2.3002       0.430300
       5566.00        92.8622         1.1800         2.3053       0.427200
       5566.50        93.4117         1.1800         2.3084       0.428100
       5567.00        95.0550         1.1722         2.3097       0.434200
       5567.50        96.6983         1.1561         2.3105       0.443900
       5568.00        97.5200         1.1395         2.3124       0.453900
       5568.50        96.6983         1.1306         2.3175       0.460300
       5569.00        95.0550         1.1300         2.3278       0.460800
       5569.50        93.1444         1.0835         2.3443       0.455500
       5570.00        91.5211         1.0800         2.3654       0.447000
       5570.50        90.1850         1.0800         2.3873       0.437900
       5571.00        88.8489         1.0800         2.4060       0.429300
       5571.50        85.7706         1.3306         2.4188       0.420800
       5572.00        80.9500         1.6006         2.4259       0.411600
       5572.50        76.3967         1.7452         2.4289       0.401900
       5573.00        74.1200         2.0053         2.4298       0.392400
       5573.50        73.7600         2.2753         2.4300       0.383300
       5574.00        73.0400         2.4200         2.4300       0.373800
       5574.50        72.6855         2.4300         2.4293       0.363200
       5575.00        73.4222         1.5474         2.4262       0.351900
       5575.50        75.2500         1.4800         2.4189       0.342000
       5576.00        77.0778         1.4800         2.4077       0.335200
       5576.50        80.1128         1.3709         2.3957       0.331700
       5577.00        84.3550         1.2540         2.3865       0.330900
       5577.50        88.2317         1.1292         2.3818       0.331600
       5578.00        90.1700         1.1060         2.3802       0.332900
       5578.50        90.5733         1.0893         2.3800       0.334200
       5579.00        91.3800         1.0805         2.3800       0.335600
       5579.50        92.6006         1.3025         2.3800       0.337500
