~Version Information Block
VERS .                  2.0:  CWLS LOG ASCII STANDARD - VERSION 2.0
WRAP .                   NO:  One line per depth step
~Well Information Block
#MNEM.UNIT        Data Type   Information
#---------- ----------------  -----------
STRT .FT            1300.00:  START DEPTH
STOP .FT            8397.00:  STOP DEPTH
STEP .FT               0.50:  STEP
NULL .              -999.25:  NULL VALUE
COMP .                     :  COMPANY
WELL .              SA-44HZ:  WELL
FLD  .                     :  FIELD
LOC  .                     :  LOCATION
CTRY .                     :  COUNTRY
STAT .                     :  STATE
CNTY .                     :  COUNTY
SRVC .                     :  SERVICE COMPANY
DATE .                     :  DATE
API  .                     :  API NUMBER
UWI  .                     :  UNIQUE WELL ID
~Curve Information Block
#MNEM.UNIT         API CODE   Curve Description
#---------- ----------------  -----------------
DEPTH.FT                   :  DEPTH
GR   .GAPI                 :  Gamma Ray
RT   .OHMM                 :  Deep resistivity
RHOB .G/C3                 :  Bulk density
NPHI .V/V                  :  Neutron porosity
~Parameter Information Block
#MNEM.UNIT            Value   Description
#---------- ----------------  -----------
PROJECT.            SERANG_FE:  
~Other Information Block
# 
~A       DEPTH             GR             RT           RHOB           NPHI 
# ...
       2263.00       129.1150         1.3538         2.1000       0.437100
       2263.50       136.9967         1.3111         2.1000       0.437700
       2264.00       138.3300         1.2900         2.1001       0.437000
       2264.50       140.3300         1.2900         2.1003       0.436000
       2265.00       140.9967         1.2900         2.1009       0.435300
       2265.50       140.3300         1.2905         2.1020       0.434900
       2266.00       138.3300         1.3105         2.1035       0.434500
       2266.50       132.4600         1.3309         2.1054       0.432700
       2267.00       122.7200         1.3623         2.1071       0.428600
       2267.50       109.1100         1.3856         2.1085       0.422700
       2268.00       100.0367         1.4087         2.1094       0.417300
       2268.50        95.0900         1.4208         2.1098       0.414200
       2269.00        94.2700         1.4508         2.1100       0.413300
       2269.50        94.1522         1.4800         2.1103       0.413700
       2270.00        95.8489         1.4800         2.1109       0.415100
       2270.50       100.5304         1.4746         2.1120       0.418300
       2271.00       102.4029         1.2746         2.1139       0.423800
       2271.50       104.5096         1.0796         2.1171       0.430600
       2272.00       105.4459         1.0642         2.1177       0.437200
       2272.50       105.6800         1.0342         2.1187       0.442100
       2273.00       105.6800         1.0046         2.1202       0.445100
       2273.50       105.6800         0.9900         2.1222       0.446800
       2274.00       103.7378         0.9981         2.1246       0.448000
       2274.50        99.8533         1.2900         2.1275       0.449300
       2275.00        94.0267         1.2900         2.1305       0.450900
       2275.50        90.1422         1.2900         2.1334       0.453000
       2276.00        88.2000         1.2900         2.1359       0.455300
       2276.50        88.2000         1.2917         2.1377       0.457400
       2277.00        88.2000         1.3500         2.1388       0.458900
       2277.50        88.2000         1.3500         2.1394       0.459700
       2278.00        82.4450         1.3494         2.1396       0.460000
       2278.50        76.6900         1.3295         2.1394       0.460000
       2279.00        76.6900         1.3095         2.1390       0.460100
       2279.50        76.4482         1.2900         2.1382       0.460700
       2280.00        75.7226         1.2900         2.1372       0.462700
       2280.50        74.2715         1.2900         2.1360       0.466900
       2281.00        72.4237         1.2900         2.1347       0.473000
       2281.50        70.5081         1.2900         2.1335       0.479700
       2282.00        68.8537         1.2895         2.1323       0.485100
       2282.50        67.5282         1.2729         2.1314       0.488300
       2283.00        66.8315         1.2562         2.1308       0.489500
       2283.50        67.0637         1.2400         2.1304       0.489800
       2284.00        68.0700         1.2400         2.1302       0.489800
       2284.50        68.9989         1.2400         2.1301       0.489900
       2285.00        70.6400         1.2400         2.1300       0.490500
       2285.50        71.6000         1.2392         2.1300       0.492300
       2286.00        73.0400         1.2092         2.1300       0.496100
       2286.50        74.0000         1.1800         2.1300       0.501700
       2287.00        75.6000         1.1800         2.1300       0.507700
       2287.50        77.8400         1.1800         2.1300       0.512400
       2288.00        80.0800         1.1800         2.1300       0.514600
       2288.50        80.9478         1.1800         2.1300       0.514400
       2289.00        80.4433         1.1800         2.1300       0.512600
       2289.50        79.6867         1.1800         2.1300       0.510100
       2290.00        78.4467         1.1800         2.1300       0.507700
       2290.50        76.7233         1.1800         2.1300       0.505800
       2291.00        74.5167         1.1800         2.1300       0.504600
       2291.50        73.0456         1.1800         2.1300       0.503600
       2292.00        73.0400         1.1805         2.1300       0.502600
       2292.50        74.5000         1.2005         2.1300       0.501000
       2293.00        75.9600         1.2205         2.1300       0.498000
       2293.50        76.6900         1.2400         2.1300       0.492700
       2294.00        77.0633         1.2415         2.1300       0.484300
       2294.50        77.8100         1.2965         2.1300       0.473400
       2295.00        78.5567         1.3500         2.1300       0.462000
       2295.50        78.9300         1.3500         2.1300       0.452700
       2296.00        78.9300         1.3510         2.1300       0.447600
       2296.50        78.9300         1.3860         2.1299       0.447600
       2297.00        76.4300         1.4200         2.1297       0.451300
       2297.50        71.4300         1.4200         2.1293       0.456500
       2298.00        66.4300         1.4200         2.1288       0.460600
       2298.50        63.7067         1.4200         2.1279       0.462200
       2299.00        63.2600         1.4200         2.1267       0.461500
       2299.50        62.5900         1.4200         2.1254       0.459500
       2300.00        62.1433         1.4200         2.1240       0.457000
       2300.50        61.9200         1.4193         2.1228       0.454900
       2301.00        61.9200         1.3960         2.1216       0.453500
       2301.50        61.7000         1.3724         2.1208       0.452700
       2302.00        61.2600         1.3394         2.1200       0.452700
       2302.50        60.6000         1.3194         2.1193       0.453100
       2303.00        60.1600         1.2997         2.1184       0.453800
       2303.50        59.9400         1.2893         2.1173       0.454400
       2304.00        59.9400         1.2643         2.1161       0.454800
       2304.50        60.3833         1.2400         2.1147       0.454900
       2305.00        61.2700         1.2394         2.1134       0.454900
       2305.50        62.6000         1.2194         2.1123       0.454900
       2306.00        63.2633         1.1992         2.1114       0.454900
       2306.50        63.2600         1.1712         2.1107       0.454900
       2307.00        62.5900         1.1545         2.1103       0.454700
       2307.50        62.3667         1.1381         2.1100       0.454100
       2308.00        62.5900         1.1315         2.1097       0.453400
       2308.50        63.2600         1.1866         2.1093       0.452800
       2309.00        63.9344         1.2400         2.1085       0.452400
       2309.50        64.6133         1.2400         2.1075       0.452300
       2310.00        65.2967         1.2400         2.1062       0.452400
       2310.50        65.5244         1.2397         2.1047       0.453300
       2311.00        65.2967         1.2294         2.1033       0.456000
       2311.50        64.6133         1.2094         2.1022       0.461700
       2312.00        63.7145         1.1897         2.1015       0.470000
       2312.50        62.6000         1.1800         2.1012       0.479100
       2313.00        61.2700         1.1800         2.1015       0.486400
       2313.50        60.6033         1.1800         2.1022       0.490700
       2314.00        60.6000         1.1806         2.1033       0.492300
       2314.50        61.2600         1.2006         2.1046       0.492700
       2315.00        61.7000         1.2208         2.1060       0.492700
       2315.50        63.2933         1.2488         2.1072       0.492700
       2316.00        66.0400         1.2655         2.1083       0.492600
