~Version Information Block
VERS .                  2.0:  CWLS LOG ASCII STANDARD - VERSION 2.0
WRAP .                   NO:  One line per depth step
~Well Information Block
#MNEM.UNIT        Data Type   Information
#---------- ----------------  -----------
STRT .FT             350.00:  START DEPTH
STOP .FT           10167.50:  STOP DEPTH
STEP .FT               0.50:  STEP
NULL .              -999.25:  NULL VALUE
COMP .                     :  COMPANY
WELL .                SA-41:  WELL
FLD  .                     :  FIELD
LOC  .                     :  LOCATION
CTRY .                     :  COUNTRY
STAT .                     :  STATE
CNTY .                     :  COUNTY
SRVC .                     :  SERVICE COMPANY
DATE .                     :  DATE
API  .                     :  API NUMBER
UWI  .                     :  UNIQUE WELL ID
~Curve Information Block
#MNEM.UNIT         API CODE   Curve Description
#---------- ----------------  -----------------
DEPTH.FT                   :  DEPTH
GR   .GAPI                 :  Gamma Ray
RT   .OHMM                 :  Deep resistivity
RHOB .G/C3                 :  Bulk density
NPHI .V/V                  :  Neutron porosity
~Parameter Information Block
#MNEM.UNIT            Value   Description
#---------- ----------------  -----------
PROJECT.            SERANG_FE:  
~Other Information Block
# 
~A       DEPTH             GR             RT           RHOB           NPHI 
# ...
       3613.50        78.1348         1.4943         2.2540         0.4857
       3614.00        78.8619         1.4996         2.2533         0.4906
       3614.50        80.4993         1.5028         2.2484         0.5011
       3615.00        82.0801         1.5089         2.2406         0.4954
       3615.50        81.2964         1.5117         2.2334         0.5013
       3616.00        81.7666         1.5140         2.2283         0.5040
       3616.50        83.2840         1.5185         2.2270         0.5004
       3617.00        85.6818         1.5206         2.2288         0.4847
       3617.50        86.8324         1.5218         2.2315         0.4778
       3618.00        86.7924         1.5201         2.2317         0.4940
       3618.50        86.9024         1.5102         2.2319         0.5029
       3619.00        86.9091         1.5022         2.2327         0.5064
       3619.50        86.0420         1.4985         2.2368         0.4993
       3620.00        84.8514         1.4956         2.2424         0.5055
       3620.50        83.7642         1.4960         2.2467         0.5063
       3621.00        83.2106         1.4946         2.2480         0.5026
       3621.50        82.7471         1.4880         2.2479         0.5064
       3622.00        81.8299         1.4810         2.2443         0.5115
       3622.50        81.3564         1.4766         2.2409         0.5153
       3623.00        80.6994         1.4737         2.2347         0.5028
       3623.50        80.4960         1.4722         2.2285         0.4930
       3624.00        80.7794         1.4698         2.2237         0.4824
       3624.50        81.5498         1.4676         2.2227         0.4791
       3625.00        81.8333         1.4689         2.2255         0.4762
       3625.50        81.5031         1.4688         2.2302         0.4808
       3626.00        80.7928         1.4688         2.2345         0.4875
       3626.50        80.2659         1.4731         2.2370         0.4883
       3627.00        80.0891         1.4708         2.2393         0.4897
       3627.50        79.5022         1.4886         2.2401         0.4911
       3628.00        79.3354         1.5237         2.2440         0.4941
       3628.50        79.5889         1.5468         2.2490         0.4980
       3629.00        80.0658         1.5589         2.2544         0.5048
       3629.50        80.7828         1.5706         2.2573         0.5080
       3630.00        80.9529         1.5783         2.2581         0.5128
       3630.50        80.3893         1.5838         2.2591         0.5075
       3631.00        78.5284         1.5882         2.2609         0.5026
       3631.50        75.9138         1.5842         2.2650         0.4930
       3632.00        75.0834         1.5879         2.2701         0.4872
       3632.50        75.4435         1.5797         2.2788         0.4828
       3633.00        76.5574         1.5602         2.2870         0.4778
       3633.50        77.8347         1.5568         2.2964         0.4724
       3634.00        80.3859         1.5600         2.3017         0.4628
       3634.50        82.5970         1.5579         2.3036         0.4580
       3635.00        83.5008         1.5565         2.3002         0.4458
       3635.50        82.3502         1.5559         2.2952         0.4444
       3636.00        81.7432         1.5584         2.2894         0.4383
       3636.50        81.1129         1.5673         2.2848         0.4492
       3637.00        80.3159         1.5724         2.2819         0.4580
       3637.50        79.7456         1.5676         2.2765         0.4699
       3638.00        79.0619         1.5555         2.2707         0.4776
       3638.50        79.6022         1.5413         2.2624         0.4773
       3639.00        79.1653         1.5332         2.2605         0.4814
       3639.50        78.7485         1.5306         2.2604         0.4787
       3640.00        77.8047         1.5343         2.2632         0.4809
       3640.50        77.9447         1.5409         2.2644         0.4775
       3641.00        77.9447         1.5438         2.2663         0.4836
       3641.50        79.1720         1.5477         2.2662         0.4802
       3642.00        79.1053         1.5541         2.2626         0.4712
       3642.50        79.5755         1.5523         2.2577         0.4569
       3643.00        79.1920         1.5149         2.2536         0.4486
       3643.50        80.2892         1.4635         2.2518         0.4531
       3644.00        81.0696         1.4948         2.2473         0.4581
       3644.50        81.3464         1.5260         2.2439         0.4711
       3645.00        80.8995         1.5638         2.2415         0.4750
       3645.50        80.3526         1.5814         2.2416         0.4735
       3646.00        79.4888         1.5929         2.2423         0.4719
       3646.50        77.4978         1.6223         2.2413         0.4807
       3647.00        74.5164         1.6516         2.2375         0.4961
       3647.50        71.9818         1.6997         2.2351         0.5097
       3648.00        68.9804         1.7861         2.2354         0.5145
       3648.50        67.4330         1.8952         2.2379         0.5150
       3649.00        64.6983         1.9375         2.2441         0.5127
       3649.50        63.5577         1.9799         2.2532         0.5050
       3650.00        62.3338         2.0377         2.2678         0.4991
       3650.50        62.0804         2.1275         2.2787         0.4925
       3651.00        62.4906         2.2060         2.2865         0.4799
       3651.50        63.0508         2.2315         2.2922         0.4615
       3652.00        62.6106         2.2570         2.3018         0.4429
       3652.50        61.5067         2.2548         2.3102         0.4327
       3653.00        59.0689         2.2502         2.3154         0.4265
       3653.50        56.3809         2.2346         2.3124         0.4199
       3654.00        52.3023         2.1982         2.3048         0.4123
       3654.50        47.9368         2.1622         2.2948         0.4084
       3655.00        44.0183         2.0982         2.2809         0.4092
       3655.50        40.8701         2.0253         2.2670         0.4082
       3656.00        39.5828         1.9737         2.2533         0.4093
       3656.50        40.3365         1.9575         2.2429         0.4069
       3657.00        43.1045         1.9411         2.2357         0.4135
       3657.50        45.5824         1.9423         2.2345         0.4102
       3658.00        47.7567         1.9392         2.2314         0.4137
       3658.50        49.2341         1.9353         2.2338         0.4199
       3659.00        51.2318         1.9371         2.2327         0.4364
       3659.50        52.7625         1.9449         2.2303         0.4539
       3660.00        53.3995         1.9561         2.2246         0.4658
       3660.50        53.4528         1.9550         2.2221         0.4800
       3661.00        55.2871         1.9370         2.2246         0.4799
       3661.50        57.7216         1.8964         2.2274         0.4832
       3662.00        60.8164         1.8486         2.2271         0.4829
       3662.50        62.1171         1.7985         2.2200         0.4994
       3663.00        64.8984         1.7498         2.2162         0.5175
       3663.50        68.1467         1.6939         2.2112         0.5398
       3664.00        73.1591         1.6353         2.2093         0.5583
       3664.50        81.9834         1.5695         2.2057         0.5589
       3665.00        93.2122         1.5067         2.2037         0.5541
       3665.50       102.4400         1.4518         2.2002         0.5483
       3666.00       108.0527         1.4328         2.1957         0.5602
       3666.50       112.1047         1.4427         2.1929         0.5737
