~Version Information Block
VERS .                  2.0:  CWLS LOG ASCII STANDARD - VERSION 2.0
WRAP .                   NO:  One line per depth step
~Well Information Block
#MNEM.UNIT        Data Type   Information
#---------- ----------------  -----------
STRT .FT             350.00:  START DEPTH
STOP .FT           10167.50:  STOP DEPTH
STEP .FT               0.50:  STEP
NULL .              -999.25:  NULL VALUE
COMP .                     :  COMPANY
WELL .                SA-41:  WELL
FLD  .                     :  FIELD
LOC  .                     :  LOCATION
CTRY .                     :  COUNTRY
STAT .                     :  STATE
CNTY .                     :  COUNTY
SRVC .                     :  SERVICE COMPANY
DATE .                     :  DATE
API  .                     :  API NUMBER
UWI  .                     :  UNIQUE WELL ID
~Curve Information Block
#MNEM.UNIT         API CODE   Curve Description
#---------- ----------------  -----------------
DEPTH.FT                   :  DEPTH
GR   .GAPI                 :  Gamma Ray
RT   .OHMM                 :  Deep resistivity
RHOB .G/C3                 :  Bulk density
NPHI .V/V                  :  Neutron porosity
~Parameter Information Block
#MNEM.UNIT            Value   Description
#---------- ----------------  -----------
PROJECT.            SERANG_FE:  
~Other Information Block
# 
~A       DEPTH             GR             RT           RHOB           NPHI 
# ...
       5539.50       149.9756         1.2946         2.2585         0.4460
       5540.00       136.2556         1.2931         2.2670         0.4301
       5540.50       126.7594         1.3136         2.2754         0.4223
       5541.00       120.1587         1.3352         2.2845         0.4188
       5541.50       116.0967         1.3826         2.2989         0.4098
       5542.00       109.1195         1.4021         2.3152         0.3952
       5542.50       103.0378         1.4029         2.3284         0.3817
       5543.00        95.5609         1.4027         2.3336         0.3715
       5543.50        89.7452         1.4075         2.3383         0.3629
       5544.00        84.2344         1.4170         2.3449         0.3575
       5544.50        81.0475         1.4185         2.3544         0.3617
       5545.00        77.6659         1.4217         2.3618         0.3715
       5545.50        75.5050         1.4253         2.3680         0.3837
       5546.00        73.0491         1.4268         2.3718         0.3930
       5546.50        71.3083         1.4302         2.3709         0.4001
       5547.00        69.3975         1.4351         2.3647         0.4074
       5547.50        68.8504         1.4410         2.3594         0.4087
       5548.00        72.5621         1.4505         2.3580         0.4092
       5548.50        76.2498         1.4586         2.3578         0.4089
       5549.00        79.3048         1.4601         2.3540         0.4106
       5549.50        78.8346         1.4560         2.3463         0.4073
       5550.00        79.1721         1.4508         2.3370         0.4004
       5550.50        80.2326         1.4562         2.3269         0.3888
       5551.00        81.2931         1.4626         2.3185         0.3777
       5551.50        81.4062         1.4696         2.3157         0.3706
       5552.00        81.0724         1.4697         2.3170         0.3626
       5552.50        80.0392         1.4688         2.3193         0.3585
       5553.00        79.4826         1.4608         2.3193         0.3549
       5553.50        78.9259         1.4528         2.3176         0.3555
       5554.00        78.1216         1.4461         2.3144         0.3565
       5554.50        77.1745         1.4365         2.3108         0.3562
       5555.00        76.3141         1.4269         2.3081         0.3588
       5555.50        75.4336         1.4065         2.3068         0.3635
       5556.00        74.5531         1.3860         2.3056         0.3713
       5556.50        73.6103         1.3671         2.3023         0.3743
       5557.00        73.6347         1.3578         2.2981         0.3783
       5557.50        74.4051         1.3485         2.2938         0.3828
       5558.00        75.9882         1.3507         2.2896         0.3877
       5558.50        77.5713         1.3529         2.2859         0.3926
       5559.00        79.6457         1.3529         2.2845         0.3915
       5559.50        80.8829         1.3598         2.2871         0.3894
       5560.00        81.5268         1.3666         2.2905         0.3861
       5560.50        81.6673         1.3737         2.2934         0.3890
       5561.00        81.8078         1.3809         2.2952         0.3968
       5561.50        82.9415         1.3840         2.2958         0.4067
       5562.00        83.3412         1.3843         2.2952         0.4126
       5562.50        84.1545         1.3831         2.2951         0.4175
       5563.00        84.5681         1.3739         2.2963         0.4198
       5563.50        84.4547         1.3647         2.2991         0.4207
       5564.00        83.9214         1.3646         2.2991         0.4253
       5564.50        83.3881         1.3644         2.2944         0.4331
       5565.00        84.2360         1.3627         2.2924         0.4387
       5565.50        85.0903         1.3608         2.2945         0.4367
       5566.00        86.6641         1.3561         2.3001         0.4274
       5566.50        87.3836         1.3564         2.3056         0.4200
       5567.00        88.7167         1.3567         2.3117         0.4200
       5567.50        88.7768         1.3564         2.3170         0.4286
       5568.00        88.8368         1.3568         2.3191         0.4428
       5568.50        88.3468         1.3597         2.3173         0.4563
       5569.00        88.4104         1.3588         2.3160         0.4660
       5569.50        89.0138         1.3588         2.3162         0.4702
       5570.00        89.5536         1.3585         2.3156         0.4718
       5570.50        89.6267         1.3583         2.3127         0.4671
       5571.00        87.4592         1.3590         2.3091         0.4591
       5571.50        85.2917         1.3567         2.3040         0.4529
       5572.00        82.1002         1.3524         2.2981         0.4488
       5572.50        80.6095         1.3503         2.2901         0.4449
       5573.00        78.9920         1.3466         2.2843         0.4322
       5573.50        78.8652         1.3438         2.2807         0.4168
       5574.00        78.4372         1.3410         2.2786         0.4000
       5574.50        77.2934         1.3425         2.2760         0.3905
       5575.00        76.1496         1.3436         2.2776         0.3868
       5575.50        74.5765         1.3448         2.2802         0.3956
       5576.00        73.8628         1.3467         2.2812         0.4099
       5576.50        73.1492         1.3456         2.2840         0.4238
       5577.00        73.6962         1.3465         2.2878         0.4330
       5577.50        74.6773         1.3531         2.2959         0.4378
       5578.00        75.6583         1.3614         2.3035         0.4516
       5578.50        76.4252         1.3636         2.3108         0.4680
       5579.00        76.7415         1.3591         2.3155         0.4845
       5579.50        77.0944         1.3493         2.3190         0.4942
       5580.00        78.1716         1.3432         2.3159         0.5016
       5580.50        79.2488         1.3371         2.3105         0.5040
       5581.00        80.9794         1.3321         2.3074         0.5064
       5581.50        81.6696         1.3301         2.3059         0.5091
       5582.00        81.9298         1.3274         2.3064         0.5146
       5582.50        81.6065         1.3199         2.3050         0.5187
       5583.00        81.2832         1.3125         2.3035         0.5189
       5583.50        81.7467         1.3086         2.3028         0.5180
       5584.00        82.1035         1.3115         2.3031         0.5087
       5584.50        82.7171         1.3141         2.3041         0.4940
       5585.00        82.9739         1.3152         2.3031         0.4776
       5585.50        82.8873         1.3170         2.3038         0.4688
       5586.00        82.5439         1.3190         2.3038         0.4694
       5586.50        82.7256         1.3221         2.3061         0.4683
       5587.00        83.2506         1.3259         2.3058         0.4624
       5587.50        84.7579         1.3310         2.3055         0.4533
       5588.00        85.7401         1.3361         2.3037         0.4445
       5588.50        86.5723         1.3385         2.2999         0.4350
       5589.00        85.7986         1.3410         2.2975         0.4333
       5589.50        85.0249         1.3454         2.2975         0.4376
       5590.00        85.1252         1.3497         2.3029         0.4441
       5590.50        85.8492         1.3517         2.3088         0.4460
       5591.00        87.1322         1.3565         2.3145         0.4407
       5591.50        87.6913         1.3600         2.3178         0.4361
       5592.00        87.5309         1.3646         2.3212         0.4332
       5592.50        86.8115         1.3669         2.3230         0.4333
