~Version Information Block
VERS .                  2.0:  CWLS LOG ASCII STANDARD - VERSION 2.0
WRAP .                   NO:  One line per depth step
~Well Information Block
#MNEM.UNIT        Data Type   Information
#---------- ----------------  -----------
STRT .FT             350.00:  START DEPTH
STOP .FT           10167.50:  STOP DEPTH
STEP .FT               0.50:  STEP
NULL .              -999.25:  NULL VALUE
COMP .                     :  COMPANY
WELL .                SA-41:  WELL
FLD  .                     :  FIELD
LOC  .                     :  LOCATION
CTRY .                     :  COUNTRY
STAT .                     :  STATE
CNTY .                     :  COUNTY
SRVC .                     :  SERVICE COMPANY
DATE .                     :  DATE
API  .                     :  API NUMBER
UWI  .                     :  UNIQUE WELL ID
~Curve Information Block
#MNEM.UNIT         API CODE   Curve Description
#---------- ----------------  -----------------
DEPTH.FT                   :  DEPTH
GR   .GAPI                 :  Gamma Ray
RT   .OHMM                 :  Deep resistivity
RHOB .G/C3                 :  Bulk density
NPHI .V/V                  :  Neutron porosity
~Parameter Information Block
#MNEM.UNIT            Value   Description
#---------- ----------------  -----------
PROJECT.            SERANG_FE:  
~Other Information Block
# 
~A       DEPTH             GR             RT           RHOB           NPHI 
# ...
       8161.00        82.6300         2.0530         2.4280         0.3900
       8161.50        83.9200         2.0460         2.4350         0.3910
       8162.00        85.2200         2.0410         2.4380         0.3940
       8162.50        85.2200         2.0370         2.4370         0.3960
       8163.00        86.0300         2.0370         2.4350         0.3990
       8163.50        87.0000         2.0390         2.4340         0.4010
       8164.00        87.9700         2.0370         2.4340         0.4030
       8164.50        89.5800         2.0320         2.4330         0.4050
       8165.00        89.4200         2.0310         2.4350         0.4090
       8165.50        90.3900         2.0320         2.4360         0.4130
       8166.00        89.9100         2.0270         2.4340         0.4170
       8166.50        89.7400         2.0260         2.4270         0.4190
       8167.00        88.9300         2.0250         2.4240         0.4170
       8167.50        87.4800         2.0310         2.4240         0.4140
       8168.00        86.6700         2.0330         2.4250         0.4100
       8168.50        84.5700         2.0390         2.4260         0.4060
       8169.00        83.2700         2.0460         2.4270         0.4030
       8169.50        82.1400         2.0510         2.4290         0.4020
       8170.00        81.9800         2.0510         2.4300         0.4000
       8170.50        82.3100         2.0580         2.4290         0.3970
       8171.00        83.1200         2.0700         2.4300         0.3930
       8171.50        84.2500         2.0710         2.4350         0.3880
       8172.00        86.3500         2.0710         2.4420         0.3850
       8172.50        87.9700         2.0660         2.4470         0.3850
       8173.00        88.9400         2.0640         2.4480         0.3870
       8173.50        88.7700         2.0590         2.4480         0.3920
       8174.00        88.1300         2.0640         2.4480         0.3970
       8174.50        87.6400         2.0710         2.4510         0.3990
       8175.00        86.8400         2.0760         2.4510         0.3990
       8175.50        87.0000         2.0690         2.4520         0.3970
       8176.00        86.6700         2.0590         2.4520         0.3960
       8176.50        86.1900         2.0510         2.4500         0.3970
       8177.00        87.1600         2.0450         2.4470         0.4000
       8177.50        90.0700         2.0470         2.4430         0.4040
       8178.00        90.8800         2.0440         2.4430         0.4070
       8178.50        89.9100         2.0380         2.4410         0.4090
       8179.00        89.2600         2.0190         2.4390         0.4080
       8179.50        88.2900         2.0070         2.4340         0.4080
       8180.00        89.7400         2.0030         2.4320         0.4090
       8180.50        87.1600         2.0030         2.4300         0.4150
       8181.00        88.2900         2.0000         2.4290         0.4220
       8181.50        87.4800         2.0020         2.4290         0.4330
       8182.00        90.0700         2.0000         2.4270         0.4440
       8182.50        90.8800         1.9940         2.4250         0.4510
       8183.00        91.2000         1.9910         2.4230         0.4540
       8183.50        90.7100         1.9840         2.4220         0.4550
       8184.00        90.7100         1.9880         2.4250         0.4590
       8184.50        90.2300         1.9840         2.4310         0.4670
       8185.00        89.7400         1.9760         2.4430         0.4750
       8185.50        91.6800         1.9760         2.4590         0.4790
       8186.00        92.6500         1.9800         2.4680         0.4810
       8186.50        93.6300         1.9900         2.4740         0.4770
       8187.00        93.1400         1.9990         2.4790         0.4720
       8187.50        94.6000         2.0080         2.4860         0.4680
       8188.00        93.1400         2.0080         2.4890         0.4670
       8188.50        90.7100         2.0080         2.4930         0.4650
       8189.00        88.7700         1.9980         2.4950         0.4610
       8189.50        89.7400         1.9980         2.4950         0.4570
       8190.00        91.2000         2.0120         2.4880         0.4560
       8190.50        92.0100         2.0310         2.4790         0.4580
       8191.00        90.0700         2.0360         2.4770         0.4580
       8191.50        90.0700         2.0200         2.4750         0.4600
       8192.00        89.2600         2.0340         2.4750         0.4620
       8192.50        91.6800         2.0510         2.4740         0.4660
       8193.00        90.2300         2.0710         2.4790         0.4690
       8193.50        91.6800         2.0750         2.4820         0.4740
       8194.00        91.2000         2.0720         2.4830         0.4780
       8194.50        92.9800         2.0700         2.4850         0.4800
       8195.00        91.6900         2.0470         2.4880         0.4770
       8195.50        92.1700         2.0050         2.4870         0.4710
       8196.00        93.7900         1.9800         2.4810         0.4650
       8196.50        97.0200         1.9840         2.4770         0.4580
       8197.00        99.4400         2.0840         2.4730         0.4470
       8197.50        99.4400         2.3720         2.4710         0.4300
       8198.00        95.0800         2.7520         2.4680         0.4100
       8198.50        88.7700         3.1940         2.4700         0.3860
       8199.00        80.0400         3.7130         2.4760         0.3620
       8199.50        69.3700         4.3270         2.4830         0.3360
       8200.00        57.4000         5.0940         2.4900         0.3120
       8200.50        47.7000         5.9010         2.4940         0.2890
       8201.00        43.3400         6.6990         2.4970         0.2680
       8201.50        42.6900         7.5160         2.5000         0.2460
       8202.00        42.2000         8.2850         2.5000         0.2270
       8202.50        41.7200         8.9120         2.5000         0.2120
       8203.00        40.7500         9.4750         2.4970         0.2000
       8203.50        39.7800         9.7950         2.4960         0.1920
       8204.00        36.8700        10.0480         2.4930         0.1860
       8204.50        34.9300        10.2120         2.4900         0.1800
       8205.00        36.0600        10.2460         2.4900         0.1740
       8205.50        39.2900        10.2050         2.4940         0.1690
       8206.00        42.6900        10.1290         2.5040         0.1640
       8206.50        45.1100         9.9730         2.5130         0.1610
       8207.00        48.1900         9.7390         2.5270         0.1590
       8207.50        51.1000         9.4520         2.5400         0.1580
       8208.00        52.3900         9.0750         2.5530         0.1580
       8208.50        52.8800         8.8430         2.5590         0.1580
       8209.00        51.4200         8.6120         2.5590         0.1590
       8209.50        49.8100         8.3250         2.5520         0.1620
       8210.00        48.8400         8.0300         2.5390         0.1650
       8210.50        48.3500         7.7990         2.5240         0.1660
       8211.00        47.8600         7.6260         2.5080         0.1670
       8211.50        46.8900         7.5180         2.4930         0.1680
       8212.00        46.4100         7.4480         2.4770         0.1700
       8212.50        46.0800         7.3980         2.4620         0.1720
       8213.00        45.6000         7.4080         2.4510         0.1740
       8213.50        45.1100         7.4520         2.4410         0.1760
       8214.00        45.1100         7.5360         2.4310         0.1770
