~Version Information Block
VERS .                  2.0:  CWLS LOG ASCII STANDARD - VERSION 2.0
WRAP .                   NO:  One line per depth step
~Well Information Block
#MNEM.UNIT        Data Type   Information
#---------- ----------------  -----------
STRT .FT             350.00:  START DEPTH
STOP .FT           10167.50:  STOP DEPTH
STEP .FT               0.50:  STEP
NULL .              -999.25:  NULL VALUE
COMP .                     :  COMPANY
WELL .                SA-41:  WELL
FLD  .                     :  FIELD
LOC  .                     :  LOCATION
CTRY .                     :  COUNTRY
STAT .                     :  STATE
CNTY .                     :  COUNTY
SRVC .                     :  SERVICE COMPANY
DATE .                     :  DATE
API  .                     :  API NUMBER
UWI  .                     :  UNIQUE WELL ID
~Curve Information Block
#MNEM.UNIT         API CODE   Curve Description
#---------- ----------------  -----------------
DEPTH.FT                   :  DEPTH
GR   .GAPI                 :  Gamma Ray
RT   .OHMM                 :  Deep resistivity
RHOB .G/C3                 :  Bulk density
NPHI .V/V                  :  Neutron porosity
~Parameter Information Block
#MNEM.UNIT            Value   Description
#---------- ----------------  -----------
PROJECT.            SERANG_FE:  
~Other Information Block
# 
~A       DEPTH             GR             RT           RHOB           NPHI 
# ...
       1634.00        67.1219         1.2737         2.0064         0.5776
       1634.50        67.4495         1.2743         2.0131         0.5798
       1635.00        70.0175         1.2732         2.0214         0.5833
       1635.50        72.4647         1.2730         2.0306         0.5807
       1636.00        73.0750         1.2746         2.0392         0.5834
       1636.50        72.5680         1.2745         2.0426         0.5697
       1637.00        72.2552         1.2738         2.0461         0.5674
       1637.50        72.0585         1.2741         2.0475         0.5554
       1638.00        71.7947         1.2766         2.0490         0.5537
       1638.50        70.9577         1.2782         2.0469         0.5520
       1639.00        71.1044         1.2790         2.0463         0.5530
       1639.50        70.6411         1.2771         2.0442         0.5492
       1640.00        69.9208         1.2738         2.0415         0.5371
       1640.50        69.1667         1.2694         2.0353         0.5360
       1641.00        68.4564         1.2640         2.0295         0.5335
       1641.50        68.2295         1.2586         2.0298         0.5382
       1642.00        67.7663         1.2539         2.0301         0.5382
       1642.50        68.1699         1.2497         2.0328         0.5353
       1643.00        68.9102         1.2464         2.0349         0.5344
       1643.50        69.2834         1.2445         2.0375         0.5248
       1644.00        68.8832         1.2429         2.0374         0.5236
       1644.50        68.2929         1.2417         2.0349         0.5275
       1645.00        67.9097         1.2416         2.0333         0.5394
       1645.50        67.2028         1.2412         2.0441         0.5416
       1646.00        66.8160         1.2407         2.0500         0.5350
       1646.50        66.8394         1.2404         2.0457         0.5259
       1647.00        68.2033         1.2394         2.0457         0.5240
       1647.50        69.3071         1.2394         2.0464         0.5359
       1648.00        70.5443         1.2392         2.0460         0.5353
       1648.50        70.7272         1.2388         2.0447         0.5411
       1649.00        70.0568         1.2395         2.0449         0.5394
       1649.50        69.2165         1.2394         2.0489         0.5452
       1650.00        68.7034         1.2399         2.0536         0.5486
       1650.50        68.4364         1.2412         2.0460         0.5522
       1651.00        67.9559         1.2431         2.0377         0.5655
       1651.50        66.3787         1.2457         2.0255         0.5691
       1652.00        65.6386         1.2459         2.0056         0.5680
       1652.50        65.5321         1.2451         1.9789         0.5589
       1653.00        66.4223         1.2452         1.9621         0.5605
       1653.50        66.5623         1.2465         1.9535         0.5598
       1654.00        65.5486         1.2446         1.9525         0.5630
       1654.50        65.0484         1.2474         1.9400         0.5599
       1655.00        65.2253         1.2476         1.9261         0.5591
       1655.50        65.9221         1.2465         1.9168         0.5516
       1656.00        65.6820         1.2455         1.9161         0.5418
       1656.50        64.7148         1.2439         1.9285         0.5381
       1657.00        63.4712         1.2434         1.9449         0.5415
       1657.50        63.5312         1.2444         1.9691         0.5466
       1658.00        64.7419         1.2448         1.9860         0.5499
       1658.50        66.0688         1.2441         1.9974         0.5503
       1659.00        70.3106         1.2465         1.9981         0.5500
       1659.50        73.3687         1.2466         2.0081         0.5529
       1660.00        76.4535         1.2486         2.0151         0.5504
       1660.50        74.1127         1.2530         2.0182         0.5518
       1661.00        71.8780         1.2586         2.0161         0.5501
       1661.50        69.5436         1.2645         2.0138         0.5480
       1662.00        69.1834         1.2707         2.0114         0.5379
       1662.50        69.3737         1.2740         2.0060         0.5269
       1663.00        70.4444         1.2774         1.9975         0.5200
       1663.50        71.9384         1.2803         1.9876         0.5132
       1664.00        73.1756         1.2813         1.9776         0.5135
       1664.50        73.9292         1.2811         1.9672         0.5112
       1665.00        75.1198         1.2809         1.9579         0.5213
       1665.50        76.3872         1.2792         1.9507         0.5206
       1666.00        77.4910         1.2763         1.9451         0.5208
       1666.50        77.6543         1.2706         1.9388         0.5238
       1667.00        76.8840         1.2658         1.9328         0.5358
       1667.50        76.1137         1.2637         1.9278         0.5547
       1668.00        75.2801         1.2600         1.9240         0.5662
       1668.50        74.7364         1.2563         1.9197         0.5775
       1669.00        73.0222         1.2539         1.9164         0.5777
       1669.50        71.2847         1.2510         1.9143         0.5733
       1670.00        69.9306         1.2481         1.9126         0.5629
       1670.50        69.3770         1.2456         1.9085         0.5684
       1671.00        68.8234         1.2431         1.9021         0.5779
       1671.50        68.3232         1.2435         1.8950         0.5827
       1672.00        67.9464         1.2424         1.8893         0.5840
       1672.50        67.5695         1.2400         1.8856         0.5843
       1673.00        67.8297         1.2383         1.8831         0.5873
       1673.50        68.6502         1.2364         1.8811         0.5875
       1674.00        69.4706         1.2353         1.8790         0.5909
       1674.50        70.2747         1.2345         1.8764         0.5959
       1675.00        71.3918         1.2337         1.8740         0.5988
       1675.50        72.5089         1.2334         1.8717         0.5963
       1676.00        73.9693         1.2325         1.8689         0.5913
       1676.50        73.8826         1.2332         1.8649         0.5896
       1677.00        73.7959         1.2354         1.8589         0.5922
       1677.50        73.0156         1.2351         1.8520         0.5861
       1678.00        73.1557         1.2374         1.8438         0.5774
       1678.50        73.5858         1.2401         1.8351         0.5670
       1679.00        73.6290         1.2426         1.8259         0.5576
       1679.50        73.4689         1.2460         1.8177         0.5476
       1680.00        73.0189         1.2492         1.8107         0.5447
       1680.50        72.4886         1.2540         1.8045         0.5491
       1681.00        72.9523         1.2589         1.7995         0.5573
       1681.50        73.4159         1.2616         1.7953         0.5623
       1682.00        74.4891         1.2652         1.7943         0.5647
       1682.50        73.9421         1.2709         1.7953         0.5760
       1683.00        73.4451         1.2758         1.7993         0.5854
       1683.50        72.6654         1.2795         1.8044         0.5883
       1684.00        72.8121         1.2833         1.8111         0.5916
       1684.50        73.1122         1.2869         1.8183         0.5971
       1685.00        73.1183         1.2901         1.8264         0.6057
       1685.50        72.3846         1.2912         1.8340         0.6050
       1686.00        72.1511         1.2908         1.8431         0.5998
       1686.50        72.4519         1.2895         1.8530         0.5914
       1687.00        72.9520         1.2863         1.8620         0.5803
