~Version Information Block
VERS .                  2.0:  CWLS LOG ASCII STANDARD - VERSION 2.0
WRAP .                   NO:  One line per depth step
~Well Information Block
#MNEM.UNIT        Data Type   Information
#---------- ----------------  -----------
STRT .FT            1300.00:  START DEPTH
STOP .FT            8397.00:  STOP DEPTH
STEP .FT               0.50:  STEP
NULL .              -999.25:  NULL VALUE
COMP .                     :  COMPANY
WELL .              SA-44HZ:  WELL
FLD  .                     :  FIELD
LOC  .                     :  LOCATION
CTRY .                     :  COUNTRY
STAT .                     :  STATE
CNTY .                     :  COUNTY
SRVC .                     :  SERVICE COMPANY
DATE .                     :  DATE
API  .                     :  API NUMBER
UWI  .                     :  UNIQUE WELL ID
~Curve Information Block
#MNEM.UNIT         API CODE   Curve Description
#---------- ----------------  -----------------
DEPTH.FT                   :  DEPTH
GR   .GAPI                 :  Gamma Ray
RT   .OHMM                 :  Deep resistivity
RHOB .G/C3                 :  Bulk density
NPHI .V/V                  :  Neutron porosity
~Parameter Information Block
#MNEM.UNIT            Value   Description
#---------- ----------------  -----------
PROJECT.            SERANG_FE:  
~Other Information Block
# 
~A       DEPTH             GR             RT           RHOB           NPHI 
# ...
       6008.00        15.5144         0.7132         2.1000       0.335900
       6008.50        15.5122         0.7182         2.0930       0.334500
       6009.00        15.7367         0.7200         2.0904       0.333800
       6009.50        16.1317         0.7200         2.0894       0.334200
       6010.00        16.5311         0.7200         2.0881       0.335200
       6010.50        16.9350         0.7135         2.0842       0.336300
       6011.00        16.9978         0.7034         2.0835       0.337000
       6011.50        16.7150         0.6901         2.0825       0.337400
       6012.00        16.0867         0.6784         2.0817       0.337600
       6012.50        15.6289         0.6684         2.0816       0.337600
       6013.00        15.0800         0.6683         2.0828       0.337900
       6013.50        14.4400         0.6767         2.0858       0.338600
       6014.00        13.8000         0.6867         2.0908       0.339900
       6014.50        13.4800         0.6900         2.0980       0.341900
       6015.00        13.4800         0.6698         2.1073       0.344200
       6015.50        13.8055         0.6667         2.1188       0.346700
       6016.00        14.4567         0.6790         2.1324       0.349800
       6016.50        15.4333         0.7195         2.1480       0.353800
       6017.00        18.0300         0.7457         2.1649       0.358800
       6017.50        22.2467         0.8931         2.1825       0.364000
       6018.00        28.7956         1.0762         2.2005       0.368300
       6018.50        34.8233         1.1300         2.2192       0.371200
       6019.00        40.3300         1.2103         2.2387       0.372500
       6019.50        48.1889         1.3272         2.2584       0.372700
       6020.00        58.9211         1.4441         2.2766       0.372400
       6020.50        72.5267         1.4800         2.2911       0.372100
       6021.00        82.1911         1.4800         2.3010       0.372200
       6021.50        88.6267         1.4800         2.3065       0.372600
       6022.00        91.8333         1.4800         2.3092       0.373600
       6022.50        93.9711         1.4800         2.3108       0.374700
       6023.00        95.0400         1.4800         2.3130       0.375800
       6023.50        95.0400         1.5047         2.3174       0.376500
       6024.00        95.0400         1.5398         2.3247       0.376800
       6024.50        95.0400         1.5500         2.3344       0.376600
       6025.00        95.0400         1.5500         2.3452       0.376000
       6025.50        95.0400         1.5500         2.3550       0.375100
       6026.00        95.0400         1.5500         2.3623       0.373800
       6026.50        95.0400         1.5500         2.3668       0.372100
       6027.00        95.1778         1.5500         2.3690       0.370200
       6027.50        95.5911         1.5416         2.3698       0.368300
       6028.00        96.2800         1.5215         2.3700       0.366700
       6028.50        97.2489         1.4981         2.3700       0.365400
       6029.00        98.2222         1.4832         2.3700       0.364200
       6029.50        99.2000         1.4800         2.3700       0.363200
       6030.00        98.1356         1.4800         2.3700       0.362200
       6030.50        94.9106         1.4580         2.3700       0.361300
       6031.00        89.5250         1.4279         2.3700       0.360500
       6031.50        85.2517         1.4274         2.3700       0.359300
       6032.00        82.8572         1.4448         2.3700       0.357900
       6032.50        82.3417         1.4488         2.3700       0.356300
       6033.00        82.5928         1.4236         2.3700       0.354900
       6033.50        83.9000         1.3827         2.3700       0.354000
       6034.00        86.5372         1.3281         2.3701       0.353500
       6034.50        90.2483         1.2859         2.3705       0.353300
       6035.00        93.4528         1.2491         2.3713       0.349200
       6035.50        96.4528         1.2400         2.3730       0.338100
       6036.00        99.2483         1.2325         2.3759       0.319800
       6036.50       102.3461         1.2149         2.3800       0.302000
       6037.00       104.3200         1.1948         2.3848       0.291300
       6037.50       105.1700         1.1824         2.3897       0.287700
       6038.00       105.1700         1.1800         2.3938       0.287600
       6038.50       103.8167         1.1800         2.3968       0.287300
       6039.00        99.7567         1.1800         2.3986       0.286400
       6039.50        92.9900         2.1955         2.3994       0.284600
       6040.00        86.2233         3.5182         2.3995       0.281800
       6040.50        81.0483         3.9451         2.3990       0.278700
       6041.00        77.4650         4.2322         2.3978       0.275900
       6041.50        75.2350         4.5561         2.3955       0.274000
       6042.00        74.1200         4.7534         2.3920       0.273200
       6042.50        76.3967         3.7311         2.3876       0.272900
       6043.00        80.9500         2.3622         2.3828       0.273300
       6043.50        86.7617         2.0300         2.3784       0.276000
       6044.00        92.8133         2.0300         2.3748       0.284500
       6044.50        99.1050         1.7793         2.3723       0.302600
       6045.00       105.3967         1.4420         2.3707       0.330500
       6045.50       110.9883         1.3500         2.3695       0.363000
       6046.00       115.8800         1.3500         2.3681       0.392200
       6046.50       119.5133         1.3500         2.3661       0.412700
       6047.00       121.6411         1.3500         2.3632       0.424300
       6047.50       122.2633         1.3500         2.3590       0.430000
       6048.00       123.1967         1.3500         2.3530       0.431200
       6048.50       123.1989         1.3500         2.3440       0.425000
       6049.00       122.2700         1.3656         2.3305       0.406000
       6049.50       120.4100         1.3888         2.3126       0.372200
       6050.00       119.4789         1.3978         2.2916       0.330400
       6050.50       119.4767         1.3703         2.2708       0.295400
       6051.00       120.4033         1.3273         2.2534       0.283500
       6051.50       121.3322         1.2980         2.2414       0.302100
       6052.00       122.2633         1.2900         2.2345       0.345300
       6052.50       123.3544         1.2900         2.2319       0.397600
       6053.00       124.4500         1.2900         2.2331       0.443400
       6053.50       125.5500         1.2479         2.2394       0.474000
       6054.00       126.3389         1.1784         2.2517       0.489200
       6054.50       128.7572         1.1090         2.2679       0.493800
       6055.00       132.8050         1.0800         2.2826       0.492800
       6055.50       136.8617         1.0800         2.2898       0.488600
       6056.00       138.9750         1.0800         2.2866       0.481900
       6056.50       138.8185         1.0939         2.2754       0.473300
       6057.00       137.2517         1.1187         2.2616       0.464500
       6057.50       134.2309         1.1210         2.2504       0.457600
       6058.00       130.4093         1.1045         2.2446       0.453600
       6058.50       127.8313         1.0850         2.2437       0.452000
       6059.00       121.3300         1.0744         2.2454       0.451600
       6059.50       115.8100         1.0660         2.2484       0.451400
       6060.00       115.8100         1.0564         2.2531       0.449700
       6060.50       115.8100         1.0798         2.2620       0.444000
       6061.00       110.4300         1.1416         2.2756       0.431300
