~Version Information Block
VERS .                  2.0:  CWLS LOG ASCII STANDARD - VERSION 2.0
WRAP .                   NO:  One line per depth step
~Well Information Block
#MNEM.UNIT        Data Type   Information
#---------- ----------------  -----------
STRT .FT            1300.00:  START DEPTH
STOP .FT            8397.00:  STOP DEPTH
STEP .FT               0.50:  STEP
NULL .              -999.25:  NULL VALUE
COMP .                     :  COMPANY
WELL .              SA-44HZ:  WELL
FLD  .                     :  FIELD
LOC  .                     :  LOCATION
CTRY .                     :  COUNTRY
STAT .                     :  STATE
CNTY .                     :  COUNTY
SRVC .                     :  SERVICE COMPANY
DATE .                     :  DATE
API  .                     :  API NUMBER
UWI  .                     :  UNIQUE WELL ID
~Curve Information Block
#MNEM.UNIT         API CODE   Curve Description
#---------- ----------------  -----------------
DEPTH.FT                   :  DEPTH
GR   .GAPI                 :  Gamma Ray
RT   .OHMM                 :  Deep resistivity
RHOB .G/C3                 :  Bulk density
NPHI .V/V                  :  Neutron porosity
~Parameter Information Block
#MNEM.UNIT            Value   Description
#---------- ----------------  -----------
PROJECT.            SERANG_FE:  
~Other Information Block
# 
~A       DEPTH             GR             RT           RHOB           NPHI 
# ...
       4617.00        86.3644         1.2888         2.0627       0.457600
       4617.50        85.1978         1.2389         2.0733       0.463300
       4618.00        83.5200         1.2279         2.0816       0.469700
       4618.50        81.9733         1.2080         2.0883       0.474400
       4619.00        81.2000         1.1890         2.0960       0.476400
       4619.50        81.5833         1.1828         2.1077       0.476600
       4620.00        82.3500         1.2126         2.1236       0.475500
       4620.50        83.1167         1.2400         2.1409       0.472600
       4621.00        83.5000         1.2400         2.1554       0.466800
       4621.50        83.5000         1.2400         2.1645       0.458700
       4622.00        83.5000         1.2400         2.1686       0.449900
       4622.50        83.5000         1.2393         2.1698       0.442800
       4623.00        83.5000         1.2287         2.1701       0.438300
       4623.50        83.5000         1.2088         2.1703       0.436400
       4624.00        83.5000         1.1895         2.1712       0.435800
       4624.50        83.5000         1.1815         2.1734       0.435700
       4625.00        83.5000         1.2114         2.1779       0.435700
       4625.50        83.7600         1.2400         2.1851       0.435700
       4626.00        84.2800         1.2406         2.1950       0.435700
       4626.50        85.0600         1.2572         2.2064       0.435300
       4627.00        86.1089         1.2736         2.2176       0.434300
       4627.50        87.4267         1.2812         2.2269       0.432900
       4628.00        89.0133         1.2646         2.2334       0.431700
       4628.50        90.0711         1.2482         2.2372       0.431000
       4629.00        89.8067         1.2400         2.2391       0.431000
       4629.50        88.2200         1.2400         2.2398       0.431900
       4630.00        86.7644         1.2400         2.2400       0.434600
       4630.50        86.3644         1.2400         2.2401       0.440000
       4631.00        87.0200         1.2400         2.2403       0.448500
       4631.50        87.6756         1.2102         2.2413       0.458700
       4632.00        87.2856         1.1803         2.2432       0.468200
       4632.50        85.8500         1.1094         2.2464       0.474800
       4633.00        84.2833         0.9678         2.2504       0.477900
       4633.50        83.7600         0.8251         2.2543       0.478100
       4634.00        84.2800         0.7650         2.2573       0.477100
       4634.50        85.0600         0.7762         2.2590       0.475800
       4635.00        85.5800         0.7895         2.2597       0.474900
       4635.50        85.8400         0.7900         2.2600       0.474500
       4636.00        85.8400         0.6993         2.2600       0.475700
       4636.50        86.6333         0.6047         2.2598       0.479700
       4637.00        88.2200         0.7293         2.2595       0.487000
       4637.50        89.8067         0.9941         2.2587       0.495200
       4638.00        90.6000         1.2663         2.2574       0.501300
       4638.50        90.6000         1.4109         2.2557       0.504100
       4639.00        90.6000         1.2620         2.2539       0.504700
       4639.50        90.6000         1.0927         2.2523       0.504600
       4640.00        90.6000         1.0800         2.2511       0.504300
       4640.50        90.6000         1.0128         2.2504       0.503400
       4641.00        90.3333         0.9397         2.2501       0.502000
       4641.50        89.8000         0.8924         2.2500       0.500100
       4642.00        89.0000         0.9396         2.2500       0.498400
       4642.50        88.4667         0.9960         2.2500       0.497200
       4643.00        88.2000         1.0271         2.2500       0.496500
       4643.50        88.2000         1.0969         2.2500       0.496300
       4644.00        87.9378         1.1716         2.2500       0.496300
       4644.50        87.4133         1.1800         2.2500       0.496200
       4645.00        86.6267         1.1653         2.2500       0.495600
       4645.50        86.1022         1.1487         2.2500       0.494000
       4646.00        86.2333         1.1321         2.2500       0.491600
       4646.50        87.0200         1.1300         2.2500       0.489500
       4647.00        87.8067         1.1300         2.2499       0.488300
       4647.50        89.0111         1.1300         2.2497       0.488000
       4648.00        90.6333         1.1300         2.2492       0.488400
       4648.50        92.9300         1.1300         2.2482       0.489300
       4649.00        94.1422         1.1300         2.2467       0.490800
       4649.50        94.2700         1.1300         2.2449       0.492800
       4650.00        93.5867         1.1160         2.2430       0.495100
       4650.50        92.7700         1.0994         2.2416       0.497200
       4651.00        91.8200         1.0759         2.2407       0.499300
       4651.50        91.0067         1.0579         2.2402       0.502200
       4652.00        90.3333         1.0413         2.2400       0.506200
       4652.50        89.8000         1.0315         2.2399       0.511000
       4653.00        89.4055         1.0503         2.2397       0.515600
       4653.50        90.0889         1.0752         2.2392       0.518900
       4654.00        91.8500         1.0800         2.2382       0.520500
       4654.50        93.8778         1.0934         2.2367       0.521100
       4655.00        94.6844         1.1099         2.2349       0.521200
       4655.50        94.2700         1.1265         2.2331       0.521200
       4656.00        93.4500         1.1300         2.2316       0.521200
       4656.50        93.0400         1.1300         2.2307       0.521300
       4657.00        93.0400         1.1300         2.2302       0.521500
       4657.50        93.8600         1.1300         2.2300       0.521800
       4658.00        94.6800         1.0914         2.2299       0.522200
       4658.50        95.7794         1.0800         2.2295       0.522600
       4659.00        96.6178         1.0800         2.2285       0.522900
       4659.50        98.0150         1.0800         2.2265       0.523000
       4660.00        99.4122         1.0611         2.2235       0.523100
       4660.50       100.6772         1.0362         2.2198       0.523100
       4661.00       101.8100         1.0300         2.2162       0.523100
       4661.50       102.6633         1.0300         2.2132       0.522800
       4662.00       102.8055         1.0300         2.2114       0.521800
       4662.50       102.2367         1.0202         2.2105       0.519200
       4663.00       100.9672         1.0069         2.2101       0.514600
       4663.50        99.1500         0.9937         2.2102       0.508800
       4664.00        96.7850         0.9900         2.2105       0.503300
       4664.50        93.6444         1.0044         2.2113       0.499300
       4665.00        90.2761         1.0243         2.2125       0.497200
       4665.50        86.6800         1.0477         2.2142       0.496500
       4666.00        83.8033         1.0903         2.2160       0.496400
       4666.50        81.2300         1.1401         2.2176       0.496400
       4667.00        78.9600         1.1980         2.2188       0.496300
       4667.50        76.7211         1.2421         2.2195       0.496000
       4668.00        74.5133         1.2786         2.2199       0.495500
       4668.50        72.3367         1.2900         2.2200       0.494900
       4669.00        70.1933         1.2900         2.2202       0.494200
       4669.50        68.0833         1.5132         2.2208       0.493300
       4670.00        66.0067         1.6200         2.2217       0.492000
