~Version Information Block
VERS .                  2.0:  CWLS LOG ASCII STANDARD - VERSION 2.0
WRAP .                   NO:  One line per depth step
~Well Information Block
#MNEM.UNIT        Data Type   Information
#---------- ----------------  -----------
STRT .FT             350.00:  START DEPTH
STOP .FT           10167.50:  STOP DEPTH
STEP .FT               0.50:  STEP
NULL .              -999.25:  NULL VALUE
COMP .                     :  COMPANY
WELL .                SA-41:  WELL
FLD  .                     :  FIELD
LOC  .                     :  LOCATION
CTRY .                     :  COUNTRY
STAT .                     :  STATE
CNTY .                     :  COUNTY
SRVC .                     :  SERVICE COMPANY
DATE .                     :  DATE
API  .                     :  API NUMBER
UWI  .                     :  UNIQUE WELL ID
~Curve Information Block
#MNEM.UNIT         API CODE   Curve Description
#---------- ----------------  -----------------
DEPTH.FT                   :  DEPTH
GR   .GAPI                 :  Gamma Ray
RT   .OHMM                 :  Deep resistivity
RHOB .G/C3                 :  Bulk density
NPHI .V/V                  :  Neutron porosity
~Parameter Information Block
#MNEM.UNIT            Value   Description
#---------- ----------------  -----------
PROJECT.            SERANG_FE:  
~Other Information Block
# 
~A       DEPTH             GR             RT           RHOB           NPHI 
# ...
        992.00        25.1000         1.5190      -999.2500      -999.2500
        992.50        25.5500         1.5170      -999.2500      -999.2500
        993.00        26.5900         1.5130      -999.2500      -999.2500
        993.50        27.6800         1.5120      -999.2500      -999.2500
        994.00        28.9600         1.5080      -999.2500      -999.2500
        994.50        29.7700         1.5050      -999.2500      -999.2500
        995.00        30.3600         1.4930      -999.2500      -999.2500
        995.50        30.8900         1.4900      -999.2500      -999.2500
        996.00        31.7900         1.4880      -999.2500      -999.2500
        996.50        32.2300         1.4850      -999.2500      -999.2500
        997.00        33.1800         1.4810      -999.2500      -999.2500
        997.50        32.1500         1.4900      -999.2500      -999.2500
        998.00        30.6000         1.4980      -999.2500      -999.2500
        998.50        28.2500         1.5040      -999.2500      -999.2500
        999.00        27.7600         1.5020      -999.2500      -999.2500
        999.50        28.5000         1.4920      -999.2500      -999.2500
       1000.00        30.8600         1.4810      -999.2500      -999.2500
       1000.50        33.4200         1.4630      -999.2500      -999.2500
       1001.00        36.3000         1.4390      -999.2500      -999.2500
       1001.50        38.6000         1.4170      -999.2500      -999.2500
       1002.00        40.1600         1.3990      -999.2500      -999.2500
       1002.50        41.6300         1.3850      -999.2500      -999.2500
       1003.00        42.7700         1.3720      -999.2500      -999.2500
       1003.50        45.6100         1.3620      -999.2500      -999.2500
       1004.00        48.3800         1.3600      -999.2500      -999.2500
       1004.50        50.9100         1.3640      -999.2500      -999.2500
       1005.00        51.2400         1.3800      -999.2500      -999.2500
       1005.50        50.7300         1.3970      -999.2500      -999.2500
       1006.00        50.6500         1.4140      -999.2500      -999.2500
       1006.50        51.8100         1.4140      -999.2500      -999.2500
       1007.00        55.0100         1.3970      -999.2500      -999.2500
       1007.50        56.4000         1.3680      -999.2500      -999.2500
       1008.00        55.1700         1.3380      -999.2500      -999.2500
       1008.50        49.5900         1.3050      -999.2500      -999.2500
       1009.00        44.2800         1.2710      -999.2500      -999.2500
       1009.50        40.6600         1.2380      -999.2500      -999.2500
       1010.00        40.1200         1.2000      -999.2500      -999.2500
       1010.50        40.6100         1.1650      -999.2500      -999.2500
       1011.00        43.2500         1.1360      -999.2500      -999.2500
       1011.50        45.0400         1.1170      -999.2500      -999.2500
       1012.00        48.6000         1.1090      -999.2500      -999.2500
       1012.50        50.3700         1.1070      -999.2500      -999.2500
       1013.00        54.2200         1.1050      -999.2500      -999.2500
       1013.50        56.3000         1.1010      -999.2500      -999.2500
       1014.00        59.9800         1.0980      -999.2500      -999.2500
       1014.50        61.5800         1.0890      -999.2500      -999.2500
       1015.00        64.0600         1.0760      -999.2500      -999.2500
       1015.50        64.9200         1.0630      -999.2500      -999.2500
       1016.00        65.7900         1.0530      -999.2500      -999.2500
       1016.50        65.9400         1.0430      -999.2500      -999.2500
       1017.00        66.0800         1.0540      -999.2500      -999.2500
       1017.50        66.2200         1.0650      -999.2500      -999.2500
       1018.00        66.1200         1.0760      -999.2500      -999.2500
       1018.50        66.0300         1.0760      -999.2500      -999.2500
       1019.00        67.1300         1.0760      -999.2500      -999.2500
       1019.50        68.3300         1.0800      -999.2500      -999.2500
       1020.00        69.5300         1.0830      -999.2500      -999.2500
       1020.50        69.9700         1.0850      -999.2500      -999.2500
       1021.00        70.4000         1.0830      -999.2500      -999.2500
       1021.50        74.8100         1.0840      -999.2500      -999.2500
       1022.00        78.1100         1.0700      -999.2500      -999.2500
       1022.50        80.8200         1.0560      -999.2500      -999.2500
       1023.00        79.6400         1.0380      -999.2500      -999.2500
       1023.50        77.8900         1.0340      -999.2500      -999.2500
       1024.00        75.9100         1.0290      -999.2500      -999.2500
       1024.50        73.7800         1.0270      -999.2500      -999.2500
       1025.00        72.3900         1.0250      -999.2500      -999.2500
       1025.50        71.5500         1.0230      -999.2500      -999.2500
       1026.00        70.4600         1.0230      -999.2500      -999.2500
       1026.50        70.7500         1.0240      -999.2500      -999.2500
       1027.00        72.0200         1.0220      -999.2500      -999.2500
       1027.50        73.9600         1.0210      -999.2500      -999.2500
       1028.00        76.3100         1.0230      -999.2500      -999.2500
       1028.50        77.2800         1.0270      -999.2500      -999.2500
       1029.00        77.5400         1.0300      -999.2500      -999.2500
       1029.50        75.7600         1.0310      -999.2500      -999.2500
       1030.00        73.8400         1.0320      -999.2500      -999.2500
       1030.50        71.0800         1.0340      -999.2500      -999.2500
       1031.00        68.4500         1.0330      -999.2500      -999.2500
       1031.50        67.5800         1.0270      -999.2500      -999.2500
       1032.00        68.5300         1.0190      -999.2500      -999.2500
       1032.50        71.1200         1.0100      -999.2500      -999.2500
       1033.00        72.7700         1.0020      -999.2500      -999.2500
       1033.50        74.4900         0.9940      -999.2500      -999.2500
       1034.00        76.1100         0.9870      -999.2500      -999.2500
       1034.50        76.8500         0.9820      -999.2500      -999.2500
       1035.00        76.0400         0.9770      -999.2500      -999.2500
       1035.50        72.7500         0.9720      -999.2500      -999.2500
       1036.00        70.3500         0.9720      -999.2500      -999.2500
       1036.50        67.9500         0.9790      -999.2500      -999.2500
       1037.00        66.5200         0.9880      -999.2500      -999.2500
       1037.50        65.1000         1.0060      -999.2500      -999.2500
       1038.00        64.3000         1.0210      -999.2500      -999.2500
       1038.50        63.8700         1.0360      -999.2500      -999.2500
       1039.00        63.4400         1.0550      -999.2500      -999.2500
       1039.50        62.8300         1.0820      -999.2500      -999.2500
       1040.00        61.5500         1.1100      -999.2500      -999.2500
       1040.50        59.3400         1.1230      -999.2500      -999.2500
       1041.00        57.5000         1.1300      -999.2500      -999.2500
       1041.50        56.9100         1.1310      -999.2500      -999.2500
       1042.00        57.2400         1.1400      -999.2500      -999.2500
       1042.50        57.5600         1.1400      -999.2500      -999.2500
       1043.00        59.2100         1.1520      -999.2500      -999.2500
       1043.50        60.8900         1.1640      -999.2500      -999.2500
       1044.00        64.7800         1.1770      -999.2500      -999.2500
       1044.50        66.9900         1.1810      -999.2500      -999.2500
       1045.00        72.5000         1.1830      -999.2500      -999.2500
