~Version Information Block
VERS .                  2.0:  CWLS LOG ASCII STANDARD - VERSION 2.0
WRAP .                   NO:  One line per depth step
~Well Information Block
#MNEM.UNIT        Data Type   Information
#---------- ----------------  -----------
STRT .FT             350.00:  START DEPTH
STOP .FT           10167.50:  STOP DEPTH
STEP .FT               0.50:  STEP
NULL .              -999.25:  NULL VALUE
COMP .                     :  COMPANY
WELL .                SA-41:  WELL
FLD  .                     :  FIELD
LOC  .                     :  LOCATION
CTRY .                     :  COUNTRY
STAT .                     :  STATE
CNTY .                     :  COUNTY
SRVC .                     :  SERVICE COMPANY
DATE .                     :  DATE
API  .                     :  API NUMBER
UWI  .                     :  UNIQUE WELL ID
~Curve Information Block
#MNEM.UNIT         API CODE   Curve Description
#---------- ----------------  -----------------
DEPTH.FT                   :  DEPTH
GR   .GAPI                 :  Gamma Ray
RT   .OHMM                 :  Deep resistivity
RHOB .G/C3                 :  Bulk density
NPHI .V/V                  :  Neutron porosity
~Parameter Information Block
#MNEM.UNIT            Value   Description
#---------- ----------------  -----------
PROJECT.            SERANG_FE:  
~Other Information Block
# 
~A       DEPTH             GR             RT           RHOB           NPHI 
# ...
       2971.50       119.2915         1.2889         2.0836         0.5587
       2972.00       118.4779         1.3183         2.0828         0.5547
       2972.50       118.2741         1.3516         2.0862         0.5480
       2973.00       116.2333         1.3780         2.0903         0.5318
       2973.50       113.6785         1.4292         2.0992         0.5106
       2974.00       110.0157         1.4955         2.1132         0.4828
       2974.50       106.6436         1.5704         2.1323         0.4605
       2975.00       104.3222         1.6338         2.1514         0.4331
       2975.50       102.3122         1.6777         2.1724         0.4156
       2976.00       100.4418         1.7102         2.1930         0.3954
       2976.50        96.9567         1.7418         2.2134         0.3767
       2977.00        91.0351         1.7832         2.2288         0.3476
       2977.50        83.6466         1.8245         2.2412         0.3235
       2978.00        77.8727         1.8724         2.2532         0.3040
       2978.50        72.9891         1.8991         2.2605         0.2995
       2979.00        69.0287         1.9126         2.2625         0.2986
       2979.50        64.1146         1.9035         2.2529         0.3037
       2980.00        61.5434         1.8807         2.2345         0.3074
       2980.50        61.2489         1.8606         2.2086         0.3095
       2981.00        64.6854         1.8215         2.1787         0.3145
       2981.50        68.1219         1.7503         2.1527         0.3188
       2982.00        73.0220         1.6740         2.1346         0.3254
       2982.50        76.3621         1.5879         2.1235         0.3307
       2983.00        79.7022         1.4994         2.1100         0.3409
       2983.50        81.9734         1.4215         2.0944         0.3529
       2984.00        83.2134         1.3393         2.0788         0.3646
       2984.50        84.4535         1.2781         2.0677         0.3727
       2985.00        83.6048         1.2307         2.0638         0.3834
       2985.50        82.5699         1.1872         2.0673         0.3920
       2986.00        78.9653         1.1587         2.0770         0.4022
       2986.50        73.6944         1.1575         2.0844         0.4097
       2987.00        68.4234         1.1588         2.0867         0.4184
       2987.50        63.6074         1.1696         2.0862         0.4227
       2988.00        59.7789         1.1837         2.0900         0.4269
       2988.50        55.9505         1.1950         2.0977         0.4244
       2989.00        54.2197         1.2089         2.1052         0.4235
       2989.50        53.8461         1.2147         2.1159         0.4181
       2990.00        53.8493         1.2197         2.1190         0.4151
       2990.50        54.9102         1.2188         2.1204         0.4112
       2991.00        56.1766         1.2106         2.1086         0.4019
       2991.50        56.0192         1.1939         2.0883         0.3934
       2992.00        53.4679         1.1740         2.0652         0.3863
       2992.50        51.2542         1.1529         2.0547         0.3871
       2993.00        49.6881         1.1337         2.0477         0.3874
       2993.50        50.2089         1.1194         2.0447         0.3920
       2994.00        51.2195         1.1068         2.0428         0.3921
       2994.50        52.1161         1.0952         2.0355         0.3967
       2995.00        51.9953         1.0863         2.0328         0.3983
       2995.50        50.2974         1.0817         2.0302         0.3967
       2996.00        48.6663         1.0876         2.0399         0.3988
       2996.50        46.8523         1.0982         2.0583         0.4058
       2997.00        45.7721         1.1102         2.0787         0.4194
       2997.50        45.3358         1.1233         2.0877         0.4198
       2998.00        45.3662         1.1345         2.0938         0.4106
       2998.50        45.9500         1.1423         2.0954         0.3995
       2999.00        46.6133         1.1488         2.0963         0.3938
       2999.50        47.2933         1.1533         2.0992         0.3907
       3000.00        47.5266         1.1556         2.1042         0.3840
       3000.50        47.5731         1.1548         2.1073         0.3841
       3001.00        47.6030         1.1496         2.1063         0.3885
       3001.50        47.4627         1.1429         2.1043         0.3986
       3002.00        47.0960         1.1306         2.1040         0.3965
       3002.50        47.1662         1.1159         2.1007         0.3959
       3003.00        47.6966         1.0978         2.0944         0.4044
       3003.50        47.7889         1.0803         2.0845         0.4162
       3004.00        46.4016         1.0642         2.0732         0.4309
       3004.50        44.7843         1.0504         2.0588         0.4305
       3005.00        43.8116         1.0390         2.0466         0.4355
       3005.50        43.7315         1.0301         2.0388         0.4401
       3006.00        43.2811         1.0234         2.0344         0.4422
       3006.50        42.2743         1.0199         2.0283         0.4304
       3007.00        42.1119         1.0224         2.0230         0.4236
       3007.50        42.3199         1.0285         2.0207         0.4235
       3008.00        44.5007         1.0380         2.0205         0.4280
       3008.50        46.3304         1.0476         2.0231         0.4200
       3009.00        47.8100         1.0526         2.0276         0.4114
       3009.50        47.5140         1.0522         2.0364         0.4104
       3010.00        47.5736         1.0484         2.0405         0.4095
       3010.50        47.2202         1.0403         2.0409         0.4065
       3011.00        47.1560         1.0313         2.0415         0.3992
       3011.50        45.0620         1.0258         2.0475         0.4000
       3012.00        43.2511         1.0173         2.0562         0.3964
       3012.50        41.0571         1.0087         2.0590         0.3961
       3013.00        40.3025         0.9962         2.0576         0.3897
       3013.50        38.9986         0.9897         2.0535         0.3981
       3014.00        38.3412         0.9923         2.0505         0.4024
       3014.50        37.5751         1.0004         2.0484         0.4080
       3015.00        37.6651         1.0131         2.0531         0.4101
       3015.50        37.5486         1.0345         2.0604         0.4148
       3016.00        37.6018         1.0607         2.0661         0.4251
       3016.50        37.7152         1.0864         2.0636         0.4328
       3017.00        38.2919         1.1262         2.0610         0.4364
       3017.50        39.2328         1.1708         2.0675         0.4354
       3018.00        40.2868         1.2226         2.0823         0.4363
       3018.50        42.1320         1.2687         2.0999         0.4337
       3019.00        44.8043         1.3133         2.1153         0.4343
       3019.50        49.1796         1.3580         2.1304         0.4339
       3020.00        52.9705         1.4026         2.1427         0.4355
       3020.50        55.8774         1.4442         2.1548         0.4300
       3021.00        57.6359         1.4842         2.1659         0.4188
       3021.50        58.6674         1.5242         2.1809         0.4141
       3022.00        60.3519         1.5454         2.1929         0.4207
       3022.50        62.3319         1.5628         2.2014         0.4367
       3023.00        65.4858         1.5756         2.2062         0.4431
       3023.50        67.8231         1.5886         2.2106         0.4381
       3024.00        69.5877         1.5988         2.2155         0.4267
       3024.50        70.4579         1.6094         2.2191         0.4229
