~Version Information Block
VERS .                  2.0:  CWLS LOG ASCII STANDARD - VERSION 2.0
WRAP .                   NO:  One line per depth step
~Well Information Block
#MNEM.UNIT        Data Type   Information
#---------- ----------------  -----------
STRT .FT             350.00:  START DEPTH
STOP .FT           10167.50:  STOP DEPTH
STEP .FT               0.50:  STEP
NULL .              -999.25:  NULL VALUE
COMP .                     :  COMPANY
WELL .                SA-41:  WELL
FLD  .                     :  FIELD
LOC  .                     :  LOCATION
CTRY .                     :  COUNTRY
STAT .                     :  STATE
CNTY .                     :  COUNTY
SRVC .                     :  SERVICE COMPANY
DATE .                     :  DATE
API  .                     :  API NUMBER
UWI  .                     :  UNIQUE WELL ID
~Curve Information Block
#MNEM.UNIT         API CODE   Curve Description
#---------- ----------------  -----------------
DEPTH.FT                   :  DEPTH
GR   .GAPI                 :  Gamma Ray
RT   .OHMM                 :  Deep resistivity
RHOB .G/C3                 :  Bulk density
NPHI .V/V                  :  Neutron porosity
~Parameter Information Block
#MNEM.UNIT            Value   Description
#---------- ----------------  -----------
PROJECT.            SERANG_FE:  
~Other Information Block
# 
~A       DEPTH             GR             RT           RHOB           NPHI 
# ...
       4897.50        88.7833         1.2247         2.2654         0.4463
       4898.00        88.9634         1.2170         2.2625         0.4460
       4898.50        89.1435         1.2033         2.2598         0.4589
       4899.00        88.5433         1.1905         2.2562         0.4735
       4899.50        88.6775         1.1777         2.2529         0.4863
       4900.00        87.3135         1.1709         2.2477         0.4945
       4900.50        85.6393         1.1588         2.2434         0.5038
       4901.00        84.2311         1.1428         2.2408         0.5023
       4901.50        83.0005         1.1287         2.2394         0.5013
       4902.00        81.7699         1.1271         2.2373         0.5039
       4902.50        80.2427         1.1157         2.2364         0.5108
       4903.00        80.6338         1.1043         2.2358         0.5152
       4903.50        81.6743         1.0931         2.2353         0.5163
       4904.00        82.9214         1.0894         2.2346         0.5168
       4904.50        83.7576         1.0884         2.2332         0.5174
       4905.00        83.6742         1.0865         2.2317         0.5191
       4905.50        83.5908         1.0883         2.2305         0.5254
       4906.00        84.0175         1.0916         2.2277         0.5408
       4906.50        84.1174         1.0951         2.2243         0.5490
       4907.00        84.0807         1.0928         2.2211         0.5509
       4907.50        83.2405         1.0991         2.2206         0.5509
       4908.00        82.9972         1.1044         2.2234         0.5584
       4908.50        83.3340         1.1131         2.2262         0.5622
       4909.00        84.3610         1.1206         2.2252         0.5591
       4909.50        84.9416         1.1255         2.2215         0.5476
       4910.00        85.0786         1.1291         2.2171         0.5392
       4910.50        84.6519         1.1290         2.2124         0.5310
       4911.00        84.0147         1.1308         2.2083         0.5201
       4911.50        83.3507         1.1324         2.2051         0.5086
       4912.00        82.6670         1.1344         2.2029         0.5037
       4912.50        82.2066         1.1341         2.1982         0.4983
       4913.00        81.1161         1.1337         2.1912         0.4882
       4913.50        80.1023         1.1306         2.1841         0.4748
       4914.00        79.5222         1.1262         2.1813         0.4721
       4914.50        79.7990         1.1229         2.1825         0.4836
       4915.00        80.2459         1.1209         2.1851         0.4936
       4915.50        80.8161         1.1204         2.1879         0.4960
       4916.00        81.1863         1.1192         2.1911         0.4969
       4916.50        81.1556         1.1153         2.1947         0.5031
       4917.00        80.3719         1.1096         2.1987         0.5064
       4917.50        79.5882         1.1113         2.2013         0.5032
       4918.00        78.1949         1.1073         2.2038         0.4964
       4918.50        77.1410         1.1033         2.2059         0.4984
       4919.00        75.7769         1.0953         2.2137         0.5011
       4919.50        75.1766         1.0795         2.2257         0.4983
       4920.00        74.5926         1.0959         2.2428         0.4929
       4920.50        74.4227         1.1130         2.2589         0.4864
       4921.00        74.2527         1.1071         2.2698         0.4811
       4921.50        75.5302         1.1025         2.2740         0.4783
       4922.00        76.9676         1.0979         2.2706         0.4812
       4922.50        79.1318         1.0875         2.2655         0.4871
       4923.00        80.1221         1.0875         2.2620         0.4953
       4923.50        80.4426         1.0895         2.2663         0.5011
       4924.00        80.1659         1.0943         2.2658         0.5047
       4924.50        79.8893         1.1100         2.2608         0.5047
       4925.00        79.7489         1.1121         2.2501         0.5019
       4925.50        79.4388         1.1143         2.2406         0.5004
       4926.00        79.6055         1.1632         2.2344         0.4980
       4926.50        80.0422         1.2285         2.2323         0.4888
       4927.00        80.1917         1.2928         2.2347         0.4762
       4927.50        79.1313         1.3579         2.2384         0.4693
       4928.00        78.0708         1.4107         2.2407         0.4597
       4928.50        75.9037         1.4502         2.2354         0.4458
       4929.00        73.7027         1.4896         2.2283         0.4292
       4929.50        69.5666         1.5171         2.2195         0.4173
       4930.00        66.8645         1.5239         2.2105         0.4138
       4930.50        62.4921         1.5312         2.2014         0.4073
       4931.00        57.4671         1.5161         2.1953         0.4019
       4931.50        52.4421         1.4831         2.1894         0.3972
       4932.00        48.2737         1.4471         2.1903         0.3941
       4932.50        45.3456         1.4089         2.1964         0.3843
       4933.00        41.5503         1.3733         2.2090         0.3741
       4933.50        39.2369         1.3472         2.2208         0.3641
       4934.00        39.1368         1.3178         2.2328         0.3572
       4934.50        41.0579         1.2842         2.2445         0.3519
       4935.00        43.0778         1.2449         2.2601         0.3440
       4935.50        46.0693         1.2051         2.2777         0.3427
       4936.00        49.9350         1.1736         2.2968         0.3430
       4936.50        55.7383         1.1578         2.3173         0.3403
       4937.00        62.6250         1.1460         2.3342         0.3383
       4937.50        70.0647         1.1326         2.3482         0.3426
       4938.00        75.5669         1.1271         2.3508         0.3580
       4938.50        80.3859         1.1235         2.3525         0.3708
       4939.00        83.9078         1.1252         2.3527         0.3779
       4939.50        87.4297         1.1386         2.3578         0.3827
       4940.00        89.4321         1.1596         2.3609         0.3855
       4940.50        90.7959         1.1908         2.3615         0.3824
       4941.00        92.1597         1.2230         2.3610         0.3799
       4941.50        91.7614         1.2422         2.3619         0.3823
       4942.00        90.4708         1.2678         2.3632         0.3823
       4942.50        89.1802         1.3054         2.3614         0.3761
       4943.00        88.6529         1.3411         2.3624         0.3587
       4943.50        87.5825         1.3871         2.3641         0.3482
       4944.00        86.5120         1.4317         2.3663         0.3407
       4944.50        85.5419         1.4766         2.3639         0.3338
       4945.00        84.2012         1.5158         2.3600         0.3267
       4945.50        82.8605         1.5429         2.3552         0.3241
       4946.00        80.2792         1.5607         2.3482         0.3178
       4946.50        77.4675         1.5789         2.3377         0.3121
       4947.00        74.6559         1.5894         2.3252         0.3061
       4947.50        72.8539         1.5918         2.3120         0.3066
       4948.00        73.9714         1.5872         2.3004         0.3094
       4948.50        75.0889         1.5693         2.2887         0.3153
       4949.00        77.4478         1.5509         2.2778         0.3246
       4949.50        79.5488         1.5280         2.2645         0.3320
       4950.00        81.6499         1.5056         2.2516         0.3352
       4950.50        83.8609         1.4852         2.2362         0.3352
