~Version Information Block
VERS .                  2.0:  CWLS LOG ASCII STANDARD - VERSION 2.0
WRAP .                   NO:  One line per depth step
~Well Information Block
#MNEM.UNIT        Data Type   Information
#---------- ----------------  -----------
STRT .FT             350.00:  START DEPTH
STOP .FT           10167.50:  STOP DEPTH
STEP .FT               0.50:  STEP
NULL .              -999.25:  NULL VALUE
COMP .                     :  COMPANY
WELL .                SA-41:  WELL
FLD  .                     :  FIELD
LOC  .                     :  LOCATION
CTRY .                     :  COUNTRY
STAT .                     :  STATE
CNTY .                     :  COUNTY
SRVC .                     :  SERVICE COMPANY
DATE .                     :  DATE
API  .                     :  API NUMBER
UWI  .                     :  UNIQUE WELL ID
~Curve Information Block
#MNEM.UNIT         API CODE   Curve Description
#---------- ----------------  -----------------
DEPTH.FT                   :  DEPTH
GR   .GAPI                 :  Gamma Ray
RT   .OHMM                 :  Deep resistivity
RHOB .G/C3                 :  Bulk density
NPHI .V/V                  :  Neutron porosity
~Parameter Information Block
#MNEM.UNIT            Value   Description
#---------- ----------------  -----------
PROJECT.            SERANG_FE:  
~Other Information Block
# 
~A       DEPTH             GR             RT           RHOB           NPHI 
# ...
       8803.00        96.0500         1.4130         2.4670         0.4700
       8803.50        98.4800         1.3910         2.4630         0.4690
       8804.00        99.4500         1.4030         2.4550         0.4680
       8804.50        99.9300         1.4410         2.4440         0.4660
       8805.00        98.9600         1.4750         2.4340         0.4650
       8805.50        97.5100         1.5240         2.4230         0.4630
       8806.00        95.5700         1.6060         2.4100         0.4590
       8806.50        96.0500         1.7220         2.3940         0.4550
       8807.00        98.9600         1.8100         2.3790         0.4500
       8807.50       103.3300         1.8900         2.3690         0.4480
       8808.00       109.6300         1.9470         2.3610         0.4470
       8808.50       115.9400         2.0020         2.3550         0.4500
       8809.00       119.8200         2.0300         2.3470         0.4530
       8809.50       120.7900         2.0220         2.3380         0.4580
       8810.00       119.9800         2.0440         2.3340         0.4630
       8810.50       120.6300         2.0630         2.3320         0.4670
       8811.00       120.1400         2.1110         2.3300         0.4680
       8811.50       119.5000         2.1790         2.3250         0.4640
       8812.00       117.4000         2.2790         2.3220         0.4560
       8812.50       114.4800         2.3980         2.3230         0.4450
       8813.00       108.6600         2.5430         2.3280         0.4290
       8813.50       102.3600         2.6880         2.3380         0.4090
       8814.00        96.0500         2.8000         2.3530         0.3870
       8814.50        90.2300         2.9100         2.3740         0.3630
       8815.00        83.9200         2.9750         2.3890         0.3370
       8815.50        77.1300         3.0100         2.4030         0.3110
       8816.00        69.8500         2.9740         2.4090         0.2860
       8816.50        63.0600         2.8680         2.4150         0.2650
       8817.00        58.2100         2.7420         2.4170         0.2490
       8817.50        54.8200         2.6000         2.4200         0.2360
       8818.00        52.8800         2.4460         2.4260         0.2270
       8818.50        52.3900         2.2930         2.4310         0.2210
       8819.00        52.8800         2.1700         2.4330         0.2190
       8819.50        54.3300         2.0570         2.4320         0.2200
       8820.00        55.7900         1.9700         2.4310         0.2240
       8820.50        58.2200         1.9030         2.4320         0.2280
       8821.00        61.1300         1.8420         2.4400         0.2330
       8821.50        64.0400         1.7980         2.4490         0.2390
       8822.00        66.9500         1.7670         2.4570         0.2460
       8822.50        69.0500         1.7420         2.4570         0.2540
       8823.00        70.8300         1.7170         2.4530         0.2600
       8823.50        72.1200         1.6940         2.4500         0.2660
       8824.00        73.7400         1.6770         2.4480         0.2730
       8824.50        75.8400         1.6600         2.4490         0.2810
       8825.00        78.1000         1.6390         2.4480         0.2890
       8825.50        80.5300         1.6190         2.4450         0.2970
       8826.00        82.4700         1.6050         2.4390         0.3030
       8826.50        84.2500         1.5910         2.4340         0.3090
       8827.00        85.8600         1.5720         2.4300         0.3150
       8827.50        85.8600         1.5520         2.4270         0.3210
       8828.00        85.0500         1.5330         2.4270         0.3290
       8828.50        83.2800         1.5090         2.4280         0.3380
       8829.00        81.6600         1.4730         2.4290         0.3460
       8829.50        79.7200         1.4360         2.4290         0.3530
       8830.00        79.0700         1.4070         2.4290         0.3590
       8830.50        80.0400         1.3820         2.4350         0.3650
       8831.00        81.8200         1.3570         2.4400         0.3720
       8831.50        83.4400         1.3330         2.4450         0.3790
       8832.00        84.8900         1.3180         2.4450         0.3880
       8832.50        86.8300         1.3060         2.4470         0.3950
       8833.00        88.1200         1.2970         2.4480         0.4010
       8833.50        88.2900         1.2910         2.4510         0.4060
       8834.00        87.8000         1.2930         2.4570         0.4100
       8834.50        86.8300         1.2980         2.4630         0.4130
       8835.00        85.8600         1.3070         2.4710         0.4140
       8835.50        84.8900         1.3130         2.4720         0.4150
       8836.00        84.4100         1.3220         2.4730         0.4170
       8836.50        84.7300         1.3410         2.4680         0.4180
       8837.00        85.7000         1.3790         2.4680         0.4170
       8837.50        86.6700         1.4020         2.4690         0.4170
       8838.00        83.9200         1.4280         2.4720         0.4170
       8838.50        82.1400         1.4510         2.4740         0.4170
       8839.00        80.5300         1.4710         2.4700         0.4170
       8839.50        81.0100         1.4930         2.4630         0.4160
       8840.00        80.8500         1.5160         2.4530         0.4150
       8840.50        80.0400         1.5420         2.4470         0.4130
       8841.00        81.0100         1.5810         2.4470         0.4100
       8841.50        81.0100         1.6160         2.4550         0.4070
       8842.00        81.1700         1.6520         2.4650         0.4020
       8842.50        80.2000         1.7190         2.4730         0.3960
       8843.00        77.2900         1.8680         2.4790         0.3890
       8843.50        74.7100         2.1110         2.4860         0.3810
       8844.00        72.2800         2.3870         2.5020         0.3700
       8844.50        71.8000         2.7240         2.5240         0.3580
       8845.00        70.9900         3.0620         2.5490         0.3470
       8845.50        70.1800         3.3610         2.5650         0.3350
       8846.00        68.4000         3.5690         2.5730         0.3230
       8846.50        66.3000         3.7020         2.5770         0.3120
       8847.00        64.2000         3.7500         2.5780         0.3080
       8847.50        62.5800         3.7440         2.5750         0.3100
       8848.00        63.5500         3.6210         2.5690         0.3160
       8848.50        66.4600         3.3810         2.5550         0.3230
       8849.00        71.8000         3.1050         2.5350         0.3320
       8849.50        75.6800         2.7660         2.5100         0.3410
       8850.00        79.4000         2.4170         2.4920         0.3510
       8850.50        82.1400         2.1040         2.4860         0.3640
       8851.00        84.8900         1.8620         2.4880         0.3810
       8851.50        87.1600         1.6930         2.4900         0.3980
       8852.00        90.7100         1.5850         2.4860         0.4090
       8852.50        93.7900         1.5040         2.4850         0.4130
       8853.00        95.5700         1.4440         2.4870         0.4150
       8853.50        95.0800         1.4310         2.4980         0.4170
       8854.00        93.6300         1.4350         2.5100         0.4210
       8854.50        91.5200         1.4380         2.5210         0.4250
       8855.00        89.4200         1.4420         2.5230         0.4300
       8855.50        88.4500         1.4850         2.5210         0.4330
       8856.00        86.6700         1.5840         2.5160         0.4310
