~Version Information Block
VERS .                  2.0:  CWLS LOG ASCII STANDARD - VERSION 2.0
WRAP .                   NO:  One line per depth step
~Well Information Block
#MNEM.UNIT        Data Type   Information
#---------- ----------------  -----------
STRT .FT            1300.00:  START DEPTH
STOP .FT            8397.00:  STOP DEPTH
STEP .FT               0.50:  STEP
NULL .              -999.25:  NULL VALUE
COMP .                     :  COMPANY
WELL .              SA-44HZ:  WELL
FLD  .                     :  FIELD
LOC  .                     :  LOCATION
CTRY .                     :  COUNTRY
STAT .                     :  STATE
CNTY .                     :  COUNTY
SRVC .                     :  SERVICE COMPANY
DATE .                     :  DATE
API  .                     :  API NUMBER
UWI  .                     :  UNIQUE WELL ID
~Curve Information Block
#MNEM.UNIT         API CODE   Curve Description
#---------- ----------------  -----------------
DEPTH.FT                   :  DEPTH
GR   .GAPI                 :  Gamma Ray
RT   .OHMM                 :  Deep resistivity
RHOB .G/C3                 :  Bulk density
NPHI .V/V                  :  Neutron porosity
~Parameter Information Block
#MNEM.UNIT            Value   Description
#---------- ----------------  -----------
PROJECT.            SERANG_FE:  
~Other Information Block
# 
~A       DEPTH             GR             RT           RHOB           NPHI 
# ...
       3654.00        91.6889         1.1425         2.1333       0.521400
       3654.50        93.0500         1.1342         2.1352       0.518900
       3655.00        94.4111         1.1467         2.1370       0.516700
       3655.50        95.0911         1.1634         2.1384       0.515500
       3656.00        94.9533         1.1759         2.1393       0.515500
       3656.50        94.2700         1.1800         2.1398       0.516300
       3657.00        93.5867         1.1544         2.1413       0.517800
       3657.50        92.9078         1.1300         2.1449       0.519500
       3658.00        91.9644         1.1300         2.1507       0.521200
       3658.50        90.5330         1.1300         2.1560       0.522500
       3659.00        88.8404         1.1430         2.1591       0.523900
       3659.50        87.2504         1.1681         2.1600       0.526300
       3660.00        85.8500         1.1853         2.1600       0.530500
       3660.50        84.9796         1.2006         2.1600       0.535900
       3661.00        84.9796         1.2206         2.1600       0.541000
       3661.50        85.9370         1.2353         2.1597       0.544400
       3662.00        87.4259         1.2239         2.1591       0.546000
       3662.50        89.0204         1.1939         2.1578       0.547200
       3663.00        90.9037         1.1800         2.1559       0.549000
       3663.50        92.7963         1.1800         2.1537       0.551800
       3664.00        94.4185         1.1800         2.1519       0.555300
       3664.50        95.2296         1.1800         2.1507       0.558600
       3665.00        95.3633         1.1800         2.1502       0.561100
       3665.50        94.9533         1.1800         2.1500       0.562400
       3666.00        94.2700         1.1800         2.1500       0.562600
       3666.50        93.5867         1.1661         2.1500       0.561500
       3667.00        93.1767         1.1410         2.1500       0.559700
       3667.50        93.0400         1.1300         2.1500       0.557500
       3668.00        92.9496         1.1300         2.1496       0.555900
       3668.50        92.6785         1.1159         2.1475       0.554900
       3669.00        92.1363         1.0908         2.1423       0.554600
       3669.50        91.5037         1.0753         2.1339       0.554500
       3670.00        90.4393         1.0621         2.1243       0.554500
       3670.50        88.6015         1.0454         2.1164       0.554500
       3671.00        85.9000         1.0335         2.1119       0.554500
       3671.50        82.8800         1.1052         2.1103       0.554500
       3672.00        80.0867         1.2355         2.1100       0.554500
       3672.50        77.1111         1.2900         2.1100       0.554500
       3673.00        74.0182         1.3154         2.1100       0.553600
       3673.50        70.8726         1.3588         2.1100       0.539900
       3674.00        68.2615         1.4022         2.1102       0.506700
       3674.50        66.0896         1.4200         2.1112       0.466800
       3675.00        64.2618         1.4200         2.1138       0.439500
       3675.50        62.6830         1.4200         2.1180       0.431800
       3676.00        61.4178         1.3990         2.1228       0.431800
       3676.50        60.7528         1.3640         2.1268       0.431700
       3677.00        60.9744         1.3500         2.1290       0.431100
       3677.50        61.9350         1.3500         2.1298       0.429500
       3678.00        63.0433         1.3713         2.1300       0.426300
       3678.50        63.7083         1.4064         2.1300       0.421700
       3679.00        63.9300         1.4261         2.1301       0.416700
       3679.50        64.1589         1.4423         2.1305       0.412700
       3680.00        64.8456         1.4623         2.1318       0.410400
       3680.50        65.9900         1.4762         2.1344       0.409800
       3681.00        67.6215         1.4396         2.1382       0.410300
       3681.50        69.7693         1.3745         2.1425       0.411000
       3682.00        72.9204         1.3500         2.1462       0.411500
       3682.50        76.5015         1.3500         2.1486       0.411300
       3683.00        79.9393         1.3500         2.1496       0.410000
       3683.50        82.4315         1.3500         2.1500       0.408000
       3684.00        84.1215         1.3436         2.1501       0.405600
       3684.50        84.8948         1.3273         2.1504       0.403700
       3685.00        84.6370         1.3072         2.1513       0.402700
       3685.50        83.5200         1.2936         2.1530       0.402500
       3686.00        82.3163         1.2900         2.1552       0.402700
       3686.50        81.7985         1.2900         2.1573       0.403300
       3687.00        82.0518         1.2900         2.1589       0.404400
       3687.50        82.6481         1.2792         2.1597       0.406600
       3688.00        83.1593         1.2624         2.1600       0.410300
       3688.50        83.4148         1.2457         2.1600       0.415000
       3689.00        83.5000         1.2400         2.1600       0.419600
       3689.50        83.6300         1.2400         2.1600       0.423600
       3690.00        84.0200         1.2400         2.1600       0.427200
       3690.50        84.6700         1.2400         2.1600       0.431300
       3691.00        85.3200         1.2000         2.1600       0.436300
       3691.50        85.8411         1.1800         2.1601       0.441600
       3692.00        86.3644         1.1800         2.1604       0.446200
       3692.50        87.1096         1.1800         2.1611       0.449300
       3693.00        88.1237         1.1800         2.1624       0.450900
       3693.50        89.3237         1.1800         2.1642       0.451800
       3694.00        90.8037         1.1800         2.1662       0.456000
       3694.50        92.5200         1.1800         2.1679       0.466300
       3695.00        94.4289         1.1800         2.1691       0.482200
       3695.50        96.0733         1.1800         2.1697       0.496600
       3696.00        97.4057         1.1800         2.1699       0.504900
       3696.50        98.3785         1.1800         2.1687       0.507300
       3697.00        99.2650         1.1800         2.1652       0.507300
       3697.50        99.9678         1.1800         2.1594       0.507300
       3698.00       100.3894         1.1800         2.1541       0.507200
       3698.50       100.5300         1.1800         2.1509       0.506800
       3699.00       100.2506         1.1800         2.1500       0.505900
       3699.50        99.4122         1.1800         2.1500       0.504400
       3700.00        98.0150         1.1800         2.1500       0.502700
       3700.50        96.6178         1.1445         2.1500       0.501300
       3701.00        95.3739         1.0944         2.1500       0.500400
       3701.50        93.8778         1.0800         2.1500       0.499700
       3702.00        91.8500         1.0800         2.1500       0.498900
       3702.50        89.8222         1.0800         2.1500       0.497900
       3703.00        88.6055         1.0710         2.1500       0.496800
       3703.50        88.2000         1.0645         2.1500       0.495500
       3704.00        87.9868         1.0512         2.1500       0.493300
       3704.50        87.1342         1.0915         2.1500       0.489100
       3705.00        85.2159         1.1533         2.1500       0.482000
       3705.50        82.3632         1.2505         2.1500       0.473100
       3706.00        79.3467         1.3388         2.1500       0.464700
       3706.50        76.9372         1.4189         2.1500       0.458700
       3707.00        75.5117         1.4730         2.1500       0.455600
