~Version Information Block
VERS .                  2.0:  CWLS LOG ASCII STANDARD - VERSION 2.0
WRAP .                   NO:  One line per depth step
~Well Information Block
#MNEM.UNIT        Data Type   Information
#---------- ----------------  -----------
STRT .FT             350.00:  START DEPTH
STOP .FT           10167.50:  STOP DEPTH
STEP .FT               0.50:  STEP
NULL .              -999.25:  NULL VALUE
COMP .                     :  COMPANY
WELL .                SA-41:  WELL
FLD  .                     :  FIELD
LOC  .                     :  LOCATION
CTRY .                     :  COUNTRY
STAT .                     :  STATE
CNTY .                     :  COUNTY
SRVC .                     :  SERVICE COMPANY
DATE .                     :  DATE
API  .                     :  API NUMBER
UWI  .                     :  UNIQUE WELL ID
~Curve Information Block
#MNEM.UNIT         API CODE   Curve Description
#---------- ----------------  -----------------
DEPTH.FT                   :  DEPTH
GR   .GAPI                 :  Gamma Ray
RT   .OHMM                 :  Deep resistivity
RHOB .G/C3                 :  Bulk density
NPHI .V/V                  :  Neutron porosity
~Parameter Information Block
#MNEM.UNIT            Value   Description
#---------- ----------------  -----------
PROJECT.            SERANG_FE:  
~Other Information Block
# 
~A       DEPTH             GR             RT           RHOB           NPHI 
# ...
       7465.50        50.9400         2.9360         2.2800         0.2050
       7466.00        53.8500         2.8360         2.2890         0.2090
       7466.50        55.7900         2.7330         2.2990         0.2140
       7467.00        56.2700         2.6350         2.3070         0.2190
       7467.50        54.8200         2.5440         2.3150         0.2230
       7468.00        54.0100         2.4580         2.3200         0.2280
       7468.50        54.4900         2.3920         2.3190         0.2330
       7469.00        54.9800         2.3390         2.3140         0.2370
       7469.50        54.8200         2.2970         2.3100         0.2410
       7470.00        54.8200         2.2630         2.3110         0.2450
       7470.50        53.8500         2.2390         2.3140         0.2470
       7471.00        53.0400         2.2150         2.3190         0.2470
       7471.50        52.7200         2.1750         2.3270         0.2490
       7472.00        54.6600         2.1370         2.3400         0.2520
       7472.50        56.4400         2.0990         2.3560         0.2570
       7473.00        59.1900         2.0710         2.3770         0.2610
       7473.50        62.1000         2.0440         2.3990         0.2660
       7474.00        65.9700         2.0240         2.4200         0.2730
       7474.50        67.9100         1.9990         2.4330         0.2830
       7475.00        69.8500         1.9860         2.4390         0.2940
       7475.50        72.2800         1.9710         2.4430         0.3060
       7476.00        76.6500         1.9280         2.4460         0.3140
       7476.50        81.5000         1.8990         2.4500         0.3250
       7477.00        86.8300         1.8590         2.4500         0.3360
       7477.50        93.6300         1.8060         2.4510         0.3550
       7478.00        98.9600         1.7440         2.4490         0.3720
       7478.50       103.8100         1.6650         2.4470         0.3880
       7479.00       105.2700         1.5910         2.4440         0.4010
       7479.50       106.2400         1.5200         2.4410         0.4100
       7480.00       106.7200         1.4350         2.4350         0.4190
       7480.50       108.5000         1.3830         2.4260         0.4280
       7481.00       111.7400         1.3650         2.4150         0.4400
       7481.50       117.0800         1.3650         2.4050         0.4490
       7482.00       122.2500         1.3820         2.3980         0.4550
       7482.50       126.6100         1.4130         2.3900         0.4550
       7483.00       129.2000         1.4450         2.3810         0.4590
       7483.50       131.3000         1.5000         2.3680         0.4650
       7484.00       133.4000         1.5650         2.3520         0.4690
       7484.50       134.7000         1.6110         2.3410         0.4730
       7485.00       134.3700         1.6600         2.3370         0.4740
       7485.50       132.4300         1.6950         2.3420         0.4710
       7486.00       128.5500         1.7300         2.3490         0.4660
       7486.50       123.7000         1.7280         2.3630         0.4590
       7487.00       116.9100         1.6970         2.3750         0.4550
       7487.50       111.0900         1.6820         2.3830         0.4490
       7488.00       104.3000         1.6700         2.3890         0.4410
       7488.50        99.9300         1.6600         2.3990         0.4310
       7489.00        96.5400         1.6240         2.4120         0.4230
       7489.50        96.5400         1.6000         2.4230         0.4150
       7490.00        97.1800         1.5750         2.4320         0.4080
       7490.50        98.1500         1.5360         2.4370         0.4050
       7491.00        98.1500         1.5070         2.4430         0.4020
       7491.50        96.5400         1.5420         2.4390         0.3970
       7492.00        93.6300         1.6200         2.4340         0.3890
       7492.50        90.7100         1.6850         2.4290         0.3770
       7493.00        87.8000         1.7640         2.4250         0.3640
       7493.50        85.3800         1.8540         2.4210         0.3490
       7494.00        81.5000         1.9470         2.4190         0.3330
       7494.50        77.6200         2.0410         2.4210         0.3140
       7495.00        72.7600         2.1460         2.4260         0.2930
       7495.50        66.4600         2.2610         2.4280         0.2710
       7496.00        59.6700         2.3740         2.4220         0.2510
       7496.50        52.0700         2.4750         2.4120         0.2340
       7497.00        47.7000         2.5750         2.4010         0.2190
       7497.50        45.7600         2.7010         2.3910         0.2070
       7498.00        47.0600         2.8350         2.3800         0.1960
       7498.50        47.5400         3.0000         2.3640         0.1860
       7499.00        45.2700         3.2010         2.3460         0.1780
       7499.50        41.3900         3.4480         2.3240         0.1720
       7500.00        38.0000         3.7020         2.2990         0.1680
       7500.50        37.3500         3.9350         2.2730         0.1630
       7501.00        36.8700         4.1680         2.2470         0.1580
       7501.50        36.3800         4.4530         2.2240         0.1530
       7502.00        35.9000         4.7070         2.2060         0.1480
       7502.50        34.9300         4.9640         2.1960         0.1430
       7503.00        34.4400         5.2930         2.1930         0.1390
       7503.50        32.5000         5.4860         2.1950         0.1360
       7504.00        31.0500         5.8540         2.1900         0.1330
       7504.50        31.0500         6.3160         2.1750         0.1290
       7505.00        33.4700         7.0110         2.1480         0.1230
       7505.50        36.8700         7.9230         2.1200         0.1160
       7506.00        38.8100         9.6290         2.0960         0.1090
       7506.50        39.2900        11.3730         2.0760         0.1020
       7507.00        38.3200        13.5950         2.0530         0.0950
       7507.50        36.8700        17.3840         2.0220         0.0880
       7508.00        33.4700        22.2320         1.9850         0.0800
       7508.50        28.3000        27.7150         1.9480         0.0720
       7509.00        21.8300        32.3930         1.9190         0.0640
       7509.50        16.0100        36.8100         1.8990         0.0590
       7510.00        13.4200        40.8460         1.8890         0.0550
       7510.50        12.6100        44.7970         1.8830         0.0520
       7511.00        13.1000        48.0350         1.8820         0.0500
       7511.50        13.1000        51.2330         1.8780         0.0480
       7512.00        12.6100        53.7900         1.8750         0.0470
       7512.50        12.1300        54.7060         1.8740         0.0470
       7513.00        11.6400        54.3140         1.8740         0.0460
       7513.50        10.6700        53.3560         1.8740         0.0450
       7514.00         9.7000        52.8720         1.8740         0.0450
       7514.50         9.2200        52.3960         1.8770         0.0440
       7515.00         9.7000        51.8760         1.8810         0.0450
       7515.50        10.1900        51.0210         1.8850         0.0470
       7516.00        10.1900        49.7340         1.8880         0.0500
       7516.50        10.1900        48.7660         1.8930         0.0540
       7517.00         9.8600        48.4270         1.8980         0.0580
       7517.50        10.3500        48.2460         1.9000         0.0620
       7518.00        10.8300        47.8360         1.9000         0.0670
       7518.50        11.6400        47.6670         1.8990         0.0710
