~Version Information Block
VERS .                  2.0:  CWLS LOG ASCII STANDARD - VERSION 2.0
WRAP .                   NO:  One line per depth step
~Well Information Block
#MNEM.UNIT        Data Type   Information
#---------- ----------------  -----------
STRT .FT            1300.00:  START DEPTH
STOP .FT            8397.00:  STOP DEPTH
STEP .FT               0.50:  STEP
NULL .              -999.25:  NULL VALUE
COMP .                     :  COMPANY
WELL .              SA-44HZ:  WELL
FLD  .                     :  FIELD
LOC  .                     :  LOCATION
CTRY .                     :  COUNTRY
STAT .                     :  STATE
CNTY .                     :  COUNTY
SRVC .                     :  SERVICE COMPANY
DATE .                     :  DATE
API  .                     :  API NUMBER
UWI  .                     :  UNIQUE WELL ID
~Curve Information Block
#MNEM.UNIT         API CODE   Curve Description
#---------- ----------------  -----------------
DEPTH.FT                   :  DEPTH
GR   .GAPI                 :  Gamma Ray
RT   .OHMM                 :  Deep resistivity
RHOB .G/C3                 :  Bulk density
NPHI .V/V                  :  Neutron porosity
~Parameter Information Block
#MNEM.UNIT            Value   Description
#---------- ----------------  -----------
PROJECT.            SERANG_FE:  
~Other Information Block
# 
~A       DEPTH             GR             RT           RHOB           NPHI 
# ...
       6917.50        85.8200         2.4300         2.4236       0.306000
       6918.00        86.2350         2.4300         2.4278       0.305300
       6918.50        87.1772         2.4300         2.4296       0.304700
       6919.00        89.4194         2.4300         2.4300       0.304000
       6919.50        90.1978         2.4300         2.4300       0.303300
       6920.00        90.9967         2.4300         2.4300       0.302400
       6920.50        91.8100         2.4300         2.4304       0.301500
       6921.00        93.4350         2.4300         2.4313       0.300600
       6921.50        94.5122         2.4300         2.4332       0.299900
       6922.00        95.8767         2.4300         2.4356       0.299700
       6922.50        96.6983         2.4300         2.4378       0.299800
       6923.00        97.9400         2.4300         2.4392       0.300000
       6923.50        98.7800         2.4300         2.4399       0.300300
       6924.00        99.2000         2.4300         2.4400       0.300600
       6924.50        97.1567         2.4300         2.4400       0.300600
       6925.00        94.1522         2.4300         2.4403       0.300300
       6925.50        90.4856         2.4300         2.4413       0.299400
       6926.00        89.6639         2.4300         2.4431       0.297500
       6926.50        90.5933         2.4300         2.4455       0.294400
       6927.00        91.6722         2.4088         2.4477       0.290400
       6927.50        91.1528         2.3861         2.4492       0.286500
       6928.00        88.3544         2.3683         2.4499       0.283500
       6928.50        87.2806         2.3603         2.4499       0.282100
       6929.00        87.7950         2.3535         2.4496       0.282600
       6929.50        89.6472         2.3367         2.4483       0.285100
       6930.00        90.8422         2.3152         2.4456       0.289400
       6930.50        91.6489         2.3010         2.4415       0.294500
       6931.00        90.9917         2.2949         2.4370       0.299900
       6931.50        90.2000         2.2959         2.4333       0.305000
       6932.00        88.6017         2.2949         2.4311       0.310100
       6932.50        88.9900         2.2959         2.4302       0.315100
       6933.00        89.7817         2.3012         2.4300       0.319900
       6933.50        91.3800         2.3048         2.4300       0.324300
       6934.00        93.0083         2.2992         2.4300       0.328800
       6934.50        95.9000         2.2827         2.4300       0.333600
       6935.00        98.3883         2.2785         2.4300       0.338900
       6935.50       101.7650         2.2985         2.4300       0.343800
       6936.00       104.3400         2.3346         2.4300       0.347100
       6936.50       107.3567         2.3531         2.4300       0.348300
       6937.00       109.1050         2.3330         2.4300       0.347800
       6937.50       109.1117         2.2906         2.4305       0.346600
       6938.00       106.9450         2.2625         2.4317       0.345200
       6938.50       104.3350         2.2640         2.4340       0.344200
       6939.00       102.6017         2.2764         2.4365       0.344100
       6939.50       103.0267         2.2761         2.4386       0.345400
       6940.00       104.3183         2.2642         2.4397       0.348000
       6940.50       106.0450         2.2575         2.4400       0.351200
       6941.00       106.4800         2.2579         2.4400       0.353700
       6941.50       103.9267         2.2562         2.4400       0.354900
       6942.00       100.9383         2.2447         2.4400       0.354900
       6942.50        97.9700         2.2346         2.4400       0.354200
       6943.00        98.3833         2.2359         2.4397       0.353200
       6943.50        98.7967         2.2532         2.4361       0.352200
       6944.00       100.9000         2.2777         2.4292       0.351300
       6944.50       101.3225         2.3021         2.4193       0.350800
       6945.00       106.5100         2.3191         2.4124       0.350900
       6945.50       107.2025         2.3276         2.4086       0.351500
       6946.00       105.1339         2.3351         2.4077       0.352400
       6946.50       100.4172         2.3451         2.4067       0.352600
       6947.00        97.8522         2.3629         2.4056       0.351700
       6947.50        95.0400         2.3693         2.4049       0.349200
       6948.00       102.5900         2.3530         2.4048       0.345600
       6948.50       102.5900         2.3079         2.4053       0.341800
       6949.00       101.7400         2.2598         2.4064       0.338700
       6949.50       102.6000         2.2273         2.4077       0.336600
       6950.00       102.6050         2.2200         2.4088       0.335300
       6950.50       106.4750         2.2355         2.4095       0.334400
       6951.00       106.4750         2.2783         2.4100       0.333700
       6951.50       105.1800         2.3382         2.4105       0.333500
       6952.00       102.6000         2.3912         2.4118       0.334800
       6952.50       103.4700         2.4100         2.4142       0.338700
       6953.00       104.3300         2.3948         2.4179       0.345600
       6953.50       106.4750         2.3653         2.4221       0.354400
       6954.00       103.8800         2.3358         2.4256       0.363600
       6954.50       102.5900         2.3080         2.4277       0.371400
       6955.00       100.0550         2.2768         2.4282       0.377200
       6955.50        97.5200         2.2526         2.4273       0.381300
       6956.00        95.8767         2.2445         2.4258       0.384100
       6956.50        96.7167         2.2529         2.4239       0.386200
       6957.00        96.3150         2.2642         2.4218       0.387700
       6957.50       100.0400         2.2683         2.4197       0.388800
       6958.00       109.2950         2.2677         2.4175       0.389500
       6958.50       110.5633         2.2692         2.4152       0.390000
       6959.00       115.8250         2.2769         2.4131       0.390200
       6959.50       106.5700         2.2835         2.4115       0.390200
       6960.00        97.5400         2.2840         2.4104       0.390000
       6960.50       100.0906         2.2748         2.4093       0.389200
       6961.00       101.3561         2.2548         2.4080       0.387300
       6961.50       102.1917         2.2223         2.4064       0.383700
       6962.00       103.0200         2.1859         2.4051       0.378200
       6962.50       102.5900         2.1647         2.4051       0.371000
       6963.00       105.2033         2.1687         2.4069       0.363200
       6963.50       107.8167         2.1837         2.4098       0.355900
       6964.00       110.4300         2.1871         2.4123       0.350200
       6964.50       110.4300         2.1706         2.4125       0.347100
       6965.00       113.1200         2.1485         2.4097       0.347300
       6965.50       115.8100         2.1342         2.4046       0.350800
       6966.00       115.8100         2.1300         2.3991       0.356700
       6966.50       115.8100         2.1300         2.3950       0.364100
       6967.00       115.8100         2.1300         2.3932       0.371900
       6967.50       115.8100         2.1300         2.3936       0.379600
       6968.00       111.7950         2.1300         2.3957       0.386000
       6968.50       107.7800         2.1300         2.3988       0.389900
       6969.00       107.7800         2.1300         2.4021       0.390400
       6969.50       106.9100         2.1300         2.4052       0.387700
       6970.00       106.0400         2.1300         2.4075       0.383500
       6970.50       105.1700         2.1300         2.4090       0.380000
