~Version Information Block
VERS .                  2.0:  CWLS LOG ASCII STANDARD - VERSION 2.0
WRAP .                   NO:  One line per depth step
~Well Information Block
#MNEM.UNIT        Data Type   Information
#---------- ----------------  -----------
STRT .FT            1300.00:  START DEPTH
STOP .FT            8397.00:  STOP DEPTH
STEP .FT               0.50:  STEP
NULL .              -999.25:  NULL VALUE
COMP .                     :  COMPANY
WELL .              SA-44HZ:  WELL
FLD  .                     :  FIELD
LOC  .                     :  LOCATION
CTRY .                     :  COUNTRY
STAT .                     :  STATE
CNTY .                     :  COUNTY
SRVC .                     :  SERVICE COMPANY
DATE .                     :  DATE
API  .                     :  API NUMBER
UWI  .                     :  UNIQUE WELL ID
~Curve Information Block
#MNEM.UNIT         API CODE   Curve Description
#---------- ----------------  -----------------
DEPTH.FT                   :  DEPTH
GR   .GAPI                 :  Gamma Ray
RT   .OHMM                 :  Deep resistivity
RHOB .G/C3                 :  Bulk density
NPHI .V/V                  :  Neutron porosity
~Parameter Information Block
#MNEM.UNIT            Value   Description
#---------- ----------------  -----------
PROJECT.            SERANG_FE:  
~Other Information Block
# 
~A       DEPTH             GR             RT           RHOB           NPHI 
# ...
       1835.00        70.1600         1.3500         2.1062       0.409100
       1835.50        70.1600         1.3500         2.1078       0.407800
       1836.00        70.1600         1.3500         2.1090       0.406800
       1836.50        70.1600         1.3500         2.1094       0.407300
       1837.00        70.1600         1.3500         2.1090       0.411300
       1837.50        70.3989         1.3500         2.1076       0.419400
       1838.00        70.8767         1.3500         2.1050       0.430800
       1838.50        71.5933         1.3500         2.1015       0.443200
       1839.00        71.8322         1.3500         2.0977       0.454400
       1839.50        71.5933         1.3497         2.0943       0.463200
       1840.00        70.8767         1.3297         2.0917       0.469800
       1840.50        70.3989         1.3097         2.0898       0.474800
       1841.00        70.5183         1.2900         2.0877       0.478700
       1841.50        71.2350         1.2900         2.0849       0.481300
       1842.00        71.9517         1.2900         2.0809       0.482600
       1842.50        71.8367         1.2900         2.0757       0.482100
       1843.00        70.8900         1.2900         2.0694       0.479800
       1843.50        69.4700         1.2900         2.0623       0.476300
       1844.00        68.5233         1.2900         2.0552       0.472800
       1844.50        68.0500         1.2894         2.0494       0.470000
       1845.00        68.0500         1.2528         2.0458       0.468400
       1845.50        68.0500         1.2160         2.0448       0.467700
       1846.00        68.0500         1.1714         2.0456       0.467700
       1846.50        68.0500         1.1547         2.0472       0.468200
       1847.00        68.0500         1.1382         2.0486       0.469100
       1847.50        68.4017         1.1308         2.0495       0.470400
       1848.00        69.1050         1.1859         2.0499       0.471900
       1848.50        69.5761         1.2400         2.0500       0.473800
       1849.00        69.2311         1.2400         2.0500       0.476000
       1849.50        68.0700         1.2400         2.0500       0.478500
       1850.00        66.4578         1.2398         2.0500       0.480900
       1850.50        64.8589         1.2249         2.0500       0.481900
       1851.00        62.5406         1.2197         2.0500       0.480400
       1851.50        59.4400         1.1999         2.0500       0.475900
       1852.00        55.3250         1.1952         2.0500       0.469400
       1852.50        51.0855         1.2095         2.0500       0.462700
       1853.00        47.7361         1.1772         2.0500       0.457900
       1853.50        45.2767         1.1554         2.0500       0.455400
       1854.00        44.5056         1.0722         2.0500       0.454500
       1854.50        44.6900         1.0006         2.0500       0.454300
       1855.00        45.7345         0.9295         2.0500       0.453800
       1855.50        46.2078         0.9000         2.0500       0.452100
       1856.00        46.1100         0.9007         2.0500       0.447600
       1856.50        45.0789         0.9457         2.0500       0.439900
       1857.00        43.6856         0.9900         2.0500       0.430000
       1857.50        41.9300         0.9900         2.0500       0.420300
       1858.00        40.8233         0.9900         2.0500       0.413400
       1858.50        39.4883         0.9902         2.0500       0.409700
       1859.00        37.9250         1.0035         2.0500       0.408500
       1859.50        36.3617         1.0169         2.0500       0.408200
       1860.00        34.9356         1.0300         2.0499       0.408200
       1860.50        33.6467         1.0300         2.0484       0.408200
       1861.00        31.7133         1.0300         2.0433       0.407100
       1861.50        30.4244         1.0300         2.0328       0.399000
       1862.00        29.7800         1.0300         2.0183       0.390900
       1862.50        29.7800         1.0300         2.0044       0.383800
       1863.00        29.7800         1.0300         1.9950       0.383800
       1863.50        29.7800         1.0304         1.9910       0.383800
       1864.00        29.7800         1.0554         1.9900       0.383800
       1864.50        29.4800         1.0800         1.9900       0.383800
       1865.00        28.8800         1.0803         1.9898       0.383800
       1865.50        27.9800         1.0969         1.9892       0.383800
       1866.00        26.9556         1.1136         1.9879       0.384000
       1866.50        25.8067         1.1300         1.9859       0.385900
       1867.00        24.5333         1.1300         1.9836       0.390700
       1867.50        23.6845         1.1300         1.9817       0.398100
       1868.00        22.8633         1.1290         1.9806       0.405100
       1868.50        22.0700         1.0657         1.9801       0.409200
       1869.00        21.2767         1.0023         1.9800       0.410500
       1869.50        21.0100         0.9400         1.9800       0.410800
       1870.00        21.2700         0.9397         1.9802       0.411900
       1870.50        21.6600         0.9197         1.9808       0.414700
       1871.00        21.9200         0.9000         1.9821       0.419500
       1871.50        22.2517         0.8996         1.9841       0.425700
       1872.00        22.6550         0.8729         1.9864       0.431700
       1872.50        23.0583         0.8462         1.9883       0.436000
       1873.00        23.2600         0.8200         1.9894       0.438300
       1873.50        23.2600         0.8194         1.9899       0.439000
       1874.00        23.2600         0.7844         1.9900       0.439200
       1874.50        23.2600         0.7500         1.9900       0.439200
       1875.00        23.2600         0.7500         1.9905       0.439200
       1875.50        23.2600         0.7500         1.9922       0.439000
       1876.00        23.2600         0.7506         1.9957       0.438700
       1876.50        20.8800         0.7900         2.0006       0.438300
       1877.00        20.8800         0.7901         2.0052       0.438200
       1877.50        21.4650         0.7952         2.0083       0.439200
       1878.00        22.0500         0.8052         2.0097       0.442300
       1878.50        22.0500         0.8153         2.0100       0.447900
       1879.00        24.5000         0.8335         2.0100       0.455700
       1879.50        24.5000         0.8469         2.0100       0.464100
       1880.00        23.8800         0.8598         2.0102       0.471500
       1880.50        23.2600         0.8464         2.0108       0.476800
       1881.00        23.2600         0.8332         2.0121       0.480000
       1881.50        20.8800         0.8269         2.0141       0.481600
       1882.00        20.8800         0.8402         2.0164       0.482200
       1882.50        20.8800         0.8525         2.0183       0.482100
       1883.00        23.2600         0.8024         2.0194       0.481000
       1883.50        23.2600         0.7457         2.0199       0.479100
       1884.00        22.0700         0.6900         2.0200       0.477000
       1884.50        20.8800         0.6906         2.0200       0.475500
       1885.00        31.3900         0.7261         2.0200       0.475500
       1885.50        41.9000         0.7962         2.0200       0.477100
       1886.00        41.9000         0.8668         2.0200       0.480200
       1886.50        59.9400         0.9779         2.0200       0.484300
       1887.00        59.9400         1.0546         2.0205       0.489200
       1887.50        65.0500         1.1297         2.0217       0.494600
       1888.00        70.1600         1.1131         2.0240       0.500300
