~Version Information Block
VERS .                  2.0:  CWLS LOG ASCII STANDARD - VERSION 2.0
WRAP .                   NO:  One line per depth step
~Well Information Block
#MNEM.UNIT        Data Type   Information
#---------- ----------------  -----------
STRT .FT            1300.00:  START DEPTH
STOP .FT            8397.00:  STOP DEPTH
STEP .FT               0.50:  STEP
NULL .              -999.25:  NULL VALUE
COMP .                     :  COMPANY
WELL .              SA-44HZ:  WELL
FLD  .                     :  FIELD
LOC  .                     :  LOCATION
CTRY .                     :  COUNTRY
STAT .                     :  STATE
CNTY .                     :  COUNTY
SRVC .                     :  SERVICE COMPANY
DATE .                     :  DATE
API  .                     :  API NUMBER
UWI  .                     :  UNIQUE WELL ID
~Curve Information Block
#MNEM.UNIT         API CODE   Curve Description
#---------- ----------------  -----------------
DEPTH.FT                   :  DEPTH
GR   .GAPI                 :  Gamma Ray
RT   .OHMM                 :  Deep resistivity
RHOB .G/C3                 :  Bulk density
NPHI .V/V                  :  Neutron porosity
~Parameter Information Block
#MNEM.UNIT            Value   Description
#---------- ----------------  -----------
PROJECT.            SERANG_FE:  
~Other Information Block
# 
~A       DEPTH             GR             RT           RHOB           NPHI 
# ...
       4135.50        88.7333         1.2869         2.1732       0.453200
       4136.00        89.4000         1.2620         2.1648       0.455600
       4136.50        90.1570         1.2400         2.1541       0.457500
       4137.00        90.8281         1.2400         2.1436       0.459300
       4137.50        91.5037         1.2400         2.1348       0.461100
       4138.00        92.1363         1.2400         2.1280       0.463300
       4138.50        92.5430         1.2400         2.1226       0.465800
       4139.00        92.4074         1.2423         2.1184       0.468400
       4139.50        91.8200         1.2672         2.1150       0.470400
       4140.00        91.1422         1.2900         2.1126       0.471100
       4140.50        90.4711         1.2900         2.1112       0.469900
       4141.00        89.5422         1.2900         2.1104       0.466600
       4141.50        88.1767         1.2900         2.1100       0.462100
       4142.00        86.6811         1.2900         2.1097       0.457700
       4142.50        85.4978         1.2900         2.1091       0.454100
       4143.00        84.6700         1.2900         2.1081       0.451600
       4143.50        84.2367         1.2900         2.1066       0.449300
       4144.00        84.2367         1.2887         2.1049       0.447000
       4144.50        84.7133         1.2638         2.1032       0.444400
       4145.00        85.2333         1.2400         2.1018       0.442000
       4145.50        85.3633         1.2373         2.1008       0.439600
       4146.00        84.9733         1.1676         2.1003       0.436900
       4146.50        84.1144         1.0979         2.0999       0.433700
       4147.00        82.8378         1.0285         2.0993       0.430400
       4147.50        81.0645         0.9721         2.0981       0.427100
       4148.00        79.2122         0.9156         2.0957       0.423900
       4148.50        77.2189         0.8600         2.0921       0.420400
       4149.00        75.0222         0.8598         2.0873       0.416400
       4149.50        72.3700         0.8399         2.0822       0.412400
       4150.00        69.9700         0.8200         2.0775       0.409500
       4150.50        67.8644         0.8200         2.0740       0.408800
       4151.00        65.3878         0.8200         2.0717       0.410900
       4151.50        62.0600         0.8052         2.0705       0.415300
       4152.00        58.7322         0.7902         2.0697       0.420600
       4152.50        56.7355         0.7900         2.0688       0.425100
       4153.00        56.0700         0.7900         2.0672       0.427700
       4153.50        56.1767         0.7900         2.0647       0.428400
       4154.00        56.4967         0.7900         2.0616       0.428000
       4154.50        57.0300         0.7918         2.0582       0.426800
       4155.00        57.5633         0.7960         2.0550       0.424500
       4155.50        57.9917         0.8063         2.0527       0.419500
       4156.00        58.4233         0.8245         2.0513       0.410600
       4156.50        59.2164         0.8502         2.0508       0.397800
       4157.00        59.2435         0.8802         2.0515       0.383800
       4157.50        59.1674         0.9104         2.0538       0.371900
       4158.00        58.8279         0.9372         2.0584       0.364300
       4158.50        58.1402         0.9585         2.0657       0.360800
       4159.00        57.1135         0.9735         2.0751       0.359700
       4159.50        55.8461         0.9828         2.0854       0.359500
       4160.00        54.4904         1.0028         2.0948       0.359100
       4160.50        53.2166         1.0517         2.1019       0.357400
       4161.00        52.1359         1.1324         2.1064       0.353100
       4161.50        51.2709         1.2155         2.1087       0.345500
       4162.00        50.5736         1.2684         2.1096       0.335600
       4162.50        49.9946         1.2883         2.1099       0.326000
       4163.00        49.5178         1.2900         2.1100       0.319100
       4163.50        49.1577         1.2900         2.1100       0.315400
       4164.00        48.9229         1.2900         2.1100       0.314200
       4164.50        48.7984         1.2900         2.1100       0.313900
       4165.00        48.7471         1.2900         2.1100       0.314400
       4165.50        48.7324         1.2900         2.1100       0.316400
       4166.00        48.7300         1.2900         2.1100       0.322500
       4166.50        50.5500         1.1661         2.1100       0.334600
       4167.00        52.3700         1.0234         2.1101       0.352400
       4167.50        54.1900         0.8807         2.1103       0.372700
       4168.00        54.1754         0.8600         2.1109       0.391200
       4168.50        54.0878         0.8600         2.1119       0.405900
       4169.00        53.7813         0.8600         2.1133       0.417800
       4169.50        53.0516         0.8600         2.1150       0.428900
       4170.00        51.7380         0.8597         2.1167       0.439400
       4170.50        49.8990         0.8587         2.1181       0.447300
       4171.00        47.8410         0.8565         2.1191       0.450000
       4171.50        46.0020         0.8530         2.1196       0.446100
       4172.00        44.6884         0.8489         2.1194       0.436800
       4172.50        43.9587         0.8459         2.1182       0.425300
       4173.00        43.6522         0.8248         2.1151       0.415100
       4173.50        43.5646         0.8200         2.1090       0.408600
       4174.00        43.5500         0.8200         2.0994       0.405500
       4174.50        43.5500         0.8200         2.0869       0.404600
       4175.00        43.4285         0.8200         2.0732       0.404400
       4175.50        43.0641         0.8200         2.0606       0.404600
       4176.00        42.3352         0.8122         2.0510       0.405600
       4176.50        41.4848         0.8022         2.0449       0.407900
       4177.00        40.7559         0.7922         2.0418       0.412200
       4177.50        40.4519         0.7900         2.0405       0.417700
       4178.00        40.5115         0.7900         2.0401       0.423400
       4178.50        40.8737         0.7976         2.0400       0.428000
       4179.00        41.2359         0.8076         2.0400       0.431700
       4179.50        41.4170         0.8176         2.0401       0.435300
       4180.00        41.2063         0.8300         2.0402       0.439400
       4180.50        40.7256         0.8383         2.0406       0.443700
       4181.00        40.1263         0.8450         2.0415       0.447100
       4181.50        39.6785         0.8368         2.0430       0.448400
       4182.00        39.4996         0.8480         2.0453       0.447300
       4182.50        39.8663         0.8680         2.0483       0.444000
       4183.00        40.8774         0.8927         2.0515       0.439400
       4183.50        42.6033         0.9096         2.0546       0.434700
       4184.00        44.7959         0.9229         2.0570       0.430200
       4184.50        47.3256         0.9469         2.0586       0.425900
       4185.00        50.2378         0.9763         2.0598       0.421700
       4185.50        53.4274         1.0062         2.0609       0.417800
       4186.00        56.7596         1.0372         2.0622       0.414800
       4186.50        59.9733         1.0583         2.0642       0.412800
       4187.00        63.1337         1.0749         2.0668       0.412000
       4187.50        66.2661         1.0685         2.0699       0.412000
       4188.00        68.7463         1.0519         2.0733       0.412500
       4188.50        70.0496         1.0353         2.0768       0.413000
