~Version Information Block
VERS .                  2.0:  CWLS LOG ASCII STANDARD - VERSION 2.0
WRAP .                   NO:  One line per depth step
~Well Information Block
#MNEM.UNIT        Data Type   Information
#---------- ----------------  -----------
STRT .FT            3086.50:  START DEPTH
STOP .FT            8458.50:  STOP DEPTH
STEP .FT               0.50:  STEP
NULL .              -999.25:  NULL VALUE
COMP .                     :  COMPANY
WELL .            SA-5RD1HZ:  WELL
FLD  .                     :  FIELD
LOC  .                     :  LOCATION
CTRY .                     :  COUNTRY
STAT .                     :  STATE
CNTY .                     :  COUNTY
SRVC .                     :  SERVICE COMPANY
DATE .                     :  DATE
API  .                     :  API NUMBER
UWI  .                     :  UNIQUE WELL ID
~Curve Information Block
#MNEM.UNIT         API CODE   Curve Description
#---------- ----------------  -----------------
DEPTH.FT                   :  DEPTH
GR   .GAPI                 :  Gamma Ray
RT   .OHMM                 :  Deep resistivity
RHOB .G/C3                 :  Bulk density
NPHI .V/V                  :  Neutron porosity
~Parameter Information Block
#MNEM.UNIT            Value   Description
#---------- ----------------  -----------
PROJECT.            SERANG_FE:  
~Other Information Block
# 
~A       DEPTH             GR             RT           RHOB           NPHI 
# ...
       7313.00        89.9940         3.7100         2.5050       0.371000
       7313.50        87.0360         3.7920         2.5060       0.370000
       7314.00        84.0790         4.0900         2.4960       0.367000
       7314.50        81.9660         4.2380         2.4820       0.354000
       7315.00        82.8110         4.7800         2.4540       0.339000
       7315.50        81.9660         4.8230         2.4190       0.331000
       7316.00        79.0090         5.0610         2.4000       0.327000
       7316.50        76.0510         5.3600         2.4030       0.318000
       7317.00        74.3610         5.5600         2.4160       0.311000
       7317.50        73.9380         6.4980         2.4270       0.307000
       7318.00        76.0510         7.2600         2.4170       0.298000
       7318.50        75.2060         7.3160         2.4050       0.290000
       7319.00        74.3610         7.9230         2.3850       0.288000
       7319.50        68.8680         9.4000         2.3700       0.278000
       7320.00        66.7560         9.5420         2.3720       0.268000
       7320.50        65.4880        10.0600         2.3830       0.257000
       7321.00        65.9110        10.2530         2.4010       0.238000
       7321.50        66.3330        10.9600         2.4110       0.228000
       7322.00        64.6430        11.0290         2.4180       0.220000
       7322.50        63.3760        11.2090         2.3980       0.218000
       7323.00        60.4180        10.9500         2.3780       0.208000
       7323.50        58.7280        11.1990         2.3480       0.200000
       7324.00        54.9260        12.1100         2.3090       0.199000
       7324.50        50.7010        12.0430         2.2800       0.190000
       7325.00        46.8980        11.6090         2.2500       0.189000
       7325.50        44.3630        10.9100         2.2500       0.179000
       7326.00        43.9410        10.5520         2.2400       0.169000
       7326.50        43.5180         9.3090         2.2400       0.161000
       7327.00        43.0960         9.5600         2.2220       0.162000
       7327.50        42.6730         9.4460         2.2020       0.171000
       7328.00        41.8280         9.0300         2.2090       0.181000
       7328.50        42.6730         8.8690         2.2270       0.189000
       7329.00        43.5180         8.2800         2.2470       0.190000
       7329.50        45.6310         8.2370         2.2500       0.190000
       7330.00        45.6310         8.1040         2.2340       0.190000
       7330.50        45.6310         8.1900         2.2140       0.188000
       7331.00        44.7860         8.1390         2.2100       0.182000
       7331.50        45.2080         7.9240         2.2400       0.180000
       7332.00        44.3630         7.8810         2.2720       0.180000
       7332.50        43.0960         8.1410         2.2870       0.183000
       7333.00        44.3630         8.4000         2.2900       0.191000
       7333.50        46.8980         8.9020         2.3030       0.198000
       7334.00        48.5880        11.2810         2.3040       0.200000
       7334.50        47.3210        13.2600         2.2880       0.197000
       7335.00        43.9410        14.2490         2.2620       0.192000
       7335.50        41.4060        18.7630         2.2380       0.190000
       7336.00        39.7160        22.0300         2.2240       0.192000
       7336.50        41.8280        22.1830         2.2200       0.200000
       7337.00        43.9410        22.8300         2.2310       0.210000
       7337.50        47.7430        22.7010         2.2600       0.219000
       7338.00        49.8560        17.0770         2.3000       0.229000
       7338.50        52.8130        13.6300         2.3340       0.239000
       7339.00        56.1930        13.1840         2.3450       0.249000
       7339.50        59.5730        12.3220         2.3440       0.259000
       7340.00        61.6860        12.7600         2.3500       0.269000
       7340.50        61.2630        11.6530         2.3540       0.278000
       7341.00        60.8410        10.0700         2.3560       0.288000
       7341.50        62.5310         9.6350         2.3500       0.298000
       7342.00        64.2210         8.6750         2.3470       0.308000
       7342.50        66.3330         8.1210         2.3310       0.316000
       7343.00        68.0230         7.3300         2.3100       0.321000
       7343.50        69.7130         7.3240         2.3210       0.327000
       7344.00        74.3610         6.6200         2.3680       0.336000
       7344.50        75.6280         6.5600         2.4320       0.340000
       7345.00        78.5860         5.5270         2.4680       0.340000
       7345.50        78.1630         4.6280         2.4600       0.339000
       7346.00        79.8540         4.3500         2.4600       0.334000
       7346.50        79.8540         4.0850         2.4600       0.324000
       7347.00        80.2760         3.8200         2.4570       0.314000
       7347.50        81.9660         3.8230         2.4370       0.305000
       7348.00        84.9240         3.8050         2.4100       0.305000
       7348.50        86.6140         3.7300         2.4090       0.315000
       7349.00        89.1490         3.7120         2.3990       0.325000
       7349.50        90.4160         3.5000         2.3890       0.335000
       7350.00        92.5290         3.5000         2.3700       0.340000
       7350.50        90.8390         3.3400         2.3600       0.336000
       7351.00        89.1490         3.0700         2.3800       0.334000
       7351.50        86.1910         2.9700         2.4000       0.340000
       7352.00        84.9240         2.9000         2.4300       0.344000
       7352.50        83.2340         2.8500         2.4300       0.359000
       7353.00        82.8110         2.7600         2.4400       0.374000
       7353.50        84.5010         2.7600         2.4400       0.384000
       7354.00        86.6140         2.7500         2.4400       0.386000
       7354.50        88.7260         2.7500         2.4500       0.371000
       7355.00        89.1490         2.6900         2.4400       0.360000
       7355.50        89.5710         2.7200         2.4300       0.364000
       7356.00        90.8390         2.6900         2.4200       0.374000
       7356.50        91.6840         2.6900         2.4100       0.376000
       7357.00        90.8390         2.6000         2.4100       0.366000
       7357.50        89.1490         2.6000         2.4100       0.360000
       7358.00        86.6140         2.6000         2.4200       0.356000
       7358.50        85.7690         2.5300         2.4200       0.350000
       7359.00        86.1910         2.5300         2.4100       0.350000
       7359.50        87.4590         2.6100         2.4000       0.350000
       7360.00        89.5710         2.6100         2.3900       0.354000
       7360.50        90.4160         2.6700         2.4000       0.364000
       7361.00        89.1490         2.6700         2.4100       0.374000
       7361.50        87.0360         2.6700         2.4200       0.384000
       7362.00        86.6140         2.6700         2.4100       0.390000
       7362.50        88.3040         2.6900         2.4100       0.390000
       7363.00        90.4160         2.6900         2.4200       0.390000
       7363.50        90.4160         2.6900         2.4200       0.390000
       7364.00        90.4160         2.7100         2.4200       0.390000
       7364.50        89.1490         2.7100         2.4300       0.386000
       7365.00        88.3040         2.7100         2.4500       0.376000
       7365.50        87.4590         2.7100         2.4500       0.370000
       7366.00        88.3040         2.8100         2.4300       0.370000
