~Version Information Block
VERS .                  2.0:  CWLS LOG ASCII STANDARD - VERSION 2.0
WRAP .                   NO:  One line per depth step
~Well Information Block
#MNEM.UNIT        Data Type   Information
#---------- ----------------  -----------
STRT .FT            3086.50:  START DEPTH
STOP .FT            8458.50:  STOP DEPTH
STEP .FT               0.50:  STEP
NULL .              -999.25:  NULL VALUE
COMP .                     :  COMPANY
WELL .            SA-5RD1HZ:  WELL
FLD  .                     :  FIELD
LOC  .                     :  LOCATION
CTRY .                     :  COUNTRY
STAT .                     :  STATE
CNTY .                     :  COUNTY
SRVC .                     :  SERVICE COMPANY
DATE .                     :  DATE
API  .                     :  API NUMBER
UWI  .                     :  UNIQUE WELL ID
~Curve Information Block
#MNEM.UNIT         API CODE   Curve Description
#---------- ----------------  -----------------
DEPTH.FT                   :  DEPTH
GR   .GAPI                 :  Gamma Ray
RT   .OHMM                 :  Deep resistivity
RHOB .G/C3                 :  Bulk density
NPHI .V/V                  :  Neutron porosity
~Parameter Information Block
#MNEM.UNIT            Value   Description
#---------- ----------------  -----------
PROJECT.            SERANG_FE:  
~Other Information Block
# 
~A       DEPTH             GR             RT           RHOB           NPHI 
# ...
       8383.00        14.3650       142.8800         2.0200       0.200000
       8383.50        13.0980       130.3600         2.0300       0.200000
       8384.00        12.6750       146.9700         2.0300       0.200000
       8384.50        13.5200       144.0300         2.0200       0.200000
       8385.00        13.9430       136.8700         2.0100       0.200000
       8385.50        12.6750       140.6400         2.0100       0.190000
       8386.00        11.4080       130.8400         2.0000       0.200000
       8386.50        11.4080       139.5400         2.0100       0.200000
       8387.00        12.2530       134.8100         2.0100       0.200000
       8387.50        13.0980       135.8300         2.0200       0.200000
       8388.00        13.0980       140.1000         2.0200       0.200000
       8388.50        12.6750       132.3000         2.0200       0.200000
       8389.00        12.6750       133.8000         2.0100       0.200000
       8389.50        12.2530       133.7900         2.0000       0.200000
       8390.00        12.2530       140.0900         1.9900       0.200000
       8390.50        11.8300       131.3200         1.9900       0.190000
       8391.00        12.2530       135.8300         1.9900       0.190000
       8391.50        12.2530       128.9400         2.0000       0.190000
       8392.00        11.4080       141.2000         2.0200       0.190000
       8392.50        11.4080       139.5500         2.0300       0.200000
       8393.00        11.4080       122.6700         2.0400       0.200000
       8393.50        12.6750       136.3500         2.0400       0.190000
       8394.00        12.2530       130.8400         2.0300       0.190000
       8394.50        13.0980       123.9600         2.0300       0.190000
       8395.00        12.2530       122.6700         2.0300       0.190000
       8395.50        13.0980       123.5200         2.0300       0.200000
       8396.00        13.5200       116.1600         2.0300       0.190000
       8396.50        13.5200       109.2300         2.0200       0.200000
       8397.00        13.0980       113.1500         2.0200       0.200000
       8397.50        11.8300       120.5600         2.0000       0.200000
       8398.00        12.2530       116.1600         2.0100       0.210000
       8398.50        11.4080       109.2300         1.9900       0.200000
       8399.00        10.9850       113.1400         1.9900       0.200000
       8399.50        11.4080       108.5400         1.9700       0.190000
       8400.00        11.8300       110.9800         1.9800       0.190000
       8400.50        12.6750       120.1500         2.0000       0.190000
       8401.00        11.4080       113.8900         2.0000       0.200000
       8401.50        10.5630       117.3300         2.0100       0.200000
       8402.00        10.1400       120.9800         2.0100       0.210000
       8402.50        10.5630       103.9600         2.0200       0.210000
       8403.00        11.8300       105.8800         2.0200       0.200000
       8403.50        11.8300       110.9700         2.0300       0.200000
       8404.00        12.6750       118.5200         2.0300       0.200000
       8404.50        12.2530       120.9700         2.0200       0.200000
       8405.00        13.0980       115.3900         2.0200       0.200000
       8405.50        12.6750       113.8800         2.0100       0.200000
       8406.00        13.0980       106.2000         2.0100       0.210000
       8406.50        12.2530       102.4100         2.0200       0.210000
       8407.00        11.8300       110.2700         2.0200       0.210000
       8407.50        11.4080       104.9100         2.0200       0.210000
       8408.00        11.8300       105.5500         2.0200       0.210000
       8408.50        12.2530        97.9600         2.0200       0.210000
       8409.00        12.2530       105.8800         2.0200       0.210000
       8409.50        11.8300        96.8100         2.0200       0.200000
       8410.00        11.4080       107.8600         2.0200       0.200000
       8410.50        11.4080       111.6900         2.0200       0.190000
       8411.00        11.4080       110.6200         2.0200       0.180000
       8411.50        11.4080       112.7700         2.0200       0.180000
       8412.00        11.4080       108.8800         2.0200       0.180000
       8412.50        11.4080       113.8800         2.0200       0.180000
       8413.00        11.4080       110.2700         2.0300       0.180000
       8413.50        11.4080       109.2200         2.0300       0.180000
       8414.00        11.8300       109.2200         2.0300       0.180000
       8414.50        12.2530       110.9800         2.0200       0.180000
       8415.00        13.0980       110.9800         2.0100       0.190000
       8415.50        13.5200       113.1400         2.0100       0.190000
       8416.00        14.3650       113.1400         2.0100       0.180000
       8416.50        14.7880       113.1400         2.0100       0.190000
       8417.00        15.2100       108.5400         2.0100       0.190000
       8417.50        15.2100       108.5400         2.0200       0.190000
       8418.00        15.2100       108.8800         2.0200       0.200000
       8418.50        15.2100       108.8800         2.0200       0.190000
       8419.00        15.2100       108.8800         2.0200       0.190000
       8419.50        15.6330       101.8000         2.0200       0.190000
       8420.00        16.0550       101.8000         2.0300       0.190000
       8420.50        16.4780        96.2500         2.0200       0.190000
       8421.00        16.4780        96.2500         2.0200       0.180000
       8421.50        16.4780        97.9600         2.0100       0.180000
       8422.00        16.4780        97.9600         2.0200       0.180000
       8422.50        16.0550        97.9600         2.0300    -999.250000
       8423.00        15.6330        98.5400         2.0300    -999.250000
       8423.50        15.6330        98.5400         2.0400    -999.250000
       8424.00        16.4780       100.0200         2.0500    -999.250000
       8424.50        17.3230       100.0200         2.0600    -999.250000
       8425.00        17.7450        95.9700         2.0600    -999.250000
       8425.50        17.3230        95.9700      -999.2500    -999.250000
       8426.00        16.9000        95.9700      -999.2500    -999.250000
       8426.50        16.4780        91.1900      -999.2500    -999.250000
       8427.00        16.4780        91.1900      -999.2500    -999.250000
       8427.50        16.0550        91.1900      -999.2500    -999.250000
       8428.00        15.6330        91.1900      -999.2500    -999.250000
       8428.50        15.6330        91.1900      -999.2500    -999.250000
       8429.00        16.4780        87.5300      -999.2500    -999.250000
       8429.50        17.3230        87.5300      -999.2500    -999.250000
       8430.00        17.7450        87.5300      -999.2500    -999.250000
       8430.50        17.7450        83.7000      -999.2500    -999.250000
       8431.00        17.7450        83.7000      -999.2500    -999.250000
       8431.50        18.1680        88.7300      -999.2500    -999.250000
       8432.00        18.5900        89.4500      -999.2500    -999.250000
       8432.50        18.5900        89.4500      -999.2500    -999.250000
       8433.00        18.1680        93.5300      -999.2500    -999.250000
       8433.50        18.5900        93.5300      -999.2500    -999.250000
       8434.00        19.4350        93.5300      -999.2500    -999.250000
       8434.50        20.2800       115.7700      -999.2500    -999.250000
       8435.00        21.9700       115.7700      -999.2500    -999.250000
       8435.50        23.6600       127.0800      -999.2500    -999.250000
       8436.00        26.1950       127.0800      -999.2500    -999.250000
