~Version Information Block
VERS .                  2.0:  CWLS LOG ASCII STANDARD - VERSION 2.0
WRAP .                   NO:  One line per depth step
~Well Information Block
#MNEM.UNIT        Data Type   Information
#---------- ----------------  -----------
STRT .FT            3086.50:  START DEPTH
STOP .FT            8458.50:  STOP DEPTH
STEP .FT               0.50:  STEP
NULL .              -999.25:  NULL VALUE
COMP .                     :  COMPANY
WELL .            SA-5RD1HZ:  WELL
FLD  .                     :  FIELD
LOC  .                     :  LOCATION
CTRY .                     :  COUNTRY
STAT .                     :  STATE
CNTY .                     :  COUNTY
SRVC .                     :  SERVICE COMPANY
DATE .                     :  DATE
API  .                     :  API NUMBER
UWI  .                     :  UNIQUE WELL ID
~Curve Information Block
#MNEM.UNIT         API CODE   Curve Description
#---------- ----------------  -----------------
DEPTH.FT                   :  DEPTH
GR   .GAPI                 :  Gamma Ray
RT   .OHMM                 :  Deep resistivity
RHOB .G/C3                 :  Bulk density
NPHI .V/V                  :  Neutron porosity
~Parameter Information Block
#MNEM.UNIT            Value   Description
#---------- ----------------  -----------
PROJECT.            SERANG_FE:  
~Other Information Block
# 
~A       DEPTH             GR             RT           RHOB           NPHI 
# ...
       6296.50        17.3230        30.6880         2.2100       0.151000
       6297.00        17.3230        34.5180         2.0600       0.168000
       6297.50        16.4780        35.9400         1.8600       0.207000
       6298.00        16.4780        37.6070         1.5900       0.286000
       6298.50        16.9000        36.7360         1.4200       0.436000
       6299.00        17.7450        33.4420         1.3200       0.540000
       6299.50        17.7450        30.3690         1.2900       0.559000
       6300.00        17.7450        27.2860         1.3600       0.476000
       6300.50        17.7450        24.4300         1.4700       0.363000
       6301.00        17.7450        20.5460         1.6400       0.290000
       6301.50        19.8580        17.1020         1.8500       0.232000
       6302.00        21.9700        16.0070         2.0300       0.196000
       6302.50        24.0830        15.6560         2.1400       0.182000
       6303.00        22.3930        15.1020         2.1300       0.180000
       6303.50        19.8580        15.2330         2.1200       0.180000
       6304.00        17.3230        15.4860         2.1200       0.172000
       6304.50        17.3230        15.7280         2.1100       0.154000
       6305.00        18.1680        15.8120         2.0900       0.135000
       6305.50        18.1680        15.6110         2.0900       0.122000
       6306.00        17.3230        15.5100         2.0800       0.120000
       6306.50        16.9000        14.9720         2.0800       0.120000
       6307.00        17.3230        14.6340         2.0700       0.128000
       6307.50        17.7450        14.6500         2.0700       0.130000
       6308.00        17.7450        15.0520         2.0600       0.130000
       6308.50        19.0130        15.3200         2.0400       0.130000
       6309.00        20.2800        14.5560         2.0100       0.130000
       6309.50        21.5480        14.0500         2.0100       0.123000
       6310.00        21.5480        14.0020         2.0600       0.120000
       6310.50        21.9700        13.7290         2.0900       0.113000
       6311.00        22.3930        13.2260         2.1000       0.103000
       6311.50        24.5050        13.1150         2.1000       0.100000
       6312.00        26.1950        12.9240         2.1500       0.107000
       6312.50        28.7300        11.9810         2.2100       0.117000
       6313.00        29.5750        11.6140         2.2400       0.120000
       6313.50        30.4200        11.2990         2.2200       0.113000
       6314.00        29.9980        11.0400         2.2000       0.117000
       6314.50        29.5750        11.0400         2.1800       0.120000
       6315.00        29.1530        11.5760         2.2300       0.120000
       6315.50        28.3080        11.9200         2.2700       0.120000
       6316.00        27.4630        10.7410         2.2700       0.120000
       6316.50        26.6180         9.9900         2.2600       0.120000
       6317.00        25.7730         9.8550         2.2700       0.127000
       6317.50        24.9280         9.7700         2.2900       0.123000
       6318.00        24.0830         9.2120         2.3200       0.120000
       6318.50        26.1950         8.8600         2.3700       0.120000
       6319.00        28.3080         6.9240         2.4300       0.127000
       6319.50        30.4200         4.9040         2.5200       0.130000
       6320.00        30.4200         4.2150         2.5300       0.137000
       6320.50        31.6880         4.1000         2.5100       0.140000
       6321.00        35.4900         4.1000         2.5100       0.146000
       6321.50        39.2930         3.1720         2.5100       0.156000
       6322.00        41.8280         2.6000         2.5200       0.179000
       6322.50        40.1380         2.6000         2.5000       0.208000
       6323.00        39.2930         2.2960         2.5000       0.225000
       6323.50        38.8710         2.1100         2.4500       0.236000
       6324.00        40.1380         2.1100         2.4100       0.252000
       6324.50        40.5610         1.8550         2.3700       0.277000
       6325.00        40.9830         1.7000         2.3800       0.307000
       6325.50        41.4060         1.7000         2.4000       0.325000
       6326.00        41.8280         1.6310         2.4100       0.324000
       6326.50        41.8280         1.5900         2.4400       0.303000
       6327.00        43.0960         1.5900         2.4500       0.297000
       6327.50        44.3630         1.3830         2.4200       0.299000
       6328.00        45.6310         1.2600         2.4000       0.317000
       6328.50        47.3210         0.8960         2.3800       0.334000
       6329.00        49.0110         0.6800         2.3900       0.345000
       6329.50        47.7430         0.9060         2.4100       0.344000
       6330.00        43.5180         1.0400         2.4400       0.329000
       6330.50        38.4480         1.3870         2.4500       0.310000
       6331.00        35.9130         1.7600         2.4500       0.290000
       6331.50        34.6450         1.9480         2.4600       0.281000
       6332.00        34.2230         2.0000         2.4600       0.275000
       6332.50        34.2230         1.9300         2.4400       0.271000
       6333.00        36.7580         1.8900         2.4300       0.275000
       6333.50        39.2930         1.5030         2.4400       0.290000
       6334.00        41.8280         1.2800         2.4400       0.309000
       6334.50        40.1380         1.6740         2.4400       0.324000
       6335.00        38.4480         1.9000         2.4400       0.324000
       6335.50        36.7580         1.9000         2.4400       0.321000
       6336.00        38.0260         1.5370         2.4200       0.320000
       6336.50        39.2930         1.4580         2.4000       0.325000
       6337.00        42.6730         1.5300         2.3800       0.339000
       6337.50        43.5180         1.6260         2.3900       0.348000
       6338.00        44.3630         2.0510         2.3900       0.344000
       6338.50        40.5610         2.7280         2.4020       0.322000
       6339.00        37.6030         2.9900         2.4230       0.285000
       6339.50        34.6450         2.9900         2.4470       0.245000
       6340.00        32.5330         2.9900         2.4800       0.210000
       6340.50        30.8430         3.9550         2.5130       0.186000
       6341.00        27.0400         4.4900         2.5150       0.169000
       6341.50        22.8150         4.4900         2.4650       0.150000
       6342.00        19.8580         7.0850         2.3930       0.132000
       6342.50        19.0130         8.5100         2.3170       0.126000
       6343.00        21.5480         8.5100         2.2580       0.129000
       6343.50        21.9700         8.7820         2.2410       0.134000
       6344.00        21.5480        10.2340         2.2500       0.135000
       6344.50        19.4350        10.9400         2.2970       0.132000
       6345.00        18.1680        10.7520         2.3920       0.142000
       6345.50        19.0130        10.6500         2.4620       0.157000
       6346.00        23.6600         8.5610         2.4870       0.177000
       6346.50        29.1530         5.1780         2.4560       0.203000
       6347.00        35.9130         3.5400         2.4400       0.230000
       6347.50        39.2930         2.8140         2.4240       0.254000
       6348.00        44.3630         2.4190         2.4200       0.281000
       6348.50        48.1660         2.1730         2.4280       0.306000
       6349.00        54.9260         2.0800         2.4470       0.331000
       6349.50        62.9530         1.6540         2.4500       0.303000
