~Version Information Block
VERS .                  2.0:  CWLS LOG ASCII STANDARD - VERSION 2.0
WRAP .                   NO:  One line per depth step
~Well Information Block
#MNEM.UNIT        Data Type   Information
#---------- ----------------  -----------
STRT .FT            3086.50:  START DEPTH
STOP .FT            8458.50:  STOP DEPTH
STEP .FT               0.50:  STEP
NULL .              -999.25:  NULL VALUE
COMP .                     :  COMPANY
WELL .            SA-5RD1HZ:  WELL
FLD  .                     :  FIELD
LOC  .                     :  LOCATION
CTRY .                     :  COUNTRY
STAT .                     :  STATE
CNTY .                     :  COUNTY
SRVC .                     :  SERVICE COMPANY
DATE .                     :  DATE
API  .                     :  API NUMBER
UWI  .                     :  UNIQUE WELL ID
~Curve Information Block
#MNEM.UNIT         API CODE   Curve Description
#---------- ----------------  -----------------
DEPTH.FT                   :  DEPTH
GR   .GAPI                 :  Gamma Ray
RT   .OHMM                 :  Deep resistivity
RHOB .G/C3                 :  Bulk density
NPHI .V/V                  :  Neutron porosity
~Parameter Information Block
#MNEM.UNIT            Value   Description
#---------- ----------------  -----------
PROJECT.            SERANG_FE:  
~Other Information Block
# 
~A       DEPTH             GR             RT           RHOB           NPHI 
# ...
       6617.50        62.1080         1.2000         2.4100       0.331000
       6618.00        61.2630         1.2000         2.4140       0.316000
       6618.50        60.4180         1.2200         2.4200       0.306000
       6619.00        62.9530         1.2200         2.4200       0.305000
       6619.50        65.0660         1.1700         2.4200       0.315000
       6620.00        66.7560         1.1700         2.4240       0.325000
       6620.50        66.3330         1.2100         2.4340       0.335000
       6621.00        65.4880         1.2900         2.4360       0.345000
       6621.50        64.2210         1.2900         2.4210       0.355000
       6622.00        62.9530         1.4300         2.3970       0.374000
       6622.50        57.8830         1.4300         2.3050       0.408000
       6623.00        53.6580         2.7500         2.1220       0.434000
       6623.50        49.4330         2.7500         1.9740       0.458000
       6624.00        50.2780         3.8500         1.9570       0.450000
       6624.50        52.3910         3.8500         2.0790       0.448000
       6625.00        54.5030         1.9600         2.2630       0.454000
       6625.50        53.2360         0.9500         2.3650       0.447000
       6626.00        50.7010         0.9500         2.3640       0.409000
       6626.50        45.6310         0.9500         2.3470       0.363000
       6627.00        43.0960         1.5400         2.3370       0.323000
       6627.50        40.5610         1.5400         2.3230       0.301000
       6628.00        39.2930         0.9200         2.3120       0.293000
       6628.50        37.1810         0.9200         2.3050       0.290000
       6629.00        36.3350         0.9400         2.2950       0.290000
       6629.50        36.7580         1.0300         2.3030       0.290000
       6630.00        38.8710         1.0300         2.3100       0.293000
       6630.50        38.4480         1.1700         2.3100       0.295000
       6631.00        38.0260         1.1700         2.2960       0.288000
       6631.50        35.0680         1.9500         2.2610       0.273000
       6632.00        32.5330         1.9500         2.1830       0.251000
       6632.50        29.9980         2.5000         2.1070       0.229000
       6633.00        29.1530         2.5000         2.0510       0.206000
       6633.50        28.7300         2.8900         2.0160       0.183000
       6634.00        28.7300         2.8900         1.9940       0.162000
       6634.50        30.8430         2.8500         1.9730       0.152000
       6635.00        33.3780         2.8500         1.9700       0.153000
       6635.50        35.0680         2.8200         1.9870       0.166000
       6636.00        33.3780         2.8200         2.0080       0.178000
       6636.50        31.6880         2.9400         2.0190       0.179000
       6637.00        30.8430         3.0300         2.0110       0.174000
       6637.50        31.2650         2.9600         2.0190       0.165000
       6638.00        31.6880         2.9600         2.0390       0.159000
       6638.50        30.8430         2.8300         2.0600       0.154000
       6639.00        30.4200         2.8300         2.0600       0.158000
       6639.50        31.2650         2.6300         2.0700       0.161000
       6640.00        32.5330         2.5800         2.0800       0.169000
       6640.50        32.5330         2.5800         2.0910       0.172000
       6641.00        30.8430         2.3500         2.1000       0.180000
       6641.50        31.6880         2.1700         2.0990       0.180000
       6642.00        31.2650         2.1300         2.0900       0.183000
       6642.50        32.5330         2.0100         2.0900       0.190000
       6643.00        31.6880         2.0100         2.0890       0.190000
       6643.50        32.9550         2.0000         2.0780       0.191000
       6644.00        31.6880         1.8900         2.0680       0.196000
       6644.50        29.5750         1.8300         2.0620       0.202000
       6645.00        27.4630         1.8300         2.0700       0.206000
       6645.50        27.0400         1.7400         2.0720       0.208000
       6646.00        27.4630         1.6900         2.0780       0.202000
       6646.50        27.8850         1.6900         2.0730       0.197000
       6647.00        28.3080         1.9400         2.0800       0.192000
       6647.50        28.3080         2.1300         2.0830       0.190000
       6648.00        28.3080         2.1500         2.0930       0.190000
       6648.50        28.3080         2.1400         2.1030       0.190000
       6649.00        28.7300         2.1300         2.1100       0.190000
       6649.50        29.1530         2.1700         2.1100       0.191000
       6650.00        29.5750         2.1400         2.1100       0.196000
       6650.50        29.1530         2.1500         2.1140       0.200000
       6651.00        28.3080         2.1700         2.1160       0.200000
       6651.50        26.1950         2.2400         2.1010       0.198000
       6652.00        26.3980         2.4800         2.0850       0.198000
       6652.50        26.8210         2.3700         2.0750       0.203000
       6653.00        28.0880         2.3700         2.0700       0.205000
       6653.50        27.8850         2.2100         2.0700       0.204000
       6654.00        27.4630         2.1500         2.0650       0.201000
       6654.50        27.0400         2.2200         2.0600       0.201000
       6655.00        26.6180         2.2200         2.0600       0.205000
       6655.50        26.6180         2.2600         2.0840       0.211000
       6656.00        26.6180         2.2600         2.1120       0.218000
       6656.50        26.6180         2.0100         2.1260       0.227000
       6657.00        25.7730         2.0100         2.1170       0.228000
       6657.50        24.5050         2.1000         2.1030       0.223000
       6658.00        23.2380         2.0700         2.0860       0.221000
       6658.50        23.6600         2.0400         2.0730       0.218000
       6659.00        25.3500         2.1000         2.0700       0.212000
       6659.50        27.0400         2.2200         2.0630       0.204000
       6660.00        28.3080         2.2400         2.0520       0.201000
       6660.50        28.7300         2.2100         2.0580       0.200000
       6661.00        28.7300         2.2300         2.0760       0.202000
       6661.50        28.3080         2.2200         2.0880       0.206000
       6662.00        28.3080         2.2400         2.0980       0.209000
       6662.50        28.7300         2.2700         2.0910       0.209000
       6663.00        29.1530         2.2500         2.0990       0.205000
       6663.50        29.5750         2.2500         2.1440       0.201000
       6664.00        29.1530         2.2100         2.1860       0.201000
       6664.50        28.7300         2.2100         2.2080       0.205000
       6665.00        27.8850         1.9700         2.2100       0.210000
       6665.50        27.8850         1.9400         2.2000       0.210000
       6666.00        27.8850         1.9400         2.2000       0.210000
       6666.50        27.0400         2.2300         2.1700       0.218000
       6667.00        26.1950         2.7500         2.0970       0.238000
       6667.50        24.5050         2.7500         1.8930       0.269000
       6668.00        20.2800         3.8900         1.6800       0.334000
       6668.50        16.0550         3.8900         1.4820       0.448000
       6669.00        12.2530        11.5900         1.3740       0.585000
       6669.50        11.8300        11.5900         1.3070       0.679000
       6670.00        11.4080        16.0700         1.2820       0.696000
       6670.50        18.5900        16.0700         1.3030       0.654000
