~Version Information Block
VERS .                  2.0:  CWLS LOG ASCII STANDARD - VERSION 2.0
WRAP .                   NO:  One line per depth step
~Well Information Block
#MNEM.UNIT        Data Type   Information
#---------- ----------------  -----------
STRT .FT            3086.50:  START DEPTH
STOP .FT            8458.50:  STOP DEPTH
STEP .FT               0.50:  STEP
NULL .              -999.25:  NULL VALUE
COMP .                     :  COMPANY
WELL .            SA-5RD1HZ:  WELL
FLD  .                     :  FIELD
LOC  .                     :  LOCATION
CTRY .                     :  COUNTRY
STAT .                     :  STATE
CNTY .                     :  COUNTY
SRVC .                     :  SERVICE COMPANY
DATE .                     :  DATE
API  .                     :  API NUMBER
UWI  .                     :  UNIQUE WELL ID
~Curve Information Block
#MNEM.UNIT         API CODE   Curve Description
#---------- ----------------  -----------------
DEPTH.FT                   :  DEPTH
GR   .GAPI                 :  Gamma Ray
RT   .OHMM                 :  Deep resistivity
RHOB .G/C3                 :  Bulk density
NPHI .V/V                  :  Neutron porosity
~Parameter Information Block
#MNEM.UNIT            Value   Description
#---------- ----------------  -----------
PROJECT.            SERANG_FE:  
~Other Information Block
# 
~A       DEPTH             GR             RT           RHOB           NPHI 
       3086.50      -999.2500      -999.2500      -999.2500       0.620000
       3087.00        31.9760         1.2600         1.8400       0.610000
       3087.50        31.9760         1.2600         1.8600       0.600000
       3088.00        31.9760         1.2600         1.8900       0.640000
       3088.50        31.9760         1.2600         1.8800       0.650000
       3089.00        31.9760         1.2600         1.8400       0.640000
       3089.50        31.9760         1.2600         1.7800       0.591000
       3090.00        31.9760         1.2600         1.6900       0.580000
       3090.50        31.9760         1.2600         1.6500       0.570000
       3091.00        31.9760         1.2600         1.6600       0.590000
       3091.50        31.9760         1.2600         1.6900       0.600000
       3092.00        31.9760         1.2600         1.7800       0.600000
       3092.50        31.9760         1.2600         1.8300       0.610000
       3093.00        31.9760         1.2600         1.8900       0.600000
       3093.50        31.9760         1.2600         1.9100       0.600000
       3094.00        31.9760         1.2600         1.9100       0.580000
       3094.50        31.9760         1.2600         1.9300       0.590000
       3095.00        31.9760         1.2600         1.9200       0.580000
       3095.50        31.9760         1.2600         1.9200       0.590000
       3096.00        31.9760         1.2600         1.9400       0.590000
       3096.50        31.9760         1.2600         1.9500       0.600000
       3097.00        31.9760         1.2600         2.0100       0.620000
       3097.50        31.9760         1.2600         2.0400       0.610000
       3098.00        31.9760         1.2600         1.9800       0.591000
       3098.50        31.9760         1.2600         1.9300       0.590000
       3099.00        31.9760         1.2600         1.8600       0.580000
       3099.50        31.9760         1.2600         1.9200       0.570000
       3100.00        31.9760         1.2600         1.8400       0.551000
       3100.50        31.9760         1.2600         1.7600       0.550000
       3101.00        31.9760         1.2600         1.6900       0.550000
       3101.50        31.9760         1.2600         1.6700       0.540000
       3102.00        31.9760         1.2600         1.6500       0.530000
       3102.50        31.9760         1.2600         1.6600       0.501000
       3103.00        31.9760         1.2600         1.6800       0.510000
       3103.50        31.9760         1.2600         1.6600       0.520000
       3104.00        31.9760         1.2600         1.6400       0.520000
       3104.50        31.9760         1.2600         1.6200       0.520000
       3105.00        31.9760         1.2600         1.6200       0.510000
       3105.50        37.3050         1.2600         1.6400       0.510000
       3106.00        42.6350         0.8900         1.6600       0.500000
       3106.50        46.1880         1.0600         1.6800       0.509000
       3107.00        44.4110         1.0500         1.7100       0.510000
       3107.50        42.6350         1.1200         1.8100       0.519000
       3108.00        42.6350         1.0600         1.8400       0.492000
       3108.50        42.6350         1.0600         1.7700       0.499000
       3109.00        42.6350         1.0600         1.6600       0.510000
       3109.50        42.6350         1.0600         1.6100       0.567000
       3110.00        42.6350         1.1400         1.6500       0.561000
       3110.50        42.6350         1.1400         1.7200       0.569000
       3111.00        42.6350         1.1400         1.7800       0.532000
       3111.50        42.6350         1.0300         1.8300       0.530000
       3112.00        42.6350         1.0300         1.8300       0.521000
       3112.50        42.6350         1.1100         1.7700       0.529000
       3113.00        46.1880         1.1100         1.7100       0.549000
       3113.50        44.4110         1.2200         1.6500       0.578000
       3114.00        40.8580         1.2000         1.6300       0.608000
       3114.50        35.5290         1.3800         1.5900       0.610000
       3115.00        37.3050         1.3600         1.5500       0.610000
       3115.50        40.8580         1.2400         1.5700       0.601000
       3116.00        42.6350         1.1400         1.6400       0.591000
       3116.50        44.4110         1.0600         1.6900       0.572000
       3117.00        47.9640         0.9600         1.6700       0.589000
       3117.50        51.5170         0.9600         1.6400       0.655000
       3118.00        58.6230         0.8800         1.6000       0.725000
       3118.50        65.7290         0.8900         1.5500       0.693000
       3119.00        72.8340         0.8200         1.5200       0.662000
       3119.50        74.6110         0.8200         1.5000       0.651000
       3120.00        72.8340         0.9100         1.5000       0.659000
       3120.50        69.2820         0.9200         1.5200       0.614000
       3121.00        69.2820         0.9500         1.5400       0.564000
       3121.50        71.0580         1.0700         1.5600       0.523000
       3122.00        76.3870         1.1800         1.5800       0.492000
       3122.50        74.6110         1.2200         1.6100       0.490000
       3123.00        71.0580         1.2400         1.6600       0.499000
       3123.50        63.9520         1.2300         1.7100       0.518000
       3124.00        58.6230         1.2600         1.7500       0.511000
       3124.50        53.2940         1.2600         1.7600       0.528000
       3125.00        53.2940         1.2300         1.7500       0.530000
       3125.50        56.8460         1.2300         1.7100       0.530000
       3126.00        63.9520         1.2200         1.6700       0.539000
       3126.50        69.2820         1.2100         1.6900       0.540000
       3127.00        74.6110         1.2100         1.7700       0.540000
       3127.50        72.8340         1.2400         1.9000       0.504000
       3128.00        65.7290         1.3400         1.9700       0.482000
       3128.50        58.6230         1.3900         1.9800       0.462000
       3129.00        58.6230         1.3800         1.9700       0.451000
       3129.50        62.1760         1.3400         1.9700       0.459000
       3130.00        63.9520         1.2500         2.0200       0.469000
       3130.50        63.9520         1.2300         2.0400       0.506000
       3131.00        63.9520         1.2200         2.0800       0.510000
       3131.50        62.1760         1.1900         2.0700       0.510000
       3132.00        62.1760         1.1800         2.0800       0.501000
       3132.50        63.9520         1.1400         2.0500       0.509000
       3133.00        65.7290         1.1400         1.9700       0.519000
       3133.50        65.7290         1.1400         1.8500       0.538000
       3134.00        63.9520         1.0600         1.8000       0.549000
       3134.50        63.9520         1.0000         1.8200       0.541000
       3135.00        62.1760         1.0300         1.9000       0.521000
       3135.50        58.6230         1.1900         1.9500       0.492000
       3136.00        51.5170         2.0700         1.9500       0.461000
       3136.50        44.4110         2.2600         1.9300       0.421000
       3137.00        37.3050         2.3300         1.9300       0.400000
       3137.50        31.9760         2.2300         1.9600       0.380000
       3138.00        28.4230         2.2800         2.0200       0.370000
       3138.50        26.6470         2.3900         2.0900       0.360000
       3139.00        26.6470         2.4100         2.1500       0.370000
       3139.50        26.6470         2.4300         2.1500       0.370000
