~Version Information Block
VERS .                  2.0:  CWLS LOG ASCII STANDARD - VERSION 2.0
WRAP .                   NO:  One line per depth step
~Well Information Block
#MNEM.UNIT        Data Type   Information
#---------- ----------------  -----------
STRT .FT            3086.50:  START DEPTH
STOP .FT            8458.50:  STOP DEPTH
STEP .FT               0.50:  STEP
NULL .              -999.25:  NULL VALUE
COMP .                     :  COMPANY
WELL .            SA-5RD1HZ:  WELL
FLD  .                     :  FIELD
LOC  .                     :  LOCATION
CTRY .                     :  COUNTRY
STAT .                     :  STATE
CNTY .                     :  COUNTY
SRVC .                     :  SERVICE COMPANY
DATE .                     :  DATE
API  .                     :  API NUMBER
UWI  .                     :  UNIQUE WELL ID
~Curve Information Block
#MNEM.UNIT         API CODE   Curve Description
#---------- ----------------  -----------------
DEPTH.FT                   :  DEPTH
GR   .GAPI                 :  Gamma Ray
RT   .OHMM                 :  Deep resistivity
RHOB .G/C3                 :  Bulk density
NPHI .V/V                  :  Neutron porosity
~Parameter Information Block
#MNEM.UNIT            Value   Description
#---------- ----------------  -----------
PROJECT.            SERANG_FE:  
~Other Information Block
# 
~A       DEPTH             GR             RT           RHOB           NPHI 
# ...
       5173.00        67.5050         1.3700         2.1270       0.388000
       5173.50        57.6750         1.3000         2.1110       0.373000
       5174.00        51.3920         1.2700         2.1200       0.342000
       5174.50        49.6150         1.2300         2.0990       0.327000
       5175.00        47.0110         1.1600         2.0920       0.352000
       5175.50        44.4110         1.0100         2.1080       0.387000
       5176.00        44.4110         0.9700         2.1440       0.402000
       5176.50        46.1880         0.9900         2.1790       0.400000
       5177.00        48.7360         1.0700         2.1850       0.407000
       5177.50        51.2750         1.1500         2.1610       0.428000
       5178.00        55.5880         1.1700         2.1280       0.453000
       5178.50        62.6740         1.1900         2.1120       0.472000
       5179.00        69.0160         1.1600         2.1010       0.472000
       5179.50        75.3620         1.1900         2.1100       0.464000
       5180.00        75.2980         1.2000         2.1220       0.461000
       5180.50        73.5210         1.1800         2.1400       0.468000
       5181.00        71.7450         1.2100         2.1490       0.478000
       5181.50        75.2560         1.2200         2.1780       0.475000
       5182.00        79.9480         1.2300         2.1950       0.453000
       5182.50        83.5010         1.2100         2.2050       0.426000
       5183.00        80.4770         1.2100         2.1990       0.408000
       5183.50        71.6560         1.2700         2.1730       0.401000
       5184.00        55.1230         1.4600         2.1100       0.400000
       5184.50        41.5130         1.5900         2.0260       0.400000
       5185.00        33.2080         1.5700         1.9730       0.398000
       5185.50        34.2410         1.5600         1.9720       0.391000
       5186.00        37.7940         1.5600         2.0230       0.391000
       5186.50        41.7920         1.5800         2.0900       0.407000
       5187.00        45.2820         1.6100         2.1450       0.432000
       5187.50        50.6120         1.5500         2.1670       0.441000
       5188.00        57.6710         1.4400         2.1700       0.436000
       5188.50        65.7390         1.2200         2.1780       0.428000
       5189.00        71.0680         1.1100         2.1890       0.433000
       5189.50        75.9990         1.0800         2.1990       0.451000
       5190.00        79.9400         1.0200         2.2100       0.466000
       5190.50        83.4930         1.0000         2.2000       0.473000
       5191.00        85.2700         1.0000         2.1890       0.475000
       5191.50        86.7720         0.9400         2.1720       0.472000
       5192.00        86.7720         0.9300         2.1900       0.474000
       5192.50        86.7720         0.9300         2.1920       0.483000
       5193.00        86.8180         0.9300         2.1980       0.490000
       5193.50        85.0420         0.9400         2.1870       0.495000
       5194.00        85.0420         0.9400         2.1800       0.497000
       5194.50        81.7170         0.9300         2.1800       0.481000
       5195.00        83.6750         0.8900         2.1680       0.450000
       5195.50        85.4520         0.8500         2.0980       0.440000
       5196.00        89.0050         0.7900         2.0160       0.464000
       5196.50        90.4340         0.7900         2.0210       0.485000
       5197.00        86.8810         0.9300         2.1300       0.479000
       5197.50        79.7760         1.0200         2.2180       0.458000
       5198.00        79.9400         1.0700         2.1910       0.448000
       5198.50        88.7150         0.8800         2.0460       0.447000
       5199.00       104.7030         0.8000         2.0190       0.466000
       5199.50       117.1380         0.7400         1.9450       0.486000
       5200.00       124.3520         0.7100         1.9690       0.469000
       5200.50       129.6130         0.8200         1.8940       0.403000
       5201.00       111.8480         1.0600         1.9700       0.316000
       5201.50        88.7540         1.3500         2.1790       0.235000
       5202.00        62.1760         1.3400         2.3780       0.187000
       5202.50        53.1690         1.8700         2.4600       0.172000
       5203.00        46.0630         3.0400         2.4430       0.182000
       5203.50        40.7330         4.5700         2.3490       0.203000
       5204.00        35.5290         6.4700         2.2570       0.229000
       5204.50        31.9760         6.8500         2.1920       0.261000
       5205.00        26.6470         6.7400         2.2100       0.292000
       5205.50        23.0940         6.4600         2.2540       0.307000
       5206.00        21.3170         5.9500         2.2970       0.297000
       5206.50        21.3170         4.7800         2.3140       0.287000
       5207.00        21.3170         4.8400         2.3370       0.293000
       5207.50        24.8700         4.8700         2.3740       0.296000
       5208.00        26.6470         4.7400         2.3750       0.285000
       5208.50        26.0510         4.2100         2.3160       0.276000
       5209.00        20.7210         4.4200         2.2330       0.279000
       5209.50        19.5860         4.4000         2.1870       0.289000
       5210.00        20.1820         4.5500         2.2070       0.290000
       5210.50        23.0770         4.4800         2.2990       0.273000
       5211.00        25.3240         3.9300         2.3830       0.251000
       5211.50        30.6540         3.4000         2.4400       0.237000
       5212.00        34.8650         3.5300         2.3820       0.251000
       5212.50        37.3050         3.5700         2.2190       0.301000
       5213.00        35.5290         3.6700         2.0330       0.360000
       5213.50        32.6590         3.9500         1.8350       0.379000
       5214.00        29.1060         4.0100         1.7300       0.376000
       5214.50        29.1060         4.0400         1.7050       0.408000
       5215.00        31.9760         3.3100         1.7940       0.452000
       5215.50        37.3050         2.4300         1.9420       0.453000
       5216.00        39.0820         2.5100         2.0740       0.428000
       5216.50        37.3050         2.5700         2.0120       0.438000
       5217.00        32.7480         2.9000         1.7070       0.499000
       5217.50        27.4190         3.5000         1.5610       0.562000
       5218.00        26.5560         4.6100         1.5100       0.585000
       5218.50        29.3370         3.5600         1.5810       0.568000
       5219.00        36.4430         2.0200         1.6520       0.546000
       5219.50        40.8580         1.9000         1.6880       0.532000
       5220.00        42.6350         1.7900         1.6920       0.523000
       5220.50        42.6350         2.0900         1.6830       0.516000
       5221.00        42.6350         2.0500         1.6990       0.504000
       5221.50        40.8580         2.2700         1.7380       0.489000
       5222.00        40.8580         2.3800         1.8040       0.477000
       5222.50        42.6350         1.9800         1.8770       0.471000
       5223.00        49.7410         1.7600         1.9400       0.472000
       5223.50        60.3990         1.5100         2.0030       0.477000
       5224.00        69.9740         1.2500         2.0380       0.480000
       5224.50        77.0800         1.1500         2.0600       0.480000
       5225.00        82.4090         1.1200         2.0700       0.480000
       5225.50        83.4930         1.0700         2.0680       0.478000
       5226.00        83.4930         1.0700         2.0530       0.473000
