~Version Information Block
VERS .                  2.0:  CWLS LOG ASCII STANDARD - VERSION 2.0
WRAP .                   NO:  One line per depth step
~Well Information Block
#MNEM.UNIT        Data Type   Information
#---------- ----------------  -----------
STRT .FT            3086.50:  START DEPTH
STOP .FT            8458.50:  STOP DEPTH
STEP .FT               0.50:  STEP
NULL .              -999.25:  NULL VALUE
COMP .                     :  COMPANY
WELL .            SA-5RD1HZ:  WELL
FLD  .                     :  FIELD
LOC  .                     :  LOCATION
CTRY .                     :  COUNTRY
STAT .                     :  STATE
CNTY .                     :  COUNTY
SRVC .                     :  SERVICE COMPANY
DATE .                     :  DATE
API  .                     :  API NUMBER
UWI  .                     :  UNIQUE WELL ID
~Curve Information Block
#MNEM.UNIT         API CODE   Curve Description
#---------- ----------------  -----------------
DEPTH.FT                   :  DEPTH
GR   .GAPI                 :  Gamma Ray
RT   .OHMM                 :  Deep resistivity
RHOB .G/C3                 :  Bulk density
NPHI .V/V                  :  Neutron porosity
~Parameter Information Block
#MNEM.UNIT            Value   Description
#---------- ----------------  -----------
PROJECT.            SERANG_FE:  
~Other Information Block
# 
~A       DEPTH             GR             RT           RHOB           NPHI 
# ...
       8008.50        18.5900        57.6100         2.0100       0.210000
       8009.00        18.1680        52.8400         2.0200       0.210000
       8009.50        17.7450        54.3100         2.0300       0.210000
       8010.00        18.5900        54.3100         2.0400       0.200000
       8010.50        20.2800        57.8400         2.0400       0.200000
       8011.00        21.9700        55.4500         2.0300       0.200000
       8011.50        21.5480        55.4500         2.0400       0.210000
       8012.00        20.7030        56.1900         2.0500       0.210000
       8012.50        19.8580        55.9700         2.0500       0.210000
       8013.00        20.7030        56.2900         2.0600       0.210000
       8013.50        20.7030        56.2900         2.0600       0.210000
       8014.00        20.2800        55.1300         2.0600       0.210000
       8014.50        19.8580        55.1300         2.0700       0.210000
       8015.00        20.2800        56.6200         2.0700       0.210000
       8015.50        20.7030        55.5500         2.0700       0.210000
       8016.00        21.5480        55.5500         2.0700       0.200000
       8016.50        21.1250        57.2800         2.0700       0.210000
       8017.00        21.5480        57.2800         2.0700       0.210000
       8017.50        21.1250        55.5500         2.0700       0.200000
       8018.00        21.9700        55.2400         2.0700       0.200000
       8018.50        21.5480        57.9500         2.0800       0.190000
       8019.00        21.5480        57.9500         2.0800       0.190000
       8019.50        21.9700        55.8700         2.0800       0.200000
       8020.00        22.8150        57.8400         2.0700       0.200000
       8020.50        22.8150        57.3900         2.0600       0.210000
       8021.00        21.5480        56.2900         2.0600       0.200000
       8021.50        21.5480        56.1900         2.0700       0.200000
       8022.00        21.5480        55.2400         2.0800       0.200000
       8022.50        21.5480        56.5100         2.0800       0.200000
       8023.00        20.7030        56.1900         2.0700       0.200000
       8023.50        20.7030        53.9100         2.0600       0.200000
       8024.00        21.1250        54.0100         2.0700       0.200000
       8024.50        21.5480        56.2900         2.0700       0.200000
       8025.00        21.5480        54.9300         2.0700       0.200000
       8025.50        22.3930        55.8700         2.0700       0.200000
       8026.00        23.2380        54.4200         2.0700       0.210000
       8026.50        24.0830        54.4200         2.0700       0.210000
       8027.00        22.8150        52.8400         2.0700       0.210000
       8027.50        21.5480        52.2700         2.0700       0.210000
       8028.00        21.9700        51.5300         2.0600       0.210000
       8028.50        23.6600        52.6500         2.0600       0.200000
       8029.00        24.0830        52.7400         2.0700       0.200000
       8029.50        22.8150        50.3600         2.0700       0.190000
       8030.00        21.5480        51.0700         2.0700       0.190000
       8030.50        21.5480        49.9200         2.0600       0.200000
       8031.00        22.8150        49.9200         2.0600       0.210000
       8031.50        24.0830        50.2700         2.0700       0.210000
       8032.00        24.9280        50.2700         2.0700       0.210000
       8032.50        24.5050        49.5600         2.0600       0.210000
       8033.00        23.6600        49.5600         2.0600       0.210000
       8033.50        23.2380        48.2600         2.0500       0.200000
       8034.00        22.3930        48.2600         2.0500       0.200000
       8034.50        21.9700        48.0100         2.0600       0.200000
       8035.00        22.3930        48.0100         2.0600       0.210000
       8035.50        23.2380        48.0100         2.0600       0.210000
       8036.00        23.2380        48.6000         2.0500       0.210000
       8036.50        22.3930        48.6000         2.0500       0.200000
       8037.00        21.1250        47.5100         2.0600       0.200000
       8037.50        20.7030        47.5100         2.0600       0.200000
       8038.00        20.7030        47.7600         2.0600       0.200000
       8038.50        20.7030        47.7600         2.0500       0.210000
       8039.00        20.7030        50.8000         2.0600       0.210000
       8039.50        21.1250        50.8000         2.0600       0.210000
       8040.00        21.9700        54.3100         2.0600       0.200000
       8040.50        23.2380        54.3100         2.0600       0.200000
       8041.00        23.6600        58.7600         2.0700       0.200000
       8041.50        24.0830        58.7600         2.0200       0.200000
       8042.00        23.6600        58.6400         2.0300       0.200000
       8042.50        23.6600        58.6400         2.0200       0.200000
       8043.00        23.6600        58.4100         2.0900       0.200000
       8043.50        24.0830        58.4100         2.0900       0.200000
       8044.00        24.0830        59.1100         2.0800       0.190000
       8044.50        23.6600        59.1100         2.0700       0.190000
       8045.00        23.2380        61.4200         2.0600       0.190000
       8045.50        22.8150        61.4200         2.0600       0.190000
       8046.00        22.8150        57.7300         2.0700       0.190000
       8046.50        22.3930        56.8400         2.0700       0.190000
       8047.00        21.5480        56.8400         2.0700       0.200000
       8047.50        20.7030        58.6400         2.0700       0.200000
       8048.00        21.1250        58.6400         2.0700       0.200000
       8048.50        21.9700        58.8700         2.0700       0.190000
       8049.00        21.9700        57.7300         2.0700       0.200000
       8049.50        21.1250        57.7300         2.0700       0.200000
       8050.00        20.7030        57.1700         2.0700       0.200000
       8050.50        21.1250        55.1300         2.0700       0.200000
       8051.00        21.1250        55.1300         2.0700       0.200000
       8051.50        20.7030        55.8700         2.0600       0.200000
       8052.00        20.2800        55.8700         2.0500       0.200000
       8052.50        20.2800        55.0300         2.0500       0.200000
       8053.00        21.1250        55.0300         2.0600       0.200000
       8053.50        21.9700        56.6200         2.0700       0.200000
       8054.00        22.8150        52.4600         2.0800       0.200000
       8054.50        22.8150        52.4600         2.0800       0.200000
       8055.00        22.3930        55.7600         2.0800       0.200000
       8055.50        21.9700        55.7600         2.0900       0.200000
       8056.00        22.3930        53.1300         2.0900       0.200000
       8056.50        23.2380        53.1300         2.1100       0.200000
       8057.00        23.2380        52.2700         2.1100       0.200000
       8057.50        22.3930        52.2700         2.1000       0.200000
       8058.00        21.5480        51.7100         2.0800       0.200000
       8058.50        21.5480        51.7100         2.0400       0.190000
       8059.00        21.5480        51.8000         2.0400       0.200000
       8059.50        21.5480        51.8000         2.0400       0.200000
       8060.00        21.9700        53.3200         2.0700       0.200000
       8060.50        22.3930        53.3200         2.0700       0.200000
       8061.00        22.8150        50.3600         2.0700       0.200000
       8061.50        22.3930        50.3600         2.0700       0.200000
