~Version Information Block
VERS .                  2.0:  CWLS LOG ASCII STANDARD - VERSION 2.0
WRAP .                   NO:  One line per depth step
~Well Information Block
#MNEM.UNIT        Data Type   Information
#---------- ----------------  -----------
STRT .FT            3086.50:  START DEPTH
STOP .FT            8458.50:  STOP DEPTH
STEP .FT               0.50:  STEP
NULL .              -999.25:  NULL VALUE
COMP .                     :  COMPANY
WELL .            SA-5RD1HZ:  WELL
FLD  .                     :  FIELD
LOC  .                     :  LOCATION
CTRY .                     :  COUNTRY
STAT .                     :  STATE
CNTY .                     :  COUNTY
SRVC .                     :  SERVICE COMPANY
DATE .                     :  DATE
API  .                     :  API NUMBER
UWI  .                     :  UNIQUE WELL ID
~Curve Information Block
#MNEM.UNIT         API CODE   Curve Description
#---------- ----------------  -----------------
DEPTH.FT                   :  DEPTH
GR   .GAPI                 :  Gamma Ray
RT   .OHMM                 :  Deep resistivity
RHOB .G/C3                 :  Bulk density
NPHI .V/V                  :  Neutron porosity
~Parameter Information Block
#MNEM.UNIT            Value   Description
#---------- ----------------  -----------
PROJECT.            SERANG_FE:  
~Other Information Block
# 
~A       DEPTH             GR             RT           RHOB           NPHI 
# ...
       5922.00        38.4480         1.3460         2.1040       0.319000
       5922.50        37.6030         1.4120         2.1180       0.309000
       5923.00        35.4910         1.4310         2.1140       0.286000
       5923.50        34.2230         1.4400         2.1390       0.262000
       5924.00        33.8010         1.4880         2.2010       0.237000
       5924.50        34.2230         1.9900         2.3080       0.222000
       5925.00        34.6460         1.9900         2.3390       0.214000
       5925.50        35.0680         1.9350         2.2630       0.220000
       5926.00        35.4910         1.3700         2.1640       0.238000
       5926.50        34.6460         1.3570         2.1230       0.267000
       5927.00        33.3780         1.2300         2.0800       0.296000
       5927.50        32.5330         1.2280         2.0790       0.319000
       5928.00        34.2230         1.2090         2.0690       0.338000
       5928.50        34.2230         1.2000         2.0560       0.350000
       5929.00        35.0680         1.2000         2.0290       0.359000
       5929.50        34.6460         1.2010         2.0180       0.359000
       5930.00        35.9130         1.2100         2.0010       0.350000
       5930.50        36.7580         1.2030         2.0100       0.350000
       5931.00        37.6030         1.1400         2.0110       0.350000
       5931.50        37.6030         1.1400         2.0210       0.349000
       5932.00        36.7580         1.1420         2.0320       0.339000
       5932.50        36.3360         1.1620         2.0510       0.329000
       5933.00        36.3360         1.1800         2.0610       0.318000
       5933.50        38.0260         1.1780         2.0830       0.308000
       5934.00        38.4480         1.1640         2.1310       0.300000
       5934.50        38.8710         1.2010         2.1390       0.300000
       5935.00        38.4480         1.2150         2.1300       0.297000
       5935.50        38.8710         1.2600         2.1200       0.290000
       5936.00        38.8710         1.2660         2.1200       0.290000
       5936.50        38.4480         1.3130         2.1300       0.293000
       5937.00        38.0260         1.2500         2.1310       0.300000
       5937.50        38.0260         1.2500         2.1500       0.296000
       5938.00        38.0260         1.2550         2.1500       0.290000
       5938.50        38.4480         1.3000         2.1500       0.294000
       5939.00        38.4480         1.3000         2.1400       0.304000
       5939.50        40.9830         1.3000         2.1300       0.315000
       5940.00        46.0530         1.2970         2.1100       0.330000
       5940.50        55.3480         1.2420         2.0900       0.345000
       5941.00        63.3760         1.0100         2.0900       0.366000
       5941.50        67.1780         0.9900         2.1290       0.391000
       5942.00        65.0660         0.8310         2.1780       0.423000
       5942.50        62.9530         0.8430         2.1900       0.446000
       5943.00        61.2630         0.8630         2.1900       0.456000
       5943.50        60.8410         0.8100         2.1800       0.460000
       5944.00        58.7280         0.8120         2.1890       0.453000
       5944.50        58.3060         0.8300         2.2180       0.443000
       5945.00        60.8410         0.8420         2.2390       0.440000
       5945.50        65.0660         0.9230         2.2400       0.447000
       5946.00        68.8680         0.8670         2.2030       0.450000
       5946.50        70.5580         0.8420         2.2180       0.442000
       5947.00        71.8260         0.8590         2.2470       0.440000
       5947.50        72.2480         0.8500         2.2860       0.440000
       5948.00        72.2480         0.8480         2.2900       0.448000
       5948.50        70.1360         0.8280         2.2990       0.459000
       5949.00        71.8260         0.8050         2.3090       0.460000
       5949.50        75.2060         0.7660         2.3190       0.451000
       5950.00        79.8540         0.7410         2.3110       0.440000
       5950.50        76.4740         0.7660         2.3100       0.423000
       5951.00        68.4460         0.9030         2.3100       0.430000
       5951.50        60.4180         1.0810         2.3100       0.437000
       5952.00        58.3060         1.1490         2.2930       0.431000
       5952.50        59.1510         1.0630         2.2810       0.430000
       5953.00        62.9530         1.0060         2.2630       0.430000
       5953.50        65.4880         0.9800         2.2680       0.428000
       5954.00        68.4460         0.9810         2.2780       0.419000
       5954.50        68.0230         0.9880         2.2720       0.414000
       5955.00        68.4460         0.9650         2.2700       0.424000
       5955.50        68.0230         0.9330         2.2780       0.438000
       5956.00        68.0230         0.9470         2.3040       0.437000
       5956.50        66.7560         0.9270         2.3180       0.428000
       5957.00        66.3330         0.9090         2.3360       0.428000
       5957.50        66.3330         0.8990         2.3240       0.445000
       5958.00        67.1780         0.8900         2.3200       0.466000
       5958.50        69.7130         0.8780         2.2970       0.478000
       5959.00        71.8260         0.7990         2.2980       0.480000
       5959.50        73.5160         0.7900         2.3080       0.489000
       5960.00        73.5160         0.7850         2.3180       0.503000
       5960.50        75.2060         0.7430         2.3200       0.509000
       5961.00        76.0510         0.7050         2.3200       0.500000
       5961.50        76.8960         0.7410         2.3200       0.481000
       5962.00        77.7410         0.7500         2.3200       0.445000
       5962.50        79.4310         0.7580         2.3270       0.407000
       5963.00        76.4740         0.8270         2.3520       0.364000
       5963.50        66.3330         0.9300         2.3820       0.325000
       5964.00        56.1930         1.0240         2.4040       0.294000
       5964.50        51.5460         1.6590         2.4240       0.281000
       5965.00        54.9260         2.0200         2.4440       0.286000
       5965.50        58.3060         1.9360         2.4150       0.307000
       5966.00        60.4180         1.4200         2.3370       0.335000
       5966.50        59.5730         1.3590         2.2620       0.353000
       5967.00        58.3060         1.3500         2.2330       0.364000
       5967.50        57.4610         1.3430         2.2300       0.384000
       5968.00        57.8830         1.2840         2.2230       0.411000
       5968.50        58.7280         1.1780         2.2270       0.436000
       5969.00        59.9960         1.1100         2.2230       0.448000
       5969.50        60.4180         1.1030         2.2070       0.450000
       5970.00        61.2630         1.0600         2.1870       0.450000
       5970.50        61.6860         1.0630         2.1740       0.454000
       5971.00        63.7980         1.0750         2.1890       0.458000
       5971.50        65.4880         1.0500         2.2130       0.460000
       5972.00        67.1780         1.0560         2.2390       0.451000
       5972.50        66.7560         1.0790         2.2620       0.436000
       5973.00        68.0230         1.0170         2.2880       0.435000
       5973.50        69.2910         1.0000         2.3060       0.453000
       5974.00        72.2480         0.9990         2.3220       0.475000
       5974.50        74.7830         0.9870         2.3600       0.485000
       5975.00        77.3190         0.9700         2.3740       0.478000
