~Version Information Block
VERS .                  2.0:  CWLS LOG ASCII STANDARD - VERSION 2.0
WRAP .                   NO:  One line per depth step
~Well Information Block
#MNEM.UNIT        Data Type   Information
#---------- ----------------  -----------
STRT .FT            3086.50:  START DEPTH
STOP .FT            8458.50:  STOP DEPTH
STEP .FT               0.50:  STEP
NULL .              -999.25:  NULL VALUE
COMP .                     :  COMPANY
WELL .            SA-5RD1HZ:  WELL
FLD  .                     :  FIELD
LOC  .                     :  LOCATION
CTRY .                     :  COUNTRY
STAT .                     :  STATE
CNTY .                     :  COUNTY
SRVC .                     :  SERVICE COMPANY
DATE .                     :  DATE
API  .                     :  API NUMBER
UWI  .                     :  UNIQUE WELL ID
~Curve Information Block
#MNEM.UNIT         API CODE   Curve Description
#---------- ----------------  -----------------
DEPTH.FT                   :  DEPTH
GR   .GAPI                 :  Gamma Ray
RT   .OHMM                 :  Deep resistivity
RHOB .G/C3                 :  Bulk density
NPHI .V/V                  :  Neutron porosity
~Parameter Information Block
#MNEM.UNIT            Value   Description
#---------- ----------------  -----------
PROJECT.            SERANG_FE:  
~Other Information Block
# 
~A       DEPTH             GR             RT           RHOB           NPHI 
# ...
       6992.00        65.0660         3.0490         2.4050       0.238000
       6992.50        69.2910         3.1200         2.3900       0.255000
       6993.00        71.4030         3.1200         2.3850       0.274000
       6993.50        76.0510         3.1610         2.3900       0.289000
       6994.00        78.5860         3.2000         2.3900       0.306000
       6994.50        83.2340         3.2000         2.3790       0.327000
       6995.00        85.3460         3.1890         2.3590       0.345000
       6995.50        87.4590         3.1800         2.3440       0.357000
       6996.00        87.0360         3.2160         2.3340       0.360000
       6996.50        86.6140         3.2400         2.3360       0.358000
       6997.00        85.7690         3.2400         2.3460       0.352000
       6997.50        86.6140         3.1470         2.3560       0.348000
       6998.00        88.3040         3.1000         2.3660       0.345000
       6998.50        90.4160         3.1140         2.3640       0.348000
       6999.00        90.4160         3.1200         2.3600       0.350000
       6999.50        89.5710         3.0390         2.3530       0.353000
       7000.00        88.7260         3.0100         2.3570       0.358000
       7000.50        90.4160         2.9940         2.3530       0.360000
       7001.00        91.2610         2.9900         2.3500       0.360000
       7001.50        92.1060         2.7540         2.3500       0.360000
       7002.00        92.5290         2.7000         2.3650       0.360000
       7002.50        93.7960         2.7080         2.3700       0.356000
       7003.00        91.6840         2.7100         2.3700       0.347000
       7003.50        88.3040         2.7100         2.3700       0.333000
       7004.00        82.3890         2.6100         2.3930       0.318000
       7004.50        79.4310         2.7670         2.4320       0.302000
       7005.00        76.4730         2.7800         2.4560       0.287000
       7005.50        73.0930         2.7700         2.4680       0.281000
       7006.00        70.1360         2.8490         2.4450       0.285000
       7006.50        67.6010         2.8530         2.3890       0.289000
       7007.00        68.0230         2.9740         2.3630       0.295000
       7007.50        69.7130         3.3530         2.3510       0.305000
       7008.00        70.9810         3.5800         2.3590       0.316000
       7008.50        72.2480         3.8490         2.3600       0.332000
       7009.00        72.2480         3.9200         2.3510       0.352000
       7009.50        73.9380         4.4700         2.3040       0.366000
       7010.00        75.2060         5.6370         2.2250       0.377000
       7010.50        76.4730         7.7600         2.1250       0.401000
       7011.00        73.9380         9.8240         1.9950       0.461000
       7011.50        71.8260        12.8550         1.8530       0.517000
       7012.00        68.8680        13.4250         1.7510       0.545000
       7012.50        68.8680        16.7200         1.7100       0.550000
       7013.00        68.8680        16.2370         1.7400       0.542000
       7013.50        72.2480        14.2000         1.7600       0.532000
       7014.00        74.7830        12.6050         1.8210       0.522000
       7014.50        85.3460         4.2300         1.8820       0.504000
       7015.00        93.3740         4.1220         2.0420       0.469000
       7015.50       107.7390         3.4700         2.1610       0.437000
       7016.00       114.0760         4.1000         2.2300       0.415000
       7016.50       117.0340         3.9840         2.2310       0.402000
       7017.00       111.1190         2.6700         2.2500       0.384000
       7017.50       105.2040         2.6990         2.2510       0.364000
       7018.00       101.4010         3.2400         2.2810       0.345000
       7018.50       100.1340         3.2410         2.3130       0.332000
       7019.00        97.1760         3.2690         2.3910       0.314000
       7019.50        95.4860         2.8350         2.4210       0.295000
       7020.00        92.5290         2.8300         2.4400       0.283000
       7020.50        91.2610         2.5820         2.4500       0.280000
       7021.00        89.1490         2.5700         2.4600       0.280000
       7021.50        88.3040         2.5140         2.4610       0.273000
       7022.00        86.1910         2.5100         2.4700       0.277000
       7022.50        85.3460         2.3760         2.4710       0.281000
       7023.00        84.5010         2.3250         2.4810       0.287000
       7023.50        84.9240         2.3200         2.4910       0.290000
       7024.00        85.7690         2.2520         2.5000       0.290000
       7024.50        86.6140         2.2400         2.4990       0.290000
       7025.00        86.6140         2.1260         2.4900       0.290000
       7025.50        85.7690         2.1000         2.4910       0.289000
       7026.00        82.8110         2.2330         2.5020       0.282000
       7026.50        80.6990         2.2700         2.5210       0.273000
       7027.00        76.4730         2.4130         2.5310       0.269000
       7027.50        74.3610         2.4600         2.5390       0.263000
       7028.00        70.5580         2.4310         2.5300       0.259000
       7028.50        68.8680         2.5610         2.5290       0.253000
       7029.00        67.1780         2.6200         2.5180       0.250000
       7029.50        67.1780         2.5390         2.4980       0.250000
       7030.00        66.7560         2.5000         2.4800       0.250000
       7030.50        66.3330         2.5580         2.4800       0.250000
       7031.00        65.9110         2.6530         2.4800       0.251000
       7031.50        65.9110         2.6900         2.4810       0.258000
       7032.00        69.2910         2.7200         2.4900       0.269000
       7032.50        73.9380         2.7400         2.4890       0.285000
       7033.00        78.1630         2.7170         2.4790       0.297000
       7033.50        79.0080         2.7000         2.4700       0.300000
       7034.00        79.0080         2.6840         2.4700       0.301000
       7034.50        79.4310         2.6700         2.4710       0.307000
       7035.00        79.8530         2.5700         2.4830       0.311000
       7035.50        79.4310         2.4700         2.5010       0.316000
       7036.00        79.0080         2.4280         2.5140       0.312000
       7036.50        79.8530         2.3800         2.5340       0.302000
       7037.00        81.1210         2.3890         2.5000       0.292000
       7037.50        81.9660         2.4000         2.4930       0.284000
       7038.00        81.5440         2.4160         2.4540       0.288000
       7038.50        81.5440         2.4400         2.4800       0.298000
       7039.00        81.9660         2.4360         2.4830       0.307000
       7039.50        82.8110         2.4300         2.5030       0.309000
       7040.00        83.2340         2.4640         2.5180       0.303000
       7040.50        83.6560         2.5500         2.5070       0.301000
       7041.00        83.6560         2.5900         2.4900       0.307000
       7041.50        84.0790         2.5930         2.4930       0.309000
       7042.00        84.5010         2.6000         2.5120       0.301000
       7042.50        82.3890         2.6500         2.5170       0.287000
       7043.00        79.8540         2.7900         2.4950       0.279000
       7043.50        75.6280         2.8130         2.4660       0.272000
       7044.00        73.9380         2.8900         2.4500       0.263000
       7044.50        71.8260         2.8960         2.4520       0.259000
       7045.00        71.4030         2.9200         2.4620       0.252000
