~Version Information Block
VERS .                  2.0:  CWLS LOG ASCII STANDARD - VERSION 2.0
WRAP .                   NO:  One line per depth step
~Well Information Block
#MNEM.UNIT        Data Type   Information
#---------- ----------------  -----------
STRT .FT            3086.50:  START DEPTH
STOP .FT            8458.50:  STOP DEPTH
STEP .FT               0.50:  STEP
NULL .              -999.25:  NULL VALUE
COMP .                     :  COMPANY
WELL .            SA-5RD1HZ:  WELL
FLD  .                     :  FIELD
LOC  .                     :  LOCATION
CTRY .                     :  COUNTRY
STAT .                     :  STATE
CNTY .                     :  COUNTY
SRVC .                     :  SERVICE COMPANY
DATE .                     :  DATE
API  .                     :  API NUMBER
UWI  .                     :  UNIQUE WELL ID
~Curve Information Block
#MNEM.UNIT         API CODE   Curve Description
#---------- ----------------  -----------------
DEPTH.FT                   :  DEPTH
GR   .GAPI                 :  Gamma Ray
RT   .OHMM                 :  Deep resistivity
RHOB .G/C3                 :  Bulk density
NPHI .V/V                  :  Neutron porosity
~Parameter Information Block
#MNEM.UNIT            Value   Description
#---------- ----------------  -----------
PROJECT.            SERANG_FE:  
~Other Information Block
# 
~A       DEPTH             GR             RT           RHOB           NPHI 
# ...
       3461.00        28.4230         3.8500         1.9680       0.393000
       3461.50        31.9760         3.7400         2.1330       0.352000
       3462.00        35.5290         3.6900         2.2340       0.321000
       3462.50        37.3050         4.0300         2.2310       0.301000
       3463.00        37.3050         3.9700         2.2020       0.300000
       3463.50        37.3050         4.7100         2.1910       0.298000
       3464.00        37.3050         5.2200         2.2080       0.283000
       3464.50        35.5290         5.4700         2.2280       0.254000
       3465.00        31.9760         5.6700         2.2650       0.229000
       3465.50        30.2000         5.5800         2.2870       0.214000
       3466.00        28.4230         5.7000         2.2900       0.206000
       3466.50        30.2000         5.4200         2.2980       0.209000
       3467.00        33.7530         4.4400         2.3000       0.210000
       3467.50        39.0820         4.4500         2.2920       0.216000
       3468.00        39.0820         4.8400         2.2900       0.230000
       3468.50        31.9760         5.6600         2.3130       0.238000
       3469.00        23.0940         4.7900         2.3580       0.234000
       3469.50        17.7640         3.5600         2.3550       0.238000
       3470.00        15.9880         2.7200         2.2760       0.269000
       3470.50        17.7640         2.4000         2.1630       0.329000
       3471.00        19.5410         2.1900         2.0940       0.379000
       3471.50        21.3170         2.0900         2.0660       0.397000
       3472.00        21.3170         2.1800         2.0670       0.392000
       3472.50        21.3170         2.4300         2.0630       0.382000
       3473.00        21.3170         2.6900         2.0670       0.372000
       3473.50        21.3170         2.7600         2.0830       0.363000
       3474.00        21.3170         3.0100         2.1090       0.359000
       3474.50        23.0940         2.9300         2.1510       0.352000
       3475.00        24.8700         2.6900         2.1950       0.342000
       3475.50        26.6470         2.9700         2.1980       0.334000
       3476.00        24.8700         3.7000         2.1660       0.331000
       3476.50        24.8700         4.3000         2.1730       0.308000
       3477.00        24.8700         3.8000         2.2580       0.271000
       3477.50        30.2000         3.9200         2.3820       0.249000
       3478.00        33.7530         5.0700         2.4240       0.250000
       3478.50        37.3050         5.6200         2.4000       0.246000
       3479.00        37.3050         5.0200         2.3690       0.232000
       3479.50        35.5290         5.8000         2.3250       0.224000
       3480.00        31.9760         6.7600         2.1880       0.220000
       3480.50        26.6470         6.0500         1.9940       0.219000
       3481.00        24.8700         8.2400         1.8910       0.215000
       3481.50        28.4230         6.3400         1.9240       0.217000
       3482.00        33.7530         5.5900         2.0860       0.226000
       3482.50        35.5290         6.8100         2.2230       0.231000
       3483.00        33.7530         7.0500         2.2480       0.234000
       3483.50        31.9760         6.4700         2.2680       0.234000
       3484.00        33.7530         4.7600         2.3070       0.231000
       3484.50        30.2000         5.2700         2.3420       0.238000
       3485.00        24.8700         6.2900         2.3160       0.251000
       3485.50        17.7640         6.3300         2.2870       0.261000
       3486.00        15.9880         6.3400         2.2800       0.267000
       3486.50        15.9880         6.3000         2.2900       0.274000
       3487.00        15.9880         6.2700         2.3160       0.271000
       3487.50        15.9880         6.4900         2.3330       0.250000
       3488.00        17.7640         7.0700         2.3490       0.223000
       3488.50        19.5410         7.5200         2.3480       0.206000
       3489.00        23.0940         7.7200         2.2950       0.207000
       3489.50        24.8700         6.8000         2.3030       0.220000
       3490.00        28.4230         5.5300         2.2990       0.247000
       3490.50        31.9760         4.1600         2.3510       0.292000
       3491.00        37.3050         3.1900         2.3140       0.339000
       3491.50        40.8580         2.6200         2.2820       0.377000
       3492.00        42.6350         2.4500         2.2460       0.395000
       3492.50        42.6350         2.2600         2.2210       0.399000
       3493.00        42.6350         1.9600         2.1850       0.394000
       3493.50        42.6350         2.2400         2.2070       0.386000
       3494.00        40.8580         2.0100         2.2010       0.385000
       3494.50        40.8580         2.3200         2.2680       0.386000
       3495.00        42.6350         1.9900         2.2550       0.386000
       3495.50        47.9640         1.8700         2.2980       0.397000
       3496.00        49.7410         1.8000         2.2770       0.416000
       3496.50        47.9640         1.7900         2.2490       0.435000
       3497.00        44.4110         1.8600         2.2410       0.439000
       3497.50        40.8580         1.9000         2.2610       0.430000
       3498.00        44.4110         1.8900         2.2900       0.425000
       3498.50        44.4110         1.7500         2.3000       0.436000
       3499.00        49.7410         1.6700         2.2900       0.450000
       3499.50        49.7410         1.6400         2.2300       0.465000
       3500.00        49.7410         1.5900         2.2000       0.475000
       3500.50        46.1880         1.5200         2.2000       0.485000
       3501.00        40.8580         1.4800         2.1900       0.494000
       3501.50        42.6350         1.4900         2.1710       0.494000
       3502.00        44.4110         1.4500         2.1420       0.485000
       3502.50        47.9640         1.4600         2.1400       0.476000
       3503.00        51.5170         1.5100         2.1400       0.481000
       3503.50        53.2930         1.4800         2.1400       0.494000
       3504.00        53.2930         1.4200         2.1400       0.504000
       3504.50        47.9640         1.4600         2.1490       0.509000
       3505.00        44.4110         1.5000         2.1500       0.510000
       3505.50        42.6350         1.5600         2.1580       0.505000
       3506.00        44.4110         1.5400         2.1680       0.500000
       3506.50        46.1880         1.4800         2.1620       0.495000
       3507.00        49.7410         1.4500         2.1520       0.491000
       3507.50        49.7410         1.4700         2.1420       0.495000
       3508.00        51.5170         1.5300         2.1400       0.498000
       3508.50        51.5170         1.6600         2.1400       0.485000
       3509.00        53.2930         1.8200         2.1470       0.472000
       3509.50        53.2930         1.8200         2.1720       0.460000
       3510.00        51.5170         1.8800         2.2020       0.442000
       3510.50        47.9640         2.0900         2.2100       0.416000
       3511.00        42.6350         2.7300         2.2590       0.374000
       3511.50        37.3050         3.4400         2.3080       0.326000
       3512.00        30.2000         3.3900         2.4420       0.289000
       3512.50        26.6470         3.2900         2.4930       0.279000
       3513.00        26.6470         3.3900         2.4230       0.286000
       3513.50        31.9760         3.4500         2.3340       0.290000
       3514.00        35.5290         3.1600         2.3110       0.290000
