~Version Information Block
VERS .                  2.0:  CWLS LOG ASCII STANDARD - VERSION 2.0
WRAP .                   NO:  One line per depth step
~Well Information Block
#MNEM.UNIT        Data Type   Information
#---------- ----------------  -----------
STRT .FT            3086.50:  START DEPTH
STOP .FT            8458.50:  STOP DEPTH
STEP .FT               0.50:  STEP
NULL .              -999.25:  NULL VALUE
COMP .                     :  COMPANY
WELL .            SA-5RD1HZ:  WELL
FLD  .                     :  FIELD
LOC  .                     :  LOCATION
CTRY .                     :  COUNTRY
STAT .                     :  STATE
CNTY .                     :  COUNTY
SRVC .                     :  SERVICE COMPANY
DATE .                     :  DATE
API  .                     :  API NUMBER
UWI  .                     :  UNIQUE WELL ID
~Curve Information Block
#MNEM.UNIT         API CODE   Curve Description
#---------- ----------------  -----------------
DEPTH.FT                   :  DEPTH
GR   .GAPI                 :  Gamma Ray
RT   .OHMM                 :  Deep resistivity
RHOB .G/C3                 :  Bulk density
NPHI .V/V                  :  Neutron porosity
~Parameter Information Block
#MNEM.UNIT            Value   Description
#---------- ----------------  -----------
PROJECT.            SERANG_FE:  
~Other Information Block
# 
~A       DEPTH             GR             RT           RHOB           NPHI 
# ...
       3782.00        69.2790         1.4200         2.1400       0.447000
       3782.50        69.2790         1.4300         2.1630       0.464000
       3783.00        72.8320         1.4300         2.1880       0.474000
       3783.50        74.6110         1.4200         2.2000       0.480000
       3784.00        76.3870         1.3800         2.2110       0.489000
       3784.50        74.6110         1.3700         2.2090       0.498000
       3785.00        76.3870         1.3500         2.2000       0.504000
       3785.50        78.1640         1.3200         2.1950       0.505000
       3786.00        79.9400         1.3200         2.1900       0.500000
       3786.50        79.9400         1.3100         2.1860       0.492000
       3787.00        79.9400         1.3000         2.1840       0.483000
       3787.50        81.7170         1.2700         2.1900       0.488000
       3788.00        85.2700         1.2600         2.1970       0.502000
       3788.50        87.0460         1.2600         2.2100       0.509000
       3789.00        85.2700         1.2600         2.2040       0.506000
       3789.50        81.7170         1.2300         2.1870       0.494000
       3790.00        79.9400         1.2600         2.1830       0.479000
       3790.50        83.4930         1.2200         2.1970       0.477000
       3791.00        85.2700         1.2300         2.2240       0.491000
       3791.50        87.0460         1.2700         2.2420       0.499000
       3792.00        85.2700         1.2300         2.2500       0.493000
       3792.50        83.4930         1.2200         2.2520       0.466000
       3793.00        79.9400         1.3100         2.2720       0.438000
       3793.50        76.3870         1.3500         2.2910       0.424000
       3794.00        76.3870         1.3800         2.3010       0.436000
       3794.50        71.0580         1.8000         2.3200       0.418000
       3795.00        63.9520         1.9700         2.2900       0.398000
       3795.50        53.2960         2.0300         2.1840       0.368000
       3796.00        47.9670         1.9800         2.1050       0.341000
       3796.50        44.4140         1.9200         2.0450       0.330000
       3797.00        42.6350         1.6600         2.0310       0.322000
       3797.50        44.4110         1.6900         2.0830       0.333000
       3798.00        49.7410         1.6600         2.1350       0.368000
       3798.50        56.8460         1.6600         2.1840       0.388000
       3799.00        62.1760         1.6300         2.1810       0.386000
       3799.50        63.9520         1.6700         2.1980       0.353000
       3800.00        63.9520         1.6700         2.2270       0.341000
       3800.50        65.7290         1.6200         2.2480       0.341000
       3801.00        67.5050         1.6200         2.2320       0.349000
       3801.50        65.7290         1.6200         2.2020       0.351000
       3802.00        60.3990         1.6100         2.1720       0.363000
       3802.50        53.2930         1.8500         2.1600       0.392000
       3803.00        51.5200         1.9100         2.1600       0.413000
       3803.50        49.7430         2.0100         2.1400       0.441000
       3804.00        49.7430         2.0500         2.1290       0.453000
       3804.50        47.9640         2.0800         2.1110       0.468000
       3805.00        46.1880         2.2700         2.1210       0.454000
       3805.50        46.1880         2.3700         2.1330       0.430000
       3806.00        44.4110         2.4900         2.1640       0.430000
       3806.50        44.4110         2.7800         2.1960       0.430000
       3807.00        44.4110         2.9700         2.2400       0.427000
       3807.50        46.1880         3.2400         2.2920       0.414000
       3808.00        47.9670         3.0000         2.2980       0.397000
       3808.50        47.9670         2.8700         2.2830       0.387000
       3809.00        49.7430         2.5800         2.2500       0.376000
       3809.50        49.7410         2.3700         2.2170       0.366000
       3810.00        49.7410         2.3400         2.2100       0.360000
       3810.50        47.9640         2.3000         2.2130       0.361000
       3811.00        46.1880         2.3600         2.2230       0.368000
       3811.50        44.4110         2.2900         2.2340       0.384000
       3812.00        44.4110         2.2900         2.2480       0.398000
       3812.50        46.1880         2.1700         2.2640       0.413000
       3813.00        47.9640         2.1600         2.2700       0.423000
       3813.50        46.1880         2.2100         2.2520       0.428000
       3814.00        46.1880         2.0200         2.2210       0.425000
       3814.50        46.1880         1.9000         2.1950       0.417000
       3815.00        47.9640         1.8600         2.1800       0.409000
       3815.50        47.9640         1.7900         2.1750       0.418000
       3816.00        47.9640         1.7700         2.1530       0.437000
       3816.50        47.9640         1.7000         2.1400       0.445000
       3817.00        47.9640         1.6800         2.1340       0.446000
       3817.50        47.9640         1.6200         2.1490       0.456000
       3818.00        47.9640         1.6100         2.1470       0.472000
       3818.50        49.7410         1.6200         2.1530       0.472000
       3819.00        51.5170         1.6300         2.1670       0.447000
       3819.50        53.2930         1.6300         2.1840       0.422000
       3820.00        51.5170         1.5700         2.1900       0.408000
       3820.50        49.7410         1.5000         2.1750       0.396000
       3821.00        51.5170         1.4800         2.1700       0.381000
       3821.50        56.8460         1.4100         2.1780       0.369000
       3822.00        58.6230         1.4300         2.1960       0.366000
       3822.50        62.1760         1.4000         2.2000       0.378000
       3823.00        62.1760         1.3700         2.1830       0.384000
       3823.50        63.9520         1.2800         2.1890       0.398000
       3824.00        62.1760         1.3000         2.1900       0.403000
       3824.50        63.9520         1.3000         2.2090       0.419000
       3825.00        67.5050         1.3100         2.2100       0.432000
       3825.50        71.0580         1.3300         2.2290       0.455000
       3826.00        72.8340         1.3400         2.2900       0.449000
       3826.50        71.0580         1.4300         2.2600       0.429000
       3827.00        63.9520         1.4900         2.1700       0.409000
       3827.50        53.2930         1.4800         2.0510       0.389000
       3828.00        47.9640         1.3700         2.0400       0.370000
       3828.50        44.4110         1.2100         2.0900       0.359000
       3829.00        44.4110         1.2000         2.1390       0.354000
       3829.50        44.4110         1.2200         2.1010       0.380000
       3830.00        47.9640         1.2200         2.0310       0.392000
       3830.50        51.5170         1.1000         1.9710       0.408000
       3831.00        51.5170         0.9100         1.9410       0.400000
       3831.50        49.7430         0.8900         1.9300       0.403000
       3832.00        46.1900         0.8500         1.9500       0.424000
       3832.50        42.6380         0.8700         1.9890       0.449000
       3833.00        40.8580         0.8600         2.0580       0.446000
       3833.50        39.0790         0.9600         2.1180       0.425000
       3834.00        40.8550         1.3000         2.1780       0.401000
       3834.50        40.8550         1.4900         2.2090       0.402000
       3835.00        44.4110         1.5700         2.2290       0.414000
