~Version Information Block
VERS .                  2.0:  CWLS LOG ASCII STANDARD - VERSION 2.0
WRAP .                   NO:  One line per depth step
~Well Information Block
#MNEM.UNIT        Data Type   Information
#---------- ----------------  -----------
STRT .FT            3086.50:  START DEPTH
STOP .FT            8458.50:  STOP DEPTH
STEP .FT               0.50:  STEP
NULL .              -999.25:  NULL VALUE
COMP .                     :  COMPANY
WELL .            SA-5RD1HZ:  WELL
FLD  .                     :  FIELD
LOC  .                     :  LOCATION
CTRY .                     :  COUNTRY
STAT .                     :  STATE
CNTY .                     :  COUNTY
SRVC .                     :  SERVICE COMPANY
DATE .                     :  DATE
API  .                     :  API NUMBER
UWI  .                     :  UNIQUE WELL ID
~Curve Information Block
#MNEM.UNIT         API CODE   Curve Description
#---------- ----------------  -----------------
DEPTH.FT                   :  DEPTH
GR   .GAPI                 :  Gamma Ray
RT   .OHMM                 :  Deep resistivity
RHOB .G/C3                 :  Bulk density
NPHI .V/V                  :  Neutron porosity
~Parameter Information Block
#MNEM.UNIT            Value   Description
#---------- ----------------  -----------
PROJECT.            SERANG_FE:  
~Other Information Block
# 
~A       DEPTH             GR             RT           RHOB           NPHI 
# ...
       7687.50        21.9700        39.0700         2.0700       0.230000
       7688.00        21.1250        40.8800         2.0700       0.220000
       7688.50        21.9700        41.9100         2.0700       0.230000
       7689.00        22.8150        43.8300         2.0700       0.230000
       7689.50        23.6600        52.9300         2.0700       0.230000
       7690.00        24.5050        55.3400         2.0700       0.230000
       7690.50        24.5050        61.0500         2.0600       0.230000
       7691.00        25.3500        62.4500         2.0500       0.230000
       7691.50        26.6180        69.7900         2.0700       0.230000
       7692.00        30.8430        77.4600         2.1000       0.240000
       7692.50        32.9550        86.3800         2.1500       0.240000
       7693.00        31.2650        92.2200         2.1700       0.240000
       7693.50        27.4630        96.8200         2.1500       0.230000
       7694.00        25.7730       105.8800         2.1400       0.230000
       7694.50        27.0400       136.3500         2.1400       0.230000
       7695.00        27.8850       238.2200         2.1700       0.230000
       7695.50        29.5750       309.8000         2.1900       0.230000
       7696.00        30.8430       380.1100         2.2100       0.240000
       7696.50        31.2650       457.8300         2.1800       0.240000
       7697.00        31.2650       530.4600         2.1900       0.240000
       7697.50        31.2650       292.1200         2.2000       0.240000
       7698.00        32.5330       157.6800         2.2500       0.240000
       7698.50        34.6450       151.2400         2.2400       0.240000
       7699.00        35.9130       134.3000         2.2300       0.240000
       7699.50        35.4900        90.1900         2.2300       0.240000
       7700.00        32.5330        79.5700         2.2300       0.230000
       7700.50        29.5750        65.0100         2.2200       0.230000
       7701.00        27.0400        57.5000         2.2300       0.230000
       7701.50        27.0400        61.9300         2.2300       0.230000
       7702.00        27.0400        67.4700         2.1800       0.220000
       7702.50        26.1950        51.0700         2.1400       0.220000
       7703.00        23.2380        33.9500         2.0900       0.230000
       7703.50        21.1250        37.8300         2.0900       0.230000
       7704.00        20.2800        39.1800         2.0800       0.230000
       7704.50        20.2800        40.5700         2.0500       0.230000
       7705.00        20.2800        35.6900         2.0300       0.240000
       7705.50        19.4350        43.0600         2.0200       0.240000
       7706.00        19.0130        46.3800         2.0600       0.240000
       7706.50        18.5900        52.8400         2.0900       0.230000
       7707.00        18.1680        54.9300         2.0900       0.230000
       7707.50        17.7450        48.7700         2.0900       0.220000
       7708.00        16.4780        48.0900         2.0800       0.220000
       7708.50        16.4780        49.2100         2.0800       0.220000
       7709.00        16.9000        52.2700         2.0800       0.220000
       7709.50        17.7450        51.8900         2.0700       0.220000
       7710.00        19.0130        48.1800         2.0700       0.220000
       7710.50        18.5900        47.2600         2.0800       0.210000
       7711.00        19.4350        45.9900         2.0800       0.210000
       7711.50        18.5900        46.0700         2.0800       0.210000
       7712.00        18.1680        48.0100         2.0800       0.210000
       7712.50        17.3230        50.8000         2.0700       0.210000
       7713.00        17.3230        49.2100         2.0800       0.200000
       7713.50        18.1680        50.6200         2.0800       0.200000
       7714.00        16.9000        48.7700         2.0800       0.200000
       7714.50        16.4780        50.2700         2.0800       0.200000
       7715.00        15.6330        51.0700         2.0900       0.200000
       7715.50        16.0550        50.1000         2.0900       0.200000
       7716.00        17.3230        52.5500         2.0800       0.200000
       7716.50        17.7450        52.4600         2.0800       0.200000
       7717.00        18.5900        50.8000         2.0700       0.200000
       7717.50        17.3230        53.4200         2.0700       0.210000
       7718.00        17.3230        55.9700         2.0800       0.200000
       7718.50        17.3230        56.8400         2.0900       0.200000
       7719.00        17.3230        56.2900         2.0900       0.200000
       7719.50        17.3230        56.5100         2.0900       0.200000
       7720.00        17.7450        56.2900         2.0800       0.200000
       7720.50        19.0130        57.9500         2.0800       0.200000
       7721.00        19.8580        57.6200         2.0800       0.200000
       7721.50        20.2800        57.5000         2.0900       0.200000
       7722.00        19.4350        56.6200         2.1000       0.200000
       7722.50        19.4350        57.8400         2.1000       0.200000
       7723.00        19.0130        55.7600         2.1000       0.200000
       7723.50        20.7030        56.7300         2.0900       0.200000
       7724.00        21.1250        56.6200         2.0900       0.200000
       7724.50        21.9700        54.8200         2.0900       0.200000
       7725.00        21.5480        54.8200         2.0900       0.210000
       7725.50        21.5480        54.2100         2.0900       0.210000
       7726.00        21.9700        55.5500         2.1000       0.210000
       7726.50        22.8150        54.6200         2.1000       0.210000
       7727.00        23.2380        55.7600         2.1000       0.210000
       7727.50        22.8150        53.6200         2.1100       0.210000
       7728.00        21.5480        53.3200         2.1400       0.210000
       7728.50        21.1250        52.4600         2.1500       0.210000
       7729.00        21.1250        53.0300         2.1600       0.210000
       7729.50        20.7030        54.8200         2.1600       0.200000
       7730.00        21.1250        51.0700         2.1400       0.210000
       7730.50        21.9700        52.5500         2.1300       0.210000
       7731.00        23.2380        53.1300         2.1200       0.210000
       7731.50        23.2380        51.5300         2.1300       0.200000
       7732.00        22.8150        51.8900         2.1400       0.200000
       7732.50        22.8150        52.4600         2.1500       0.200000
       7733.00        22.8150        53.9100         2.1500       0.200000
       7733.50        23.6600        51.1600         2.1400       0.190000
       7734.00        25.7730        48.7700         2.1400       0.190000
       7734.50        28.7300        44.9200         2.1300       0.200000
       7735.00        30.4200        46.3000         2.1200       0.210000
       7735.50        31.2650        48.8600         2.1000       0.210000
       7736.00        31.2650        45.3700         2.1000       0.210000
       7736.50        33.3780        54.8200         2.1200       0.220000
       7737.00        35.9130        51.3400         2.1500       0.230000
       7737.50        37.6030        67.4700         2.1900       0.230000
       7738.00        41.8280        41.7800         2.2600       0.240000
       7738.50        49.4330        65.4300         2.3300       0.250000
       7739.00        57.0380       380.1100         2.4000       0.250000
       7739.50        59.5730       272.3900         2.4400       0.250000
       7740.00        56.6160       222.1300         2.4600       0.260000
       7740.50        53.6580       126.6300         2.4200       0.270000
