~Version Information Block
VERS .                  2.0:  CWLS LOG ASCII STANDARD - VERSION 2.0
WRAP .                   NO:  One line per depth step
~Well Information Block
#MNEM.UNIT        Data Type   Information
#---------- ----------------  -----------
STRT .FT            3086.50:  START DEPTH
STOP .FT            8458.50:  STOP DEPTH
STEP .FT               0.50:  STEP
NULL .              -999.25:  NULL VALUE
COMP .                     :  COMPANY
WELL .            SA-5RD1HZ:  WELL
FLD  .                     :  FIELD
LOC  .                     :  LOCATION
CTRY .                     :  COUNTRY
STAT .                     :  STATE
CNTY .                     :  COUNTY
SRVC .                     :  SERVICE COMPANY
DATE .                     :  DATE
API  .                     :  API NUMBER
UWI  .                     :  UNIQUE WELL ID
~Curve Information Block
#MNEM.UNIT         API CODE   Curve Description
#---------- ----------------  -----------------
DEPTH.FT                   :  DEPTH
GR   .GAPI                 :  Gamma Ray
RT   .OHMM                 :  Deep resistivity
RHOB .G/C3                 :  Bulk density
NPHI .V/V                  :  Neutron porosity
~Parameter Information Block
#MNEM.UNIT            Value   Description
#---------- ----------------  -----------
PROJECT.            SERANG_FE:  
~Other Information Block
# 
~A       DEPTH             GR             RT           RHOB           NPHI 
# ...
       5601.00        24.0830         0.7500         2.0570       0.352000
       5601.50        25.7730         0.7800         2.0770       0.356000
       5602.00        27.8850         0.8100         2.0940       0.359000
       5602.50        29.5750         0.8500         2.1000       0.354000
       5603.00        28.7300         0.9800         2.1070       0.349000
       5603.50        29.1530         1.0100         2.1370       0.344000
       5604.00        29.9980         1.0500         2.1800       0.339000
       5604.50        35.0680         1.1200         2.2030       0.333000
       5605.00        38.8700         1.2400         2.2200       0.326000
       5605.50        40.9830         1.2200         2.2430       0.326000
       5606.00        39.2930         1.1200         2.2560       0.329000
       5606.50        37.1800         0.9500         2.2570       0.330000
       5607.00        36.7580         0.8400         2.2240       0.331000
       5607.50        37.6030         0.8200         2.1970       0.335000
       5608.00        38.4480         0.9000         2.1670       0.339000
       5608.50        39.2930         0.9800         2.1570       0.340000
       5609.00        37.1800         0.9800         2.1620       0.343000
       5609.50        35.9130         1.0400         2.2080       0.351000
       5610.00        36.3350         1.6000         2.2770       0.356000
       5610.50        38.8700         2.1000         2.3550       0.348000
       5611.00        42.6730         1.8800         2.4020       0.335000
       5611.50        44.7860         1.4600         2.4180       0.332000
       5612.00        49.8560         1.3900         2.3730       0.341000
       5612.50        52.8130         1.3900         2.3080       0.357000
       5613.00        55.7710         1.4000         2.2420       0.374000
       5613.50        55.7710         1.4300         2.2280       0.394000
       5614.00        56.6160         1.4800         2.2530       0.410000
       5614.50        56.1930         1.2500         2.2550       0.421000
       5615.00        55.7710         1.2100         2.2370       0.426000
       5615.50        52.3910         1.3400         2.2220       0.418000
       5616.00        50.2780         1.5800         2.2160       0.406000
       5616.50        41.4060         1.9400         2.2600       0.392000
       5617.00        34.6450         1.9400         2.2930       0.356000
       5617.50        27.8850         3.0700         2.4000       0.305000
       5618.00        26.1950         3.4100         2.4540       0.266000
       5618.50        24.5050         3.4100         2.5250       0.241000
       5619.00        21.9700         3.5000         2.5050       0.226000
       5619.50        21.1250         4.0100         2.4900       0.212000
       5620.00        20.2800         4.0100         2.4920       0.202000
       5620.50        20.2800         4.2900         2.5020       0.197000
       5621.00        21.5480         4.3000         2.5060       0.190000
       5621.50        22.8150         4.3000         2.4860       0.180000
       5622.00        24.0830         3.9300         2.4680       0.170000
       5622.50        24.0830         4.1000         2.4640       0.163000
       5623.00        24.0830         4.1000         2.4840       0.163000
       5623.50        28.3080         4.7200         2.5000       0.169000
       5624.00        32.5330         4.7200         2.4980       0.175000
       5624.50        36.7580         2.6700         2.4940       0.173000
       5625.00        36.7580         2.6700         2.5160       0.168000
       5625.50        32.9550         6.2300         2.5440       0.163000
       5626.00        29.1530         6.2300         2.5580       0.158000
       5626.50        25.3500         5.5700         2.5480       0.151000
       5627.00        25.3500         5.5700         2.5360       0.143000
       5627.50        24.5050         5.5700         2.5130       0.140000
       5628.00        23.6600         6.2700         2.4710       0.144000
       5628.50        21.5480         6.2700         2.4230       0.153000
       5629.00        20.2800         6.5700         2.3900       0.160000
       5629.50        19.8580         6.5700         2.3950       0.158000
       5630.00        20.7030         6.7500         2.4280       0.154000
       5630.50        21.5480         6.7500         2.4720       0.150000
       5631.00        21.9700         6.2900         2.4820       0.150000
       5631.50        22.3930         6.2900         2.4900       0.150000
       5632.00        22.8150         5.4400         2.4910       0.150000
       5632.50        22.8150         5.4400         2.5000       0.151000
       5633.00        23.2380         4.9200         2.4980       0.157000
       5633.50        23.6600         4.9200         2.4900       0.166000
       5634.00        24.5050         4.6600         2.4900       0.170000
       5634.50        24.9280         4.6600         2.4900       0.170000
       5635.00        25.3500         4.6600         2.4900       0.170000
       5635.50        25.3500         4.4800         2.4900       0.169000
       5636.00        25.3500         4.4800         2.4900       0.163000
       5636.50        23.6600         4.9200         2.4890       0.154000
       5637.00        21.9700         4.9200         2.4790       0.149000
       5637.50        20.2800         5.8600         2.4710       0.144000
       5638.00        22.3930         5.8600         2.4830       0.139000
       5638.50        23.6600         5.5100         2.5140       0.135000
       5639.00        24.9280         5.5100         2.5520       0.130000
       5639.50        24.0830         5.5100         2.5720       0.130000
       5640.00        27.0400         6.0600         2.5890       0.131000
       5640.50        29.9980         6.0600         2.5790       0.136000
       5641.00        36.3350         3.8700         2.5690       0.151000
       5641.50        39.7150         3.8700         2.5590       0.171000
       5642.00        41.8280         2.5300         2.5470       0.195000
       5642.50        40.5610         2.5300         2.5200       0.209000
       5643.00        39.2930         3.5900         2.5220       0.203000
       5643.50        35.9130         3.5900         2.5550       0.182000
       5644.00        32.5330         3.5900         2.6110       0.152000
       5644.50        28.3080         7.1900         2.6190       0.128000
       5645.00        27.4630         7.1900         2.6090       0.114000
       5645.50        26.6180         7.1900         2.6000       0.110000
       5646.00        26.6180         7.8200         2.6000       0.112000
       5646.50        26.6180         7.0800         2.6010       0.117000
       5647.00        27.4630         7.2100         2.6210       0.120000
       5647.50        28.3080         7.2100         2.6280       0.120000
       5648.00        31.2650         7.2900         2.5980       0.123000
       5648.50        33.3780         7.2900         2.5590       0.130000
       5649.00        35.4900         4.9300         2.5400       0.138000
       5649.50        34.6450         4.9300         2.5400       0.140000
       5650.00        33.8000         7.0400         2.5310       0.140000
       5650.50        32.9550         7.0400         2.5610       0.137000
       5651.00        32.9550         7.0400         2.6000       0.131000
       5651.50        32.9550         5.4400         2.6100       0.126000
       5652.00        33.8000         5.4400         2.6000       0.125000
       5652.50        34.6450         5.8800         2.5900       0.130000
       5653.00        35.4900         5.8800         2.5890       0.134000
       5653.50        37.6030         4.5200         2.5500       0.141000
       5654.00        39.7150         4.5200         2.5200       0.150000
