~Version Information Block
VERS .                  2.0:  CWLS LOG ASCII STANDARD - VERSION 2.0
WRAP .                   NO:  One line per depth step
~Well Information Block
#MNEM.UNIT        Data Type   Information
#---------- ----------------  -----------
STRT .FT            3086.50:  START DEPTH
STOP .FT            8458.50:  STOP DEPTH
STEP .FT               0.50:  STEP
NULL .              -999.25:  NULL VALUE
COMP .                     :  COMPANY
WELL .            SA-5RD1HZ:  WELL
FLD  .                     :  FIELD
LOC  .                     :  LOCATION
CTRY .                     :  COUNTRY
STAT .                     :  STATE
CNTY .                     :  COUNTY
SRVC .                     :  SERVICE COMPANY
DATE .                     :  DATE
API  .                     :  API NUMBER
UWI  .                     :  UNIQUE WELL ID
~Curve Information Block
#MNEM.UNIT         API CODE   Curve Description
#---------- ----------------  -----------------
DEPTH.FT                   :  DEPTH
GR   .GAPI                 :  Gamma Ray
RT   .OHMM                 :  Deep resistivity
RHOB .G/C3                 :  Bulk density
NPHI .V/V                  :  Neutron porosity
~Parameter Information Block
#MNEM.UNIT            Value   Description
#---------- ----------------  -----------
PROJECT.            SERANG_FE:  
~Other Information Block
# 
~A       DEPTH             GR             RT           RHOB           NPHI 
# ...
       4852.00        26.6470         2.6100         2.1920       0.335000
       4852.50        26.6470         2.3900         2.2000       0.326000
       4853.00        26.6470         2.2600         2.2030       0.316000
       4853.50        26.6470         2.2400         2.2210       0.306000
       4854.00        24.8700         2.3400         2.2300       0.301000
       4854.50        24.0300         2.4100         2.2260       0.308000
       4855.00        23.0880         2.2400         2.1940       0.324000
       4855.50        24.0360         2.1100         2.1490       0.338000
       4856.00        23.9260         2.1100         2.1420       0.350000
       4856.50        23.0910         2.1500         2.1640       0.350000
       4857.00        22.1430         2.8100         2.2020       0.346000
       4857.50        23.0940         3.3500         2.2190       0.336000
       4858.00        24.8700         3.2500         2.2070       0.323000
       4858.50        26.6470         3.5900         2.1670       0.307000
       4859.00        26.6470         3.4500         2.1290       0.300000
       4859.50        28.4230         3.7400         2.1110       0.303000
       4860.00        30.2000         4.2300         2.1320       0.307000
       4860.50        31.9760         4.4400         2.1920       0.300000
       4861.00        31.9760         4.4600         2.2620       0.290000
       4861.50        30.2000         4.1400         2.3310       0.264000
       4862.00        28.4230         3.8900         2.3710       0.244000
       4862.50        24.8700         3.9100         2.4200       0.224000
       4863.00        23.0940         4.2600         2.4200       0.210000
       4863.50        20.2420         4.5600         2.4200       0.210000
       4864.00        20.2420         4.5300         2.2720       0.213000
       4864.50        20.2420         4.2800         2.1430       0.226000
       4865.00        21.3170         3.4800         2.1210       0.251000
       4865.50        21.3170         3.7200         2.1490       0.290000
       4866.00        21.3170         3.4500         2.1980       0.316000
       4866.50        21.3170         3.9100         2.2090       0.305000
       4867.00        21.3170         3.8200         2.2660       0.291000
       4867.50        21.3170         3.9800         2.2980       0.287000
       4868.00        20.1860         4.3800         2.3090       0.275000
       4868.50        21.9620         4.5400         2.2270       0.256000
       4869.00        23.7390         4.4800         2.1560       0.241000
       4869.50        26.2380         4.3800         2.0960       0.243000
       4870.00        24.4620         4.5500         2.1530       0.249000
       4870.50        22.6850         4.0400         2.2310       0.237000
       4871.00        21.3170         4.9300         2.3900       0.194000
       4871.50        21.3170         5.7200         2.4450       0.161000
       4872.00        21.7090         5.8200         2.4500       0.153000
       4872.50        23.4850         6.0400         2.4670       0.167000
       4873.00        27.0380         6.4600         2.4270       0.192000
       4873.50        30.5800         5.6000         2.4200       0.213000
       4874.00        34.1330         4.7100         2.4030       0.225000
       4874.50        35.5350         5.0400         2.4330       0.216000
       4875.00        35.1540         5.8800         2.4150       0.205000
       4875.50        31.2370         6.1600         2.3610       0.216000
       4876.00        26.2820         6.1200         2.2930       0.248000
       4876.50        22.7290         3.5000         2.2320       0.293000
       4877.00        21.3170         3.1600         2.1880       0.327000
       4877.50        21.6700         2.9700         2.1720       0.331000
       4878.00        23.1010         3.2100         2.2010       0.303000
       4878.50        23.1010         3.3200         2.2640       0.256000
       4879.00        23.0940         4.1300         2.3570       0.211000
       4879.50        23.4400         5.5900         2.4480       0.178000
       4880.00        25.2170         6.0300         2.5300       0.151000
       4880.50        26.6470         5.6400         2.5650       0.131000
       4881.00        26.3230         6.8500         2.5850       0.122000
       4881.50        24.8660         7.3300         2.5610       0.122000
       4882.00        24.8660         7.7600         2.4920       0.135000
       4882.50        25.5060         5.5800         2.3990       0.165000
       4883.00        29.0470         4.4100         2.2990       0.215000
       4883.50        34.3770         2.3500         2.2210       0.274000
       4884.00        39.3890         2.0200         2.1380       0.318000
       4884.50        42.6350         1.9800         2.0900       0.352000
       4885.00        42.6350         1.8800         2.0940       0.383000
       4885.50        40.8580         1.8900         2.1600       0.396000
       4886.00        39.0820         2.3400         2.2300       0.386000
       4886.50        37.3050         2.6500         2.1970       0.373000
       4887.00        37.3050         2.3300         2.0730       0.389000
       4887.50        35.5290         1.9400         1.9300       0.424000
       4888.00        33.7530         1.6800         1.8170       0.469000
       4888.50        32.2370         1.9100         1.7920       0.495000
       4889.00        34.0140         1.8500         1.8560       0.492000
       4889.50        37.8170         1.8300         1.9820       0.465000
       4890.00        42.8850         1.8200         2.0760       0.429000
       4890.50        46.4380         2.6100         2.1480       0.383000
       4891.00        47.9640         3.2100         2.2390       0.328000
       4891.50        47.9640         3.8400         2.3610       0.278000
       4892.00        48.1930         4.7400         2.4370       0.238000
       4892.50        48.1930         4.5700         2.4560       0.209000
       4893.00        44.4280         7.5300         2.4940       0.177000
       4893.50        38.8710         8.0400         2.5090       0.148000
       4894.00        33.7460         6.7100         2.4670       0.136000
       4894.50        35.7330         4.7500         2.4130       0.148000
       4895.00        37.5100         5.0500         2.4270       0.173000
       4895.50        37.1230         5.0600         2.4910       0.193000
       4896.00        30.1890         5.3500         2.5200       0.198000
       4896.50        26.8060         4.7800         2.4080       0.195000
       4897.00        28.9190         2.9100         2.2300       0.203000
       4897.50        35.8540         2.3300         2.1650       0.230000
       4898.00        41.0130         2.9000         2.1890       0.264000
       4898.50        42.6350         2.5600         2.2200       0.289000
       4899.00        40.9950         2.6900         2.1500       0.304000
       4899.50        40.9950         2.5700         2.0140       0.320000
       4900.00        42.7710         2.3700         1.9550       0.340000
       4900.50        46.0730         2.2000         1.9540       0.359000
       4901.00        45.9600         2.5500         2.0040       0.367000
       4901.50        40.5280         3.3400         2.1340       0.352000
       4902.00        33.5370         3.3300         2.2770       0.323000
       4902.50        26.5450         2.7300         2.3320       0.301000
       4903.00        23.0940         2.4900         2.3120       0.304000
       4903.50        21.3170         2.7200         2.3000       0.323000
       4904.00        23.0940         2.8400         2.3120       0.332000
       4904.50        24.9440         2.8400         2.3260       0.321000
       4905.00        30.2730         2.7000         2.3080       0.304000
