~Version Information Block
VERS .                  2.0:  CWLS LOG ASCII STANDARD - VERSION 2.0
WRAP .                   NO:  One line per depth step
~Well Information Block
#MNEM.UNIT        Data Type   Information
#---------- ----------------  -----------
STRT .FT            3086.50:  START DEPTH
STOP .FT            8458.50:  STOP DEPTH
STEP .FT               0.50:  STEP
NULL .              -999.25:  NULL VALUE
COMP .                     :  COMPANY
WELL .            SA-5RD1HZ:  WELL
FLD  .                     :  FIELD
LOC  .                     :  LOCATION
CTRY .                     :  COUNTRY
STAT .                     :  STATE
CNTY .                     :  COUNTY
SRVC .                     :  SERVICE COMPANY
DATE .                     :  DATE
API  .                     :  API NUMBER
UWI  .                     :  UNIQUE WELL ID
~Curve Information Block
#MNEM.UNIT         API CODE   Curve Description
#---------- ----------------  -----------------
DEPTH.FT                   :  DEPTH
GR   .GAPI                 :  Gamma Ray
RT   .OHMM                 :  Deep resistivity
RHOB .G/C3                 :  Bulk density
NPHI .V/V                  :  Neutron porosity
~Parameter Information Block
#MNEM.UNIT            Value   Description
#---------- ----------------  -----------
PROJECT.            SERANG_FE:  
~Other Information Block
# 
~A       DEPTH             GR             RT           RHOB           NPHI 
# ...
       4477.50        37.3050         2.5500         2.4340       0.214000
       4478.00        37.1460         2.3700         2.4400       0.225000
       4478.50        38.9220         2.2800         2.4180       0.243000
       4479.00        37.1460         1.9300         2.3440       0.278000
       4479.50        37.3050         1.6700         2.2560       0.329000
       4480.00        38.7980         1.4900         2.1910       0.376000
       4480.50        44.1270         1.3500         2.1370       0.404000
       4481.00        51.6080         1.3600         2.1080       0.407000
       4481.50        54.0780         1.3000         2.0610       0.398000
       4482.00        59.4070         1.3000         2.0510       0.406000
       4482.50        64.3620         1.2500         2.0240       0.424000
       4483.00        69.7940         1.2600         2.0360       0.440000
       4483.50        73.3470         1.2300         2.0550       0.446000
       4484.00        73.3470         1.2100         2.0880       0.456000
       4484.50        75.2370         1.2200         2.1130       0.471000
       4485.00        77.0140         1.1400         2.1260       0.477000
       4485.50        77.0140         1.1100         2.1350       0.472000
       4486.00        78.1640         1.1000         2.1540       0.461000
       4486.50        79.1910         1.0800         2.1740       0.455000
       4487.00        84.5200         1.0500         2.1830       0.457000
       4487.50        86.2970         1.0600         2.1840       0.460000
       4488.00        87.0460         1.0400         2.1700       0.464000
       4488.50        85.2700         1.0400         2.1680       0.476000
       4489.00        83.4930         1.0200         2.1600       0.489000
       4489.50        79.9400         0.9700         2.1600       0.490000
       4490.00        79.9400         0.9700         2.1600       0.484000
       4490.50        81.7170         0.9400         2.1790       0.483000
       4491.00        85.2700         0.9400         2.1980       0.482000
       4491.50        83.4360         0.9300         2.1920       0.495000
       4492.00        83.4360         0.9200         2.1740       0.498000
       4492.50        83.4360         0.9500         2.1630       0.510000
       4493.00        85.2700         0.9500         2.1470       0.518000
       4493.50        83.4930         0.9400         2.1340       0.518000
       4494.00        81.7170         0.9400         2.1410       0.512000
       4494.50        79.9400         0.9500         2.1550       0.508000
       4495.00        79.9400         0.9400         2.1640       0.505000
       4495.50        79.9400         0.9300         2.1700       0.507000
       4496.00        78.1640         0.9100         2.1700       0.516000
       4496.50        76.3870         0.9700         2.1670       0.520000
       4497.00        72.8340         1.0200         2.1580       0.519000
       4497.50        72.8340         1.0300         2.1500       0.513000
       4498.00        71.0580         1.0200         2.1480       0.508000
       4498.50        71.0580         1.1000         2.1280       0.523000
       4499.00        65.9790         1.2500         2.0900       0.535000
       4499.50        60.9110         1.4500         2.0430       0.551000
       4500.00        57.3580         1.5500         2.0400       0.557000
       4500.50        60.3640         1.3100         2.0580       0.543000
       4501.00        68.6780         1.2400         2.0970       0.505000
       4501.50        75.4650         1.1900         2.1470       0.459000
       4502.00        77.5370         1.1900         2.1980       0.437000
       4502.50        72.5160         1.3300         2.2000       0.447000
       4503.00        65.7290         1.4000         2.1600       0.440000
       4503.50        55.4340         1.5100         2.1400       0.438000
       4504.00        48.3290         1.5800         2.1310       0.433000
       4504.50        46.1490         1.5000         2.1510       0.448000
       4505.00        45.7850         1.5200         2.1610       0.470000
       4505.50        47.5610         1.4400         2.1820       0.469000
       4506.00        44.8780         1.3700         2.2100       0.460000
       4506.50        48.4310         1.2900         2.2100       0.440000
       4507.00        50.2070         1.4100         2.2090       0.439000
       4507.50        50.2870         1.4100         2.2000       0.436000
       4508.00        46.7340         1.5300         2.1970       0.430000
       4508.50        44.9580         1.5800         2.1780       0.433000
       4509.00        49.1480         1.5700         2.1700       0.445000
       4509.50        54.4780         1.5600         2.1740       0.463000
       4510.00        58.0310         1.5800         2.1900       0.458000
       4510.50        56.8460         1.6100         2.1900       0.442000
       4511.00        49.7410         1.7200         2.1900       0.429000
       4511.50        41.9650         1.9000         2.1960       0.417000
       4512.00        39.5050         2.0400         2.2160       0.408000
       4512.50        43.0580         1.8700         2.2300       0.402000
       4513.00        47.2810         1.7700         2.2300       0.410000
       4513.50        47.2090         1.6700         2.2300       0.423000
       4514.00        46.2050         1.6400         2.2410       0.426000
       4514.50        44.4280         1.6700         2.2560       0.413000
       4515.00        43.4070         1.6700         2.2420       0.391000
       4515.50        42.6350         1.6700         2.2170       0.382000
       4516.00        42.6350         1.8100         2.1870       0.397000
       4516.50        40.8580         1.7800         2.1650       0.413000
       4517.00        39.9130         1.8000         2.1650       0.410000
       4517.50        40.8500         1.7500         2.1900       0.394000
       4518.00        43.5570         1.7000         2.2360       0.383000
       4518.50        46.2790         1.6400         2.2860       0.383000
       4519.00        48.8950         1.5400         2.3100       0.384000
       4519.50        55.9700         1.5500         2.2880       0.381000
       4520.00        66.6280         1.5500         2.2410       0.377000
       4520.50        75.5110         1.4900         2.2020       0.381000
       4521.00        78.1640         1.4700         2.1780       0.392000
       4521.50        78.1640         1.3700         2.1570       0.402000
       4522.00        79.9400         1.4100         2.1240       0.404000
       4522.50        81.7170         1.3600         2.0970       0.401000
       4523.00        81.7170         1.4000         2.0900       0.402000
       4523.50        79.9400         1.3600         2.1110       0.412000
       4524.00        76.3870         1.3200         2.1420       0.425000
       4524.50        74.6110         1.4000         2.1500       0.434000
       4525.00        74.6110         1.3500         2.1500       0.432000
       4525.50        79.9400         1.3000         2.1500       0.423000
       4526.00        82.7420         1.3400         2.1580       0.416000
       4526.50        82.0010         1.3300         2.1440       0.414000
       4527.00        79.4930         1.4700         2.1400       0.408000
       4527.50        76.6910         1.4700         2.1480       0.408000
       4528.00        75.6550         1.4700         2.1330       0.411000
       4528.50        72.1420         1.3800         2.1300       0.414000
       4529.00        66.8130         1.4000         2.0940       0.401000
       4529.50        61.4830         1.4500         2.0990       0.387000
       4530.00        55.0700         1.5300         2.0910       0.396000
       4530.50        51.5170         1.6900         2.1180       0.432000
