~Version Information Block
VERS .                  2.0:  CWLS LOG ASCII STANDARD - VERSION 2.0
WRAP .                   NO:  One line per depth step
~Well Information Block
#MNEM.UNIT        Data Type   Information
#---------- ----------------  -----------
STRT .FT            3086.50:  START DEPTH
STOP .FT            8458.50:  STOP DEPTH
STEP .FT               0.50:  STEP
NULL .              -999.25:  NULL VALUE
COMP .                     :  COMPANY
WELL .            SA-5RD1HZ:  WELL
FLD  .                     :  FIELD
LOC  .                     :  LOCATION
CTRY .                     :  COUNTRY
STAT .                     :  STATE
CNTY .                     :  COUNTY
SRVC .                     :  SERVICE COMPANY
DATE .                     :  DATE
API  .                     :  API NUMBER
UWI  .                     :  UNIQUE WELL ID
~Curve Information Block
#MNEM.UNIT         API CODE   Curve Description
#---------- ----------------  -----------------
DEPTH.FT                   :  DEPTH
GR   .GAPI                 :  Gamma Ray
RT   .OHMM                 :  Deep resistivity
RHOB .G/C3                 :  Bulk density
NPHI .V/V                  :  Neutron porosity
~Parameter Information Block
#MNEM.UNIT            Value   Description
#---------- ----------------  -----------
PROJECT.            SERANG_FE:  
~Other Information Block
# 
~A       DEPTH             GR             RT           RHOB           NPHI 
# ...
       4156.50        38.3780         1.9300         2.2830       0.400000
       4157.00        36.6020         1.8700         2.2930       0.400000
       4157.50        36.6020         2.0000         2.3000       0.401000
       4158.00        39.7420         1.7200         2.2830       0.408000
       4158.50        46.8480         1.6200         2.2330       0.423000
       4159.00        54.5900         1.4600         2.1770       0.439000
       4159.50        62.8110         1.4100         2.1070       0.454000
       4160.00        63.9810         1.3400         2.0430       0.468000
       4160.50        65.7140         1.3100         2.0030       0.478000
       4161.00        63.9370         1.3400         1.9900       0.483000
       4161.50        67.5390         1.2900         2.0030       0.477000
       4162.00        72.2760         1.2600         2.0530       0.468000
       4162.50        75.8290         1.2400         2.1170       0.464000
       4163.00        76.8530         1.2200         2.1530       0.461000
       4163.50        76.4200         1.2100         2.1570       0.464000
       4164.00        78.5950         1.1900         2.1470       0.465000
       4164.50        78.1300         1.2100         2.1400       0.460000
       4165.00        80.3390         1.2000         2.1470       0.463000
       4165.50        79.6330         1.1900         2.1630       0.475000
       4166.00        81.6830         1.1900         2.1700       0.492000
       4166.50        79.9060         1.1200         2.1670       0.500000
       4167.00        81.9900         1.1100         2.1570       0.511000
       4167.50        79.9400         1.1500         2.1500       0.514000
       4168.00        81.7170         1.1000         2.1470       0.515000
       4168.50        79.9400         1.1100         2.1430       0.504000
       4169.00        79.9400         1.1100         2.1530       0.487000
       4169.50        76.3870         1.0500         2.1570       0.467000
       4170.00        78.1870         1.0700         2.1470       0.458000
       4170.50        78.1870         1.0700         2.1430       0.460000
       4171.00        83.6180         1.0900         2.1500       0.480000
       4171.50        81.6890         1.0600         2.1530       0.501000
       4172.00        83.2940         1.0600         2.1600       0.512000
       4172.50        83.1920         1.0400         2.1600       0.515000
       4173.00        86.6360         1.0700         2.1570       0.511000
       4173.50        88.5830         1.0500         2.1500       0.507000
       4174.00        86.8070         1.0400         2.1470       0.505000
       4174.50        84.9460         1.0200         2.1430       0.508000
       4175.00        84.9460         1.0000         2.1470       0.513000
       4175.50        84.9460         1.0000         2.1430       0.518000
       4176.00        85.2700         0.9600         2.1470       0.523000
       4176.50        82.5110         1.0000         2.1370       0.528000
       4177.00        80.3210         0.9700         2.1300       0.536000
       4177.50        80.3210         0.9500         2.1270       0.547000
       4178.00        84.8550         0.9300         2.1200       0.554000
       4178.50        84.0040         0.9600         2.1170       0.546000
       4179.00        83.4590         0.9600         2.1100       0.529000
       4179.50        81.6830         0.9600         2.1100       0.520000
       4180.00        82.9480         0.9400         2.1070       0.519000
       4180.50        77.0590         0.9400         2.0930       0.509000
       4181.00        69.9530         1.1000         2.0620       0.487000
       4181.50        62.8480         1.2100         2.0080       0.472000
       4182.00        58.6230         1.3100         1.9580       0.476000
       4182.50        53.2940         1.3700         1.9400       0.475000
       4183.00        49.7410         1.3900         1.9610       0.463000
       4183.50        48.8870         1.4200         2.0120       0.443000
       4184.00        50.6630         1.5200         2.0580       0.423000
       4184.50        51.4350         1.5800         2.0940       0.402000
       4185.00        50.5120         1.5800         2.1150       0.380000
       4185.50        48.7360         1.5800         2.1200       0.368000
       4186.00        46.1880         1.4900         2.1150       0.365000
       4186.50        46.7910         1.4800         2.1150       0.367000
       4187.00        46.7910         1.4700         2.1200       0.371000
       4187.50        49.0920         1.5300         2.1260       0.376000
       4188.00        52.0410         1.5400         2.1300       0.374000
       4188.50        57.3700         1.5100         2.1240       0.380000
       4189.00        62.1760         1.3800         2.1200       0.406000
       4189.50        67.5050         1.2900         2.1140       0.454000
       4190.00        71.0580         1.1500         2.1160       0.503000
       4190.50        74.6110         1.0300         2.1200       0.533000
       4191.00        76.3870         1.0000         2.1270       0.550000
       4191.50        78.1640         0.9900         2.1160       0.544000
       4192.00        81.7170         0.9900         2.1100       0.528000
       4192.50        81.7170         1.0400         2.1030       0.521000
       4193.00        80.1960         1.0000         2.1000       0.520000
       4193.50        78.4190         1.0100         2.1070       0.518000
       4194.00        79.9570         0.9700         2.1100       0.505000
       4194.50        83.2550         0.9700         2.1180       0.482000
       4195.00        83.2550         0.9700         2.1280       0.466000
       4195.50        79.7250         1.0700         2.1220       0.461000
       4196.00        72.4140         1.2100         2.0960       0.460000
       4196.50        63.5320         1.4100         2.0740       0.460000
       4197.00        56.6410         1.5200         2.0530       0.460000
       4197.50        51.6880         1.4900         2.0330       0.459000
       4198.00        53.6120         1.5300         2.0040       0.451000
       4198.50        55.2750         1.5600         2.0000       0.427000
       4199.00        58.6570         1.5900         2.0360       0.394000
       4199.50        58.5090         1.6300         2.0860       0.372000
       4200.00        56.8460         1.6300         2.1180       0.370000
       4200.50        55.0700         1.5700         2.1200       0.375000
       4201.00        53.2940         1.5400         2.1100       0.371000
       4201.50        56.8460         1.5100         2.1000       0.376000
       4202.00        60.3990         1.4700         2.0900       0.389000
       4202.50        62.1760         1.4800         2.0900       0.404000
       4203.00        62.1760         1.4300         2.1210       0.407000
       4203.50        62.1760         1.4600         2.1610       0.408000
       4204.00        63.4400         1.4100         2.1800       0.421000
       4204.50        63.4400         1.3800         2.1790       0.428000
       4205.00        65.2160         1.3200         2.1700       0.441000
       4205.50        67.5050         1.2900         2.1690       0.443000
       4206.00        69.2820         1.2800         2.1610       0.443000
       4206.50        70.4340         1.2800         2.1700       0.434000
       4207.00        73.3510         1.2300         2.1710       0.444000
       4207.50        76.9040         1.2200         2.1780       0.454000
       4208.00        79.3050         1.1700         2.1680       0.460000
       4208.50        79.9400         1.2000         2.1600       0.462000
       4209.00        78.8280         1.1800         2.1620       0.459000
       4209.50        77.0510         1.1700         2.1700       0.441000
