~Version Information Block
VERS .                  2.0:  CWLS LOG ASCII STANDARD - VERSION 2.0
WRAP .                   NO:  One line per depth step
~Well Information Block
#MNEM.UNIT        Data Type   Information
#---------- ----------------  -----------
STRT .FT            3940.00:  START DEPTH
STOP .FT            7698.50:  STOP DEPTH
STEP .FT               0.50:  STEP
NULL .              -999.25:  NULL VALUE
COMP .                     :  COMPANY
WELL .              K-10RD2:  WELL
FLD  .                     :  FIELD
LOC  .                     :  LOCATION
CTRY .                     :  COUNTRY
STAT .                     :  STATE
CNTY .                     :  COUNTY
SRVC .                     :  SERVICE COMPANY
DATE .                     :  DATE
API  .                     :  API NUMBER
UWI  .                     :  UNIQUE WELL ID
~Curve Information Block
#MNEM.UNIT         API CODE   Curve Description
#---------- ----------------  -----------------
DEPTH.FT                   :  Depth Index
GR   .GAPI                 :  Gamma Ray
RT   .OHMM                 :  True Resistivity
RHOB .G/C3                 :  Bulk Density
NPHI .V/V                  :  Neutron Porosity
~Parameter Information Block
#MNEM.UNIT            Value   Description
#---------- ----------------  -----------
PROJECT.       KERINDINGAN_FE:  
~Other Information Block
# 
~A       DEPTH             GR             RT           RHOB           NPHI 
       3940.00      -999.2500      -999.2500      -999.2500       0.394830
       3940.50      -999.2500      -999.2500      -999.2500       0.408260
       3941.00      -999.2500      -999.2500         1.6112       0.378390
       3941.50      -999.2500      -999.2500         1.0556       0.343320
       3942.00      -999.2500      -999.2500         0.5000       0.287510
       3942.50      -999.2500      -999.2500         0.8689       0.275260
       3943.00        43.6497      -999.2500         1.2378       0.275650
       3943.50        40.9616      -999.2500         1.6067       0.299670
       3944.00        41.3626      -999.2500         1.6601       0.301420
       3944.50        41.7635      -999.2500         1.7245       0.302170
       3945.00        41.0867      -999.2500         1.7290       0.311780
       3945.50        43.0303      -999.2500         1.7378       0.339180
       3946.00        44.8749      -999.2500         1.7290       0.373730
       3946.50        48.0135      -999.2500         1.6990       0.408050
       3947.00        47.3820      -999.2500         1.6401       0.439270
       3947.50        46.4252      -999.2500         1.6340       0.478140
       3948.00        49.2765      -999.2500         1.5696       0.520440
       3948.50        50.2522      -999.2500         1.5074       0.549630
       3949.00        49.2765      -999.2500         1.5130       0.561300
       3949.50        47.3630      -999.2500         1.5846       0.579360
       3950.00        51.2278       964.5255         1.6132       0.590240
       3950.50        49.2765       741.2164         1.6081       0.576800
       3951.00        51.2278       852.8710         1.5914       0.549560
       3951.50        49.2765       964.5255         1.6417       0.532360
       3952.00        49.2765       274.0475         1.5873       0.534280
       3952.50        47.3820       369.0088         1.6245       0.532750
       3953.00        45.4874       578.7553         1.6001       0.545590
       3953.50        51.2278       482.3127         1.5867       0.536210
       3954.00        50.2522         6.8082         1.5786       0.540100
       3954.50        49.2765        20.1359         1.6008       0.527050
       3955.00        48.3197         0.1121         1.6052       0.520320
       3955.50        47.3630         0.1000         1.5678       0.512610
       3956.00        46.7378         0.1000         1.5217       0.530090
       3956.50        46.1126         0.1658         1.5884       0.552790
       3957.00        45.4874         0.1000         1.1267       0.544030
       3957.50        45.4874         0.1000         1.1267       0.540890
       3958.00        45.4874         0.1000         1.1200       0.531620
       3958.50        47.3820         0.1000         1.2434       0.557650
       3959.00        49.2765         0.1000         1.3578       0.503990
       3959.50        53.2929         0.1000         1.2500       0.503990
       3960.00        57.3092         0.1000         1.4017       0.517010
       3960.50        58.7238         0.1242         1.2450       0.597380
       3961.00        60.1384         0.1121         1.2450       0.597380
       3961.50        61.5530         0.1000         1.3634       0.616610
       3962.00        61.5530       482.3127         1.5334       0.694520
       3962.50        61.5530       964.5255         1.4912       0.694530
       3963.00        64.5337       482.3127         1.5101       0.764110
       3963.50        67.5144         0.1000         1.3200       0.754630
       3964.00        70.4951         0.1000         1.3300       0.728990
       3964.50        70.4951         0.1000         1.3300       0.777700
       3965.00        70.4951       482.3127         1.4167       0.777700
       3965.50        70.4951       964.5255         1.2634       0.697880
       3966.00        73.6779       643.0504         1.2634       0.575160
       3966.50        76.8607       321.5752         1.1900       0.589450
       3967.00        80.0435         0.1000         1.2600       0.603740
       3967.50        77.6375         0.1000         1.0734       0.618040
       3968.00        75.2314         0.1000         0.8867       0.618040
       3968.50        72.8254         0.1000         1.0000       0.833720
       3969.00        71.2845         0.1000         1.1134       0.991580
       3969.50        69.7436         0.1000         0.9600       0.924270
       3970.00        68.2027         0.1000         0.8067       0.856970
       3970.50        70.5141         0.1000         0.6533       0.789670
       3971.00        72.8254         0.1000         0.9067       0.803630
       3971.50        72.0486         0.1000         0.9067       0.817590
       3972.00        71.2719         0.1000         1.1067       0.831550
       3972.50        70.4951         0.1012         1.3067       0.783690
       3973.00        71.2719         0.1024         1.5067       0.735830
       3973.50        72.0486         0.1037         1.4756       0.687970
       3974.00        72.8254         0.1024         1.4445       0.656450
       3974.50        70.5330         0.1012         1.4134       0.624940
       3975.00        68.2406         0.1000         1.4734       0.593420
       3975.50        65.9483         0.1000         1.5334       0.586350
       3976.00        63.0686         0.1000         1.6112       0.579270
       3976.50        60.1889         0.1000         1.6889       0.572200
       3977.00        57.3092         0.1000         1.7667       0.565120
       3977.50        55.2821         0.1000         1.7201       0.510400
       3978.00        53.2550         0.1000         1.6734       0.455680
       3978.50        51.2278         0.1000         1.6267       0.400960
       3979.00        51.2278         0.1000         1.5800       0.415030
       3979.50        51.2278         0.1000         1.6223       0.429100
       3980.00        51.2278         0.1000         1.6645       0.443170
       3980.50        48.3576         0.1000         1.7067       0.457240
       3981.00        45.4874         0.1000         1.6534       0.479360
       3981.50        51.2278         0.1000         1.6001       0.501470
       3982.00        51.2278         0.1000         1.5467       0.523580
       3982.50        51.2278         0.1000         1.4934       0.545700
       3983.00        40.0881         0.1000         1.3845       0.530760
       3983.50        45.5064         0.1000         1.2756       0.515820
       3984.00        42.7499         0.1000         1.1667       0.500890
       3984.50        41.1940         0.1000         1.2900       0.508600
       3985.00        45.3493         0.1000         1.4134       0.516300
       3985.50        51.4126         0.1000         1.5367       0.524010
       3986.00        51.2387         0.1000         1.6601       0.531720
       3986.50        51.6636         0.1000         1.7090       0.542040
       3987.00        47.8414         0.1000         1.7578       0.552360
       3987.50        48.9396         0.1000         1.8067       0.562680
       3988.00        48.9891         0.1192         1.7601       0.522260
       3988.50        40.1070         0.1384         1.7134       0.481850
       3989.00        39.2355         0.1000         1.6667       0.441430
       3989.50        38.3640         0.2088         1.6201       0.401010
       3990.00        40.1070         0.3177         1.6201       0.435020
       3990.50        41.8500         0.1000         1.6201       0.469030
       3991.00        41.8500       964.5255         1.6201       0.503030
       3991.50        41.8500       482.3127         1.6317       0.519660
       3992.00        41.8500       227.0248         1.6434       0.536290
       3992.50        44.6065       193.1288         1.6551       0.552920
       3993.00        47.3630       290.6424         1.6667       0.561430
