~Version Information Block
VERS .                  2.0:  CWLS LOG ASCII STANDARD - VERSION 2.0
WRAP .                   NO:  One line per depth step
~Well Information Block
#MNEM.UNIT        Data Type   Information
#---------- ----------------  -----------
STRT .FT            3940.00:  START DEPTH
STOP .FT            7698.50:  STOP DEPTH
STEP .FT               0.50:  STEP
NULL .              -999.25:  NULL VALUE
COMP .                     :  COMPANY
WELL .              K-10RD2:  WELL
FLD  .                     :  FIELD
LOC  .                     :  LOCATION
CTRY .                     :  COUNTRY
STAT .                     :  STATE
CNTY .                     :  COUNTY
SRVC .                     :  SERVICE COMPANY
DATE .                     :  DATE
API  .                     :  API NUMBER
UWI  .                     :  UNIQUE WELL ID
~Curve Information Block
#MNEM.UNIT         API CODE   Curve Description
#---------- ----------------  -----------------
DEPTH.FT                   :  Depth Index
GR   .GAPI                 :  Gamma Ray
RT   .OHMM                 :  True Resistivity
RHOB .G/C3                 :  Bulk Density
NPHI .V/V                  :  Neutron Porosity
~Parameter Information Block
#MNEM.UNIT            Value   Description
#---------- ----------------  -----------
PROJECT.       KERINDINGAN_FE:  
~Other Information Block
# 
~A       DEPTH             GR             RT           RHOB           NPHI 
# ...
       6668.50        57.7849         1.3740         2.4268       0.427190
       6669.00        66.0032         1.1916         2.4368       0.391670
       6669.50        74.2215         1.0091         2.4468       0.356140
       6670.00        72.0706         1.0668         2.4368       0.369790
       6670.50        69.9197         1.1245         2.4268       0.383630
       6671.00        74.3499         1.3988         2.3734       0.353690
       6671.50        78.7801         1.6731         2.3201       0.324640
       6672.00        83.2103         1.4195         2.2979       0.377320
       6672.50        99.5907         1.1659         2.2757       0.432990
       6673.00       115.9711         1.1260         2.2534       0.469340
       6673.50       114.6148         1.0861         2.2734       0.505690
       6674.00       113.2584         1.0462         2.2934       0.542030
       6674.50       102.9855         1.2737         2.2834       0.476590
       6675.00        92.7127         1.5013         2.2734       0.391280
       6675.50        91.9047         1.5575         2.3101       0.357410
       6676.00        91.0968         1.6138         2.3468       0.324660
       6676.50        90.2889         1.5947         2.3268       0.361120
       6677.00        87.9133         1.5756         2.3068       0.398980
       6677.50        85.5377         1.5565         2.2868       0.364030
       6678.00        69.7673         1.6775         2.3134       0.329070
       6678.50        53.9968         1.7985         2.3401       0.294110
       6679.00        48.6998         1.7358         2.3034       0.259920
       6679.50        43.4029         1.6731         2.2668       0.226730
       6680.00        45.7143         1.5349         2.2979       0.241000
       6680.50        48.0257         1.3967         2.3290       0.255450
       6681.00        50.3371         1.3489         2.3601       0.257690
       6681.50        51.2440         1.3011         2.3668       0.259930
       6682.00        52.1509         1.2533         2.3734       0.274440
       6682.50        56.9262         1.4049         2.3901       0.288940
       6683.00        61.7014         1.5565         2.4068       0.303450
       6683.50        59.1332         1.6456         2.4101       0.289520
       6684.00        56.5650         1.7347         2.4134       0.275770
       6684.50        53.9968         1.7347         2.4156       0.263320
       6685.00        52.1669         1.7347         2.4179       0.251010
       6685.50        50.3371         1.7347         2.4201       0.246580
       6686.00        53.1059         1.7039         2.4334       0.242150
       6686.50        55.8748         1.6731         2.4468       0.237730
       6687.00        58.7881         1.5872         2.4401       0.252130
       6687.50        61.7014         1.5013         2.4334       0.266720
       6688.00        61.0433         1.4490         2.4112       0.276930
       6688.50        60.3852         1.3967         2.3890       0.287240
       6689.00        59.7271         1.2675         2.3668       0.299980
       6689.50        67.8331         1.1383         2.3834       0.312880
       6690.00        72.1937         1.0091         2.4001       0.328990
       6690.50        76.5543         1.0091         2.3968       0.345100
       6691.00        80.9149         1.0091         2.3934       0.361210
       6691.50        77.5682         0.9912         2.3868       0.378700
       6692.00        74.2215         0.9733         2.3801       0.396510
       6692.50        74.2215         1.0290         2.3712       0.393950
       6693.00        74.2215         1.0847         2.3623       0.391390
       6693.50        74.2215         1.0595         2.3534       0.456040
       6694.00        76.4366         1.0343         2.4034       0.515160
       6694.50        78.6517         1.0091         2.4534       0.472210
       6695.00        72.1990         1.3719         2.5101       0.429270
       6695.50        65.7464         1.7347         2.5668       0.386320
       6696.00        58.9486         1.7506         2.4834       0.303520
       6696.50        52.1509         1.7666         2.4001       0.243850
       6697.00        56.6827         1.6073         2.4090       0.245520
       6697.50        61.2146         1.4481         2.4179       0.254980
       6698.00        65.7464         1.6233         2.4268       0.278130
       6698.50        59.8716         1.7985         2.4368       0.308220
       6699.00        53.9968         1.8315         2.4468       0.284010
       6699.50        54.9358         1.8646         2.4468       0.259800
       6700.00        55.8748         1.8008         2.4468       0.235600
       6700.50        57.1589         1.7370         2.4434       0.236700
       6701.00        58.4430         1.6731         2.4401       0.237800
       6701.50        59.7271         1.5349         2.4368       0.258920
       6702.00        63.7721         1.3967         2.4334       0.281580
       6702.50        67.8170         1.5306         2.4112       0.281580
       6703.00        55.6100         1.6645         2.3890       0.256680
       6703.50        43.4029         1.7985         2.3668       0.231230
       6704.00        42.3114         1.8315         2.3668       0.226150
       6704.50        41.2199         1.8646         2.3668       0.221070
       6705.00        40.1284         1.8646         2.3801       0.215990
       6705.50        42.6083         1.8646         2.3768       0.221410
       6706.00        45.0883         1.8646         2.3768       0.226860
       6706.50        41.8138         1.8646         2.4001       0.224690
       6707.00        38.5393         1.8646         2.4234       0.222510
       6707.50        43.6918         1.7392         2.4468       0.235640
       6708.00        48.8443         1.6138         2.4701       0.248900
       6708.50        53.9968         1.4805         2.4934       0.271840
       6709.00        59.8716         1.3471         2.4701       0.294780
       6709.50        65.7464         1.3312         2.4468       0.317720
       6710.00        65.7464         1.3153         2.4168       0.316540
       6710.50        65.7464         1.2994         2.3868       0.315360
       6711.00        70.0481         1.1728         2.3845       0.347800
       6711.50        74.3499         1.0462         2.3823       0.381350
       6712.00        78.6517         1.1061         2.3801       0.352710
       6712.50        75.3531         1.1659         2.3801       0.324870
       6713.00        72.0546         1.3350         2.3801       0.301050
       6713.50        59.4302         1.5041         2.3868       0.277220
       6714.00        46.8058         1.6731         2.3934       0.253390
       6714.50        49.2028         1.7689         2.3968       0.246720
       6715.00        51.5998         1.8646         2.4001       0.240080
       6715.50        53.9968         1.8315         2.4090       0.243400
       6716.00        53.9968         1.7985         2.4179       0.246720
       6716.50        53.9968         1.7666         2.4268       0.245990
       6717.00        49.4685         1.7347         2.4034       0.245250
       6717.50        44.9403         1.7559         2.3801       0.244520
       6718.00        40.1989         1.7772         2.3501       0.235690
       6718.50        35.4575         1.7985         2.3201       0.226930
       6719.00        36.9984         1.7666         2.3223       0.237900
       6719.50        38.5393         1.7347         2.3245       0.248960
       6720.00        38.0203         1.6569         2.3268       0.256770
       6720.50        37.5013         1.5791         2.2601       0.264640
       6721.00        36.9823         1.5013         2.1934       0.260900
       6721.50        36.2199         1.4490         2.2768       0.257170
