~Version Information Block
VERS .                  2.0:  CWLS LOG ASCII STANDARD - VERSION 2.0
WRAP .                   NO:  One line per depth step
~Well Information Block
#MNEM.UNIT        Data Type   Information
#---------- ----------------  -----------
STRT .FT            3940.00:  START DEPTH
STOP .FT            7698.50:  STOP DEPTH
STEP .FT               0.50:  STEP
NULL .              -999.25:  NULL VALUE
COMP .                     :  COMPANY
WELL .              K-10RD2:  WELL
FLD  .                     :  FIELD
LOC  .                     :  LOCATION
CTRY .                     :  COUNTRY
STAT .                     :  STATE
CNTY .                     :  COUNTY
SRVC .                     :  SERVICE COMPANY
DATE .                     :  DATE
API  .                     :  API NUMBER
UWI  .                     :  UNIQUE WELL ID
~Curve Information Block
#MNEM.UNIT         API CODE   Curve Description
#---------- ----------------  -----------------
DEPTH.FT                   :  Depth Index
GR   .GAPI                 :  Gamma Ray
RT   .OHMM                 :  True Resistivity
RHOB .G/C3                 :  Bulk Density
NPHI .V/V                  :  Neutron Porosity
~Parameter Information Block
#MNEM.UNIT            Value   Description
#---------- ----------------  -----------
PROJECT.       KERINDINGAN_FE:  
~Other Information Block
# 
~A       DEPTH             GR             RT           RHOB           NPHI 
# ...
       4689.00        74.2215         1.7414         2.2784       0.500150
       4689.50        74.2215         1.5496         2.2968       0.480860
       4690.00        74.2215         1.3577         2.3151       0.461560
       4690.50        74.2215         1.1659         2.3334       0.442260
       4691.00        74.2215         1.3768         2.3201       0.455080
       4691.50        73.1461         1.5876         2.3068       0.467890
       4692.00        72.0706         1.7985         2.2934       0.480700
       4692.50        70.9952         1.8684         2.3084       0.473120
       4693.00        69.9197         1.9382         2.3234       0.465540
       4693.50        73.5848         2.0081         2.3384       0.457960
       4694.00        77.2499         2.0780         2.3534       0.450390
       4694.50        80.9149         2.0297         2.3445       0.478800
       4695.00        78.1661         1.9815         2.3356       0.507210
       4695.50        75.4173         1.9332         2.3268       0.535630
       4696.00        72.6685         1.9510         2.3284       0.526800
       4696.50        69.9197         1.9687         2.3301       0.517970
       4697.00        69.9197         1.9865         2.3318       0.509140
       4697.50        69.9197         2.0043         2.3334       0.500310
       4698.00        69.9197         2.0289         2.3184       0.492850
       4698.50        69.9197         2.0534         2.3034       0.485390
       4699.00        70.6314         2.0780         2.2884       0.477930
       4699.50        71.3430         2.0780         2.2734       0.487120
       4700.00        72.0546         2.0780         2.2668       0.496300
       4700.50        72.0546         2.0780         2.2601       0.505490
       4701.00        72.0546         2.0780         2.2534       0.511340
       4701.50        72.0546         2.1299         2.2401       0.517190
       4702.00        72.0546         2.1818         2.2267       0.523040
       4702.50        75.7731         2.2337         2.2134       0.535580
       4703.00        79.4917         2.1763         2.2001       0.548130
       4703.50        83.2103         2.1190         2.2034       0.560670
       4704.00        79.8876         2.0616         2.2067       0.573210
       4704.50        76.5650         2.0043         2.2201       0.550060
       4705.00        73.2424         1.9528         2.2334       0.526920
       4705.50        69.9197         1.9014         2.2468       0.503770
       4706.00        74.3499         1.8499         2.2501       0.509040
       4706.50        78.7801         1.7985         2.2534       0.514310
       4707.00        83.2103         1.8205         2.2568       0.519570
       4707.50        80.4213         1.8426         2.2601       0.524840
       4708.00        77.6324         1.8646         2.2712       0.502210
       4708.50        74.8435         1.8646         2.2823       0.479570
       4709.00        72.0546         1.8646         2.2934       0.456940
       4709.50        72.0546         1.8646         2.3041       0.434300
       4710.00        72.0546         1.8646         2.3148       0.444530
       4710.50        72.0546         2.0434         2.3254       0.454750
       4711.00        72.0546         2.2222         2.3361       0.464980
       4711.50        72.0546         2.4010         2.3468       0.475200
       4712.00        72.0546         2.3592         2.3268       0.495970
       4712.50        72.0546         2.3173         2.3068       0.516730
       4713.00        74.2536         2.2755         2.2868       0.537500
       4713.50        76.4527         2.2337         2.2734       0.535690
       4714.00        78.6517         2.1586         2.2601       0.533870
       4714.50        78.0939         2.0834         2.2468       0.532060
       4715.00        77.5361         2.0083         2.2334       0.530250
       4715.50        76.9783         1.9332         2.2468       0.518470
       4716.00        76.4205         1.9103         2.2601       0.506690
       4716.50        78.6838         1.8875         2.2734       0.494910
       4717.00        80.9470         1.8646         2.2718       0.497560
       4717.50        83.2103         1.8995         2.2701       0.500220
       4718.00        83.2103         1.9345         2.2684       0.502880
       4718.50        83.2103         1.9694         2.2668       0.505530
       4719.00        83.2103         2.0043         2.2468       0.504960
       4719.50        83.2103         1.9806         2.2267       0.504390
       4720.00        82.0706         1.9569         2.2067       0.503810
       4720.50        80.9310         1.9332         2.2234       0.506860
       4721.00        79.7913         1.9510         2.2401       0.509910
       4721.50        78.6517         1.9687         2.2568       0.512960
       4722.00        79.4061         1.9865         2.2734       0.516010
       4722.50        80.1605         2.0043         2.2823       0.517780
       4723.00        80.9149         2.0043         2.2912       0.519550
       4723.50        79.7913         2.0043         2.3001       0.521320
       4724.00        78.6677         2.0043         2.2934       0.520140
       4724.50        77.5441         2.0227         2.2868       0.518960
       4725.00        76.4205         2.0412         2.2801       0.517780
       4725.50        77.9187         2.0596         2.2734       0.533120
       4726.00        79.4168         2.0780         2.2845       0.548450
       4726.50        80.9149         1.9848         2.2957       0.563790
       4727.00        80.3491         1.8916         2.3068       0.579120
       4727.50        79.7833         1.7985         2.3101       0.565120
       4728.00        79.2175         1.8875         2.3134       0.551120
       4728.50        78.6517         1.9764         2.3168       0.537120
       4729.00        74.4141         2.0654         2.3201       0.523120
       4729.50        70.1766         2.1544         2.2934       0.512790
       4730.00        65.9390         2.2366         2.2668       0.502460
       4730.50        61.7014         2.3188         2.2401       0.492130
       4731.00        63.0498         2.4010         2.2434       0.493550
       4731.50        64.3981         2.3797         2.2468       0.494980
       4732.00        65.7464         2.3584         2.2501       0.496400
       4732.50        68.5714         2.3371         2.2534       0.497820
       4733.00        71.3965         2.3158         2.2623       0.467900
       4733.50        74.2215         2.2120         2.2712       0.437990
       4734.00        73.1461         2.1081         2.2801       0.408070
       4734.50        72.0706         2.0043         2.2834       0.422110
       4735.00        70.9952         1.9865         2.2868       0.436150
       4735.50        69.9197         1.9687         2.2901       0.450190
       4736.00        69.9197         1.9510         2.2934       0.464230
       4736.50        69.9197         1.9332         2.2823       0.454300
       4737.00        69.9197         2.0722         2.2712       0.444360
       4737.50        69.9197         2.2113         2.2601       0.434420
       4738.00        68.5286         2.3503         2.2668       0.433090
       4738.50        67.1375         2.4893         2.2734       0.431760
       4739.00        65.7464         2.4599         2.2801       0.430430
       4739.50        67.8652         2.4304         2.2868       0.429100
       4740.00        69.9839         2.4010         2.2912       0.424270
       4740.50        72.1027         2.3592         2.2957       0.419440
       4741.00        74.2215         2.3173         2.3001       0.414610
       4741.50        76.4687         2.2755         2.3134       0.414620
       4742.00        78.7159         2.2337         2.3268       0.431170
