~Version Information Block
VERS .                  2.0:  CWLS LOG ASCII STANDARD - VERSION 2.0
WRAP .                   NO:  One line per depth step
~Well Information Block
#MNEM.UNIT        Data Type   Information
#---------- ----------------  -----------
STRT .FT            3940.00:  START DEPTH
STOP .FT            7698.50:  STOP DEPTH
STEP .FT               0.50:  STEP
NULL .              -999.25:  NULL VALUE
COMP .                     :  COMPANY
WELL .              K-10RD2:  WELL
FLD  .                     :  FIELD
LOC  .                     :  LOCATION
CTRY .                     :  COUNTRY
STAT .                     :  STATE
CNTY .                     :  COUNTY
SRVC .                     :  SERVICE COMPANY
DATE .                     :  DATE
API  .                     :  API NUMBER
UWI  .                     :  UNIQUE WELL ID
~Curve Information Block
#MNEM.UNIT         API CODE   Curve Description
#---------- ----------------  -----------------
DEPTH.FT                   :  Depth Index
GR   .GAPI                 :  Gamma Ray
RT   .OHMM                 :  True Resistivity
RHOB .G/C3                 :  Bulk Density
NPHI .V/V                  :  Neutron Porosity
~Parameter Information Block
#MNEM.UNIT            Value   Description
#---------- ----------------  -----------
PROJECT.       KERINDINGAN_FE:  
~Other Information Block
# 
~A       DEPTH             GR             RT           RHOB           NPHI 
# ...
       6133.50        64.8530         1.3113         2.3179       0.356890
       6134.00        65.8660         1.2994         2.3223       0.364290
       6134.50        65.8660         1.2692         2.3268       0.371690
       6135.00        65.8660         1.2390         2.3451       0.369820
       6135.50        65.8660         1.2088         2.3634       0.367960
       6136.00        67.2597         1.1877         2.3818       0.366090
       6136.50        68.6533         1.1667         2.4001       0.364230
       6137.00        70.0470         1.1456         2.3823       0.386200
       6137.50        69.2108         1.1245         2.3645       0.408660
       6138.00        68.3746         1.1245         2.3468       0.410840
       6138.50        67.5384         1.1245         2.3501       0.413010
       6139.00        66.7022         1.1245         2.3534       0.415190
       6139.50        65.8660         1.1245         2.3568       0.419810
       6140.00        67.2597         1.1245         2.3601       0.424430
       6140.50        68.6533         1.1146         2.3579       0.429050
       6141.00        70.0470         1.1046         2.3556       0.433670
       6141.50        71.4835         1.0946         2.3393       0.444380
       6142.00        72.9201         1.0847         2.3231       0.455210
       6142.50        74.3566         1.0847         2.3068       0.451170
       6143.00        72.7526         1.0847         2.3068       0.447120
       6143.50        71.1485         1.0847         2.3068       0.443080
       6144.00        69.5445         1.0847         2.3068       0.439030
       6144.50        67.9404         1.0847         2.3068       0.424200
       6145.00        68.4671         1.0847         2.3234       0.409370
       6145.50        68.9937         1.0847         2.3401       0.394550
       6146.00        69.5203         1.0360         2.3434       0.436160
       6146.50        70.0470         0.9874         2.3468       0.477770
       6147.00        70.7599         0.9388         2.3501       0.519380
       6147.50        71.4728         1.0174         2.3534       0.560990
       6148.00        72.1857         1.0960         2.3601       0.502970
       6148.50        65.8620         1.1746         2.3668       0.444940
       6149.00        59.5383         1.2533         2.3734       0.386920
       6149.50        53.2146         1.3291         2.3784       0.384400
       6150.00        46.8910         1.4049         2.3834       0.381880
       6150.50        48.0702         1.4807         2.3884       0.379350
       6151.00        49.2495         1.5565         2.3934       0.376830
       6151.50        50.4287         1.5204         2.3934       0.374330
       6152.00        55.3333         1.4842         2.3934       0.371830
       6152.50        60.2378         1.4481         2.3934       0.369330
       6153.00        65.1424         1.4228         2.3868       0.372470
       6153.50        70.0470         1.3976         2.3801       0.375610
       6154.00        68.6533         1.3724         2.3734       0.378760
       6154.50        67.2597         1.3471         2.3668       0.381900
       6155.00        65.8660         1.3010         2.3468       0.380220
       6155.50        65.8660         1.2549         2.3268       0.378550
       6156.00        65.8660         1.2088         2.3068       0.376870
       6156.50        65.8660         1.2199         2.2868       0.377500
       6157.00        65.8660         1.2310         2.3045       0.378130
       6157.50        67.2597         1.2421         2.3223       0.378770
       6158.00        68.6533         1.2533         2.3401       0.379400
       6158.50        70.0470         1.2384         2.3484       0.379720
       6159.00        69.0017         1.2236         2.3568       0.380040
       6159.50        67.9565         1.2088         2.3651       0.380360
       6160.00        66.9113         1.2088         2.3734       0.380680
       6160.50        65.8660         1.2088         2.3712       0.380680
       6161.00        66.5575         1.2088         2.3690       0.384490
       6161.50        67.2490         1.2088         2.3668       0.388310
       6162.00        67.9404         1.1877         2.3526       0.392120
       6162.50        69.0017         1.1667         2.3384       0.396400
       6163.00        70.0631         1.1456         2.3243       0.400690
       6163.50        71.1244         1.1245         2.3101       0.404980
       6164.00        72.1857         1.1113         2.3101       0.415500
       6164.50        71.6510         1.0980         2.3223       0.426010
       6165.00        71.1163         1.0847         2.3345       0.436530
       6165.50        70.5817         1.0847         2.3468       0.433220
       6166.00        70.0470         1.0847         2.3401       0.429900
       6166.50        70.7599         1.0847         2.3334       0.426590
       6167.00        71.4728         1.0847         2.3268       0.423280
       6167.50        72.1857         1.0847         2.3312       0.421530
       6168.00        72.1857         1.0847         2.3356       0.419790
       6168.50        72.1857         1.0847         2.3401       0.418040
       6169.00        72.1857         1.0847         2.3651       0.416730
       6169.50        72.1857         1.0847         2.3901       0.415430
       6170.00        72.1857         1.0847         2.4151       0.414130
       6170.50        72.1857         1.0847         2.4401       0.412830
       6171.00        72.1857         1.0847         2.4068       0.418090
       6171.50        72.7284         1.0847         2.3734       0.423350
       6172.00        73.2712         1.0847         2.3401       0.428610
       6172.50        73.8139         1.0946         2.3384       0.421430
       6173.00        74.3566         1.1046         2.3368       0.414250
       6173.50        72.9201         1.1146         2.3351       0.407080
       6174.00        71.4835         1.1245         2.3334       0.399900
       6174.50        70.0470         1.1245         2.3418       0.417920
       6175.00        71.6751         1.1245         2.3501       0.435930
       6175.50        73.3033         1.1245         2.3584       0.453950
       6176.00        74.9315         1.1146         2.3668       0.471960
       6176.50        76.5596         1.1046         2.3512       0.467380
       6177.00        76.5596         1.0946         2.3356       0.462810
       6177.50        76.5596         1.0847         2.3201       0.458230
       6178.00        76.5596         1.0475         2.3151       0.465150
       6178.50        76.5596         1.0104         2.3101       0.472080
       6179.00        76.5596         0.9733         2.3051       0.479000
       6179.50        76.5596         0.9563         2.3001       0.485930
       6180.00        76.5596         0.9394         2.3134       0.485000
       6180.50        76.5596         0.9224         2.3268       0.484070
       6181.00        76.5596         0.9054         2.3401       0.483140
       6181.50        76.5596         1.0367         2.3451       0.470190
       6182.00        68.4550         1.1681         2.3501       0.457240
       6182.50        60.3504         1.2994         2.3551       0.444290
       6183.00        52.2458         1.3498         2.3601       0.431350
       6183.50        50.9071         1.4003         2.3601       0.410750
       6184.00        49.5684         1.4508         2.3601       0.390160
       6184.50        48.2297         1.5013         2.3601       0.369570
       6185.00        46.8910         1.4508         2.3551       0.377820
       6185.50        51.6347         1.4003         2.3501       0.386070
       6186.00        56.3785         1.3498         2.3451       0.394330
       6186.50        61.1223         1.2994         2.3401       0.402580
