~Version Information Block
VERS .                  2.0:  CWLS LOG ASCII STANDARD - VERSION 2.0
WRAP .                   NO:  One line per depth step
~Well Information Block
#MNEM.UNIT        Data Type   Information
#---------- ----------------  -----------
STRT .FT            3940.00:  START DEPTH
STOP .FT            7698.50:  STOP DEPTH
STEP .FT               0.50:  STEP
NULL .              -999.25:  NULL VALUE
COMP .                     :  COMPANY
WELL .              K-10RD2:  WELL
FLD  .                     :  FIELD
LOC  .                     :  LOCATION
CTRY .                     :  COUNTRY
STAT .                     :  STATE
CNTY .                     :  COUNTY
SRVC .                     :  SERVICE COMPANY
DATE .                     :  DATE
API  .                     :  API NUMBER
UWI  .                     :  UNIQUE WELL ID
~Curve Information Block
#MNEM.UNIT         API CODE   Curve Description
#---------- ----------------  -----------------
DEPTH.FT                   :  Depth Index
GR   .GAPI                 :  Gamma Ray
RT   .OHMM                 :  True Resistivity
RHOB .G/C3                 :  Bulk Density
NPHI .V/V                  :  Neutron Porosity
~Parameter Information Block
#MNEM.UNIT            Value   Description
#---------- ----------------  -----------
PROJECT.       KERINDINGAN_FE:  
~Other Information Block
# 
~A       DEPTH             GR             RT           RHOB           NPHI 
# ...
       4207.50        69.9197         2.0227         2.3001       0.518830
       4208.00        70.6314         2.0412         2.2968       0.535930
       4208.50        71.3430         2.0596         2.2934       0.553040
       4209.00        72.0546         2.0780         2.2979       0.542090
       4209.50        73.5099         2.1035         2.3023       0.531150
       4210.00        74.9652         2.1290         2.3068       0.520200
       4210.50        76.4205         2.1544         2.3168       0.513070
       4211.00        74.7953         2.1353         2.3268       0.505950
       4211.50        73.1701         2.1162         2.3368       0.498820
       4212.00        71.5449         2.0971         2.3468       0.483600
       4212.50        69.9197         2.0780         2.3112       0.468390
       4213.00        71.3537         2.0780         2.2756       0.453180
       4213.50        72.7876         2.0780         2.2401       0.437970
       4214.00        74.2215         2.0780         2.2501       0.453530
       4214.50        74.9545         2.0780         2.2601       0.469100
       4215.00        75.6875         2.0780         2.2701       0.484660
       4215.50        76.4205         2.0780         2.2801       0.466380
       4216.00        75.8708         2.1299         2.2979       0.448100
       4216.50        75.3210         2.1818         2.3156       0.429810
       4217.00        74.7713         2.2337         2.3334       0.411530
       4217.50        74.2215         2.1818         2.3118       0.422140
       4218.00        73.4992         2.1299         2.2901       0.432750
       4218.50        72.7769         2.0780         2.2684       0.443370
       4219.00        72.0546         2.0418         2.2468       0.438690
       4219.50        74.2697         2.0056         2.2579       0.434020
       4220.00        76.4847         1.9694         2.2690       0.429350
       4220.50        78.6998         1.9332         2.2801       0.424680
       4221.00        80.9149         1.9103         2.2512       0.421170
       4221.50        81.6800         1.8875         2.2223       0.417670
       4222.00        82.4452         1.8646         2.1934       0.414160
       4222.50        83.2103         1.8646         2.1751       0.445420
       4223.00        88.0899         1.8646         2.1567       0.476680
       4223.50        92.9695         1.8646         2.1384       0.507940
       4224.00        97.8491         1.8646         2.1201       0.516900
       4224.50       102.7287         1.9112         2.0956       0.525860
       4225.00       104.4623         1.9577         2.0712       0.534820
       4225.50       106.1958         2.0043         2.0467       0.543770
       4226.00       107.9294         2.0418         2.0101       0.554520
       4226.50       106.6292         2.0794         1.9734       0.565270
       4227.00       105.3290         2.1169         1.9367       0.576020
       4227.50       104.0289         2.1544         1.9001       0.565220
       4228.00       102.7287         2.1809         1.9512       0.554420
       4228.50        96.2226         2.2073         2.0023       0.543610
       4229.00        89.7164         2.2337         2.0534       0.532810
       4229.50        83.2103         2.1948         2.0817       0.544630
       4230.00        79.8876         2.1558         2.1101       0.556460
       4230.50        76.5650         2.1169         2.1384       0.568290
       4231.00        73.2424         2.0780         2.1667       0.552770
       4231.50        69.9197         2.2773         2.1490       0.537260
       4232.00        67.1803         2.4765         2.1312       0.521750
       4232.50        64.4409         2.6758         2.1134       0.506230
       4233.00        61.7014         2.6071         2.1512       0.510910
       4233.50        62.7127         2.5384         2.1890       0.515590
       4234.00        63.7239         2.4697         2.2267       0.520260
       4234.50        64.7352         2.4010         2.2384       0.495720
       4235.00        65.7464         1.8351         2.2501       0.471180
       4235.50        67.1375         1.2691         2.2618       0.446640
       4236.00        68.5286         0.7032         2.2734       0.422100
       4236.50        69.9197         0.7985         2.3001       0.398370
       4237.00        67.3716         0.8939         2.3268       0.374640
       4237.50        64.8234         0.9893         2.3534       0.350920
       4238.00        62.2753         1.0847         2.3601       0.343670
       4238.50        59.7271         1.3226         2.3668       0.336430
       4239.00        59.0797         1.5605         2.3734       0.329190
       4239.50        58.4323         1.7985         2.3801       0.321940
       4240.00        57.7849         1.7985         2.3512       0.315660
       4240.50        55.0401         1.7985         2.3223       0.309370
       4241.00        52.2953         1.7985         2.2934       0.303090
       4241.50        49.5506         1.7985         2.2584       0.280190
       4242.00        46.8058         1.8671         2.2234       0.257300
       4242.50        45.1204         1.9357         2.1884       0.234400
       4243.00        43.4350         2.0043         2.1534       0.211500
       4243.50        41.7496         2.0043         2.1534       0.198820
       4244.00        42.1629         2.0043         2.1534       0.186140
       4244.50        42.5762         2.0043         2.1534       0.173460
       4245.00        42.9896         2.0822         2.2051       0.190580
       4245.50        43.4029         2.1601         2.2568       0.207690
       4246.00        48.1969         2.2379         2.3084       0.224810
       4246.50        52.9909         2.3158         2.3601       0.241920
       4247.00        57.7849         2.3158         2.3445       0.259990
       4247.50        59.2656         2.3158         2.3290       0.278060
       4248.00        60.7464         2.3158         2.3134       0.296130
       4248.50        62.2271         2.3158         2.3001       0.317940
       4249.00        63.7079         2.3158         2.2868       0.339750
       4249.50        63.0391         2.3158         2.2734       0.361560
       4250.00        62.3703         2.3158         2.2601       0.383360
       4250.50        61.7014         2.3158         2.2823       0.356620
       4251.00        61.9522         2.3158         2.3045       0.329870
       4251.50        62.2030         2.3158         2.3268       0.303120
       4252.00        62.4538         2.3371         2.3184       0.285640
       4252.50        62.7047         2.3584         2.3101       0.268150
       4253.00        62.9554         2.3797         2.3018       0.250660
       4253.50        63.2062         2.4010         2.2934       0.233170
       4254.00        63.4571         2.4010         2.2312       0.272440
       4254.50        63.7079         2.4010         2.1690       0.311710
       4255.00        67.8170         2.4010         2.1068       0.350980
       4255.50        69.9679         2.2840         2.1334       0.393310
       4256.00        72.1188         2.1671         2.1601       0.435650
       4256.50        74.2697         2.0501         2.1867       0.477980
       4257.00        76.4205         1.9332         2.2134       0.520320
       4257.50        74.2536         1.9072         2.2245       0.501070
       4258.00        72.0867         1.8812         2.2356       0.481830
       4258.50        69.9197         1.8552         2.2468       0.462580
       4259.00        72.6685         1.8292         2.2367       0.445620
       4259.50        75.4173         1.8032         2.2267       0.428650
       4260.00        78.1661         1.7772         2.2167       0.411690
       4260.50        80.9149         1.7512         2.2067       0.448950
