~Version Information Block
VERS .                  2.0:  CWLS LOG ASCII STANDARD - VERSION 2.0
WRAP .                   NO:  One line per depth step
~Well Information Block
#MNEM.UNIT        Data Type   Information
#---------- ----------------  -----------
STRT .FT            3940.00:  START DEPTH
STOP .FT            7698.50:  STOP DEPTH
STEP .FT               0.50:  STEP
NULL .              -999.25:  NULL VALUE
COMP .                     :  COMPANY
WELL .              K-10RD2:  WELL
FLD  .                     :  FIELD
LOC  .                     :  LOCATION
CTRY .                     :  COUNTRY
STAT .                     :  STATE
CNTY .                     :  COUNTY
SRVC .                     :  SERVICE COMPANY
DATE .                     :  DATE
API  .                     :  API NUMBER
UWI  .                     :  UNIQUE WELL ID
~Curve Information Block
#MNEM.UNIT         API CODE   Curve Description
#---------- ----------------  -----------------
DEPTH.FT                   :  Depth Index
GR   .GAPI                 :  Gamma Ray
RT   .OHMM                 :  True Resistivity
RHOB .G/C3                 :  Bulk Density
NPHI .V/V                  :  Neutron Porosity
~Parameter Information Block
#MNEM.UNIT            Value   Description
#---------- ----------------  -----------
PROJECT.       KERINDINGAN_FE:  
~Other Information Block
# 
~A       DEPTH             GR             RT           RHOB           NPHI 
# ...
       5919.50        42.0829         2.0780         2.4001       0.290820
       5920.00        45.3633         2.0971         2.3934       0.280600
       5920.50        48.6437         2.1162         2.3868       0.270390
       5921.00        46.3710         2.1353         2.3801       0.260170
       5921.50        44.0983         2.1544         2.3734       0.249960
       5922.00        41.8256         2.2366         2.3290       0.264360
       5922.50        40.2497         2.3188         2.2845       0.278760
       5923.00        38.6738         2.4010         2.2401       0.293160
       5923.50        37.0979         2.2840         2.2451       0.305620
       5924.00        35.5220         2.1671         2.2501       0.318080
       5924.50        37.6232         2.0501         2.2551       0.330550
       5925.00        39.7244         1.9332         2.2601       0.343010
       5925.50        41.8256         1.8836         2.2490       0.360480
       5926.00        40.2497         1.8339         2.2379       0.377950
       5926.50        38.6738         1.7843         2.2267       0.395430
       5927.00        37.0979         1.7347         2.2218       0.396710
       5927.50        35.5220         1.7347         2.2167       0.398000
       5928.00        31.9441         1.7347         2.2118       0.399290
       5928.50        28.3661         1.7347         2.2067       0.400580
       5929.00        28.0325         1.7506         2.2290       0.418220
       5929.50        27.6988         1.7666         2.2512       0.435860
       5930.00        27.3651         1.7825         2.2734       0.453500
       5930.50        27.0315         1.7985         2.2584       0.437710
       5931.00        27.4764         1.7567         2.2434       0.421930
       5931.50        27.9212         1.7149         2.2284       0.406140
       5932.00        28.3661         1.6731         2.2134       0.390360
       5932.50        28.3661         1.7045         2.2334       0.393780
       5933.00        28.3661         1.7358         2.2534       0.397200
       5933.50        28.3661         1.7671         2.2734       0.400620
       5934.00        28.3661         1.7985         2.2934       0.405170
       5934.50        29.7652         1.7567         2.3112       0.409720
       5935.00        31.1642         1.7149         2.3290       0.414280
       5935.50        32.5632         1.6731         2.3468       0.418830
       5936.00        31.8556         1.8032         2.3484       0.410450
       5936.50        31.1481         1.9332         2.3501       0.402070
       5937.00        30.4405         1.9510         2.3518       0.393690
       5937.50        29.7330         1.9687         2.3534       0.385310
       5938.00        29.2774         1.9865         2.2801       0.396490
       5938.50        28.8218         2.0043         2.2067       0.407670
       5939.00        28.3661         2.0043         2.1334       0.418850
       5939.50        29.4154         2.0043         2.2534       0.426180
       5940.00        30.4646         2.0043         2.3734       0.433510
       5940.50        31.5139         2.0043         2.4934       0.440830
       5941.00        32.5632         2.0543         2.6134       0.448160
       5941.50        31.5139         2.1044         2.4801       0.431480
       5942.00        30.4646         2.1544         2.3468       0.414790
       5942.50        29.4154         2.0654         2.2134       0.398110
       5943.00        28.3661         1.9764         2.2517       0.416100
       5943.50        30.2583         1.8875         2.2901       0.434080
       5944.00        32.1504         1.7985         2.3284       0.452070
       5944.50        34.0426         1.7567         2.3668       0.470050
       5945.00        38.8121         1.7149         2.3568       0.437630
       5945.50        43.5816         1.6731         2.3468       0.405200
       5946.00        48.3511         1.5260         2.3368       0.372770
       5946.50        53.1206         1.3789         2.3268       0.386950
       5947.00        57.8901         1.2318         2.3245       0.401120
       5947.50        62.9153         1.0847         2.3223       0.415300
       5948.00        67.9404         1.0595         2.3201       0.429470
       5948.50        67.9404         1.0343         2.3251       0.415930
       5949.00        67.9404         1.0091         2.3301       0.402390
       5949.50        67.9404         0.9915         2.3351       0.388850
       5950.00        69.0017         0.9739         2.3401       0.375310
       5950.50        70.0631         0.9563         2.3245       0.417640
       5951.00        71.1244         0.9388         2.3090       0.459970
       5951.50        72.1857         0.9388         2.2934       0.502300
       5952.00        70.0791         0.9925         2.3034       0.503600
       5952.50        67.9726         1.0462         2.3134       0.484730
       5953.00        65.8660         1.0694         2.3234       0.484740
       5953.50        65.8660         1.0926         2.3334       0.488090
       5954.00        65.8660         1.1159         2.3468       0.491450
       5954.50        65.8660         1.1391         2.3601       0.494810
       5955.00        65.8660         1.1623         2.3734       0.498170
       5955.50        65.3555         1.1856         2.3784       0.487730
       5956.00        64.8449         1.2088         2.3834       0.477300
       5956.50        64.3344         1.3249         2.4051       0.466860
       5957.00        63.8238         1.4410         2.4268       0.456430
       5957.50        65.1960         1.5570         2.4112       0.425710
       5958.00        66.5682         1.6731         2.3956       0.395000
       5958.50        67.9404         1.7598         2.3801       0.364280
       5959.00        66.9032         1.8465         2.3809       0.333570
       5959.50        65.8660         1.9332         2.3818       0.321730
       5960.00        63.2074         1.9510         2.3826       0.309900
       5960.50        60.5487         1.9687         2.3834       0.298060
       5961.00        57.8901         1.9865         2.3776       0.291140
       5961.50        58.3765         2.0043         2.3718       0.284230
       5962.00        58.8629         2.0543         2.3659       0.277310
       5962.50        59.3494         2.1044         2.3601       0.277320
       5963.00        59.8358         2.1544         2.3556       0.293430
       5963.50        58.4006         2.1353         2.3512       0.305090
       5964.00        56.9655         2.1162         2.3468       0.299290
       5964.50        55.5303         2.0971         2.3279       0.293500
       5965.00        54.0951         2.0780         2.3090       0.287710
       5965.50        54.0951         2.0780         2.2901       0.281910
       5966.00        54.0951         2.0418         2.2901       0.276600
       5966.50        54.0951         2.0056         2.3168       0.271290
       5967.00        51.0277         1.9694         2.3268       0.265980
       5967.50        47.9603         1.9332         2.3501       0.270540
       5968.00        44.8929         1.8670         2.3734       0.275110
       5968.50        41.8256         1.8008         2.3968       0.279670
       5969.00        49.1583         1.7347         2.4201       0.284230
       5969.50        56.4911         1.5722         2.4001       0.315480
       5970.00        63.8238         1.4097         2.3801       0.346730
       5970.50        65.9143         1.2472         2.3601       0.377970
       5971.00        68.0048         1.0847         2.3401       0.417010
       5971.50        70.0952         1.1050         2.3823       0.456050
       5972.00        72.1857         1.1253         2.4245       0.495090
       5972.50        69.3984         1.1456         2.4668       0.534130
