~Version Information Block
VERS .                  2.0:  CWLS LOG ASCII STANDARD - VERSION 2.0
WRAP .                   NO:  One line per depth step
~Well Information Block
#MNEM.UNIT        Data Type   Information
#---------- ----------------  -----------
STRT .FT            3940.00:  START DEPTH
STOP .FT            7698.50:  STOP DEPTH
STEP .FT               0.50:  STEP
NULL .              -999.25:  NULL VALUE
COMP .                     :  COMPANY
WELL .              K-10RD2:  WELL
FLD  .                     :  FIELD
LOC  .                     :  LOCATION
CTRY .                     :  COUNTRY
STAT .                     :  STATE
CNTY .                     :  COUNTY
SRVC .                     :  SERVICE COMPANY
DATE .                     :  DATE
API  .                     :  API NUMBER
UWI  .                     :  UNIQUE WELL ID
~Curve Information Block
#MNEM.UNIT         API CODE   Curve Description
#---------- ----------------  -----------------
DEPTH.FT                   :  Depth Index
GR   .GAPI                 :  Gamma Ray
RT   .OHMM                 :  True Resistivity
RHOB .G/C3                 :  Bulk Density
NPHI .V/V                  :  Neutron Porosity
~Parameter Information Block
#MNEM.UNIT            Value   Description
#---------- ----------------  -----------
PROJECT.       KERINDINGAN_FE:  
~Other Information Block
# 
~A       DEPTH             GR             RT           RHOB           NPHI 
# ...
       4903.00        71.3430         1.8818         2.3301       0.463730
       4903.50        70.6314         1.8646         2.3268       0.473270
       4904.00        69.9197         1.8875         2.3156       0.472340
       4904.50        69.9197         1.9103         2.3045       0.471420
       4905.00        69.9197         1.9332         2.2934       0.470500
       4905.50        69.9197         1.9160         2.2915       0.486020
       4906.00        69.9197         1.8989         2.2896       0.501550
       4906.50        70.6314         1.8818         2.2877       0.517070
       4907.00        71.3430         1.8646         2.2858       0.532600
       4907.50        72.0546         1.8995         2.2839       0.513760
       4908.00        71.2661         1.9345         2.2820       0.494910
       4908.50        70.4775         1.9694         2.2801       0.476070
       4909.00        69.6890         2.0043         2.2784       0.472620
       4909.50        68.9005         1.9806         2.2768       0.469160
       4910.00        67.8491         1.9569         2.2751       0.465710
       4910.50        66.7978         1.9332         2.2734       0.462250
       4911.00        65.7464         1.8995         2.2834       0.461340
       4911.50        71.5677         1.8658         2.2934       0.460430
       4912.00        77.3890         1.8321         2.3034       0.459510
       4912.50        83.2103         1.7985         2.3134       0.461580
       4913.00        79.8876         1.8205         2.3090       0.463640
       4913.50        76.5650         1.8426         2.3045       0.465710
       4914.00        73.2424         1.8646         2.3001       0.467780
       4914.50        69.9197         1.8481         2.3051       0.476060
       4915.00        71.5449         1.8315         2.3101       0.484340
       4915.50        73.1701         1.8150         2.3151       0.492620
       4916.00        74.7953         1.7985         2.3201       0.500910
       4916.50        76.4205         1.7985         2.3134       0.494390
       4917.00        76.4205         1.7985         2.3068       0.487320
       4917.50        76.4205         1.9332         2.3001       0.469170
       4918.00        76.4205         1.9332         2.3034       0.451360
       4918.50        74.7953         1.9332         2.3068       0.438790
       4919.00        73.1701         1.9332         2.3101       0.426220
       4919.50        71.5449         1.9510         2.3134       0.413650
       4920.00        69.9197         1.9687         2.3207       0.401080
       4920.50        72.0546         1.9865         2.3279       0.432660
       4921.00        70.9872         2.0043         2.3351       0.464250
       4921.50        69.9197         2.0043         2.3351       0.495830
       4922.00        70.4535         2.0043         2.3197       0.480010
       4922.50        70.9872         2.0043         2.3043       0.464190
       4923.00        71.5209         1.9694         2.2888       0.448370
       4923.50        72.0546         1.9345         2.2734       0.432550
       4924.00        71.3430         1.8995         2.2784       0.464050
       4924.50        70.6314         1.8646         2.2834       0.495550
       4925.00        69.9197         1.8213         2.2884       0.527060
       4925.50        70.9952         1.7780         2.2934       0.558560
       4926.00        72.0706         1.7347         2.2912       0.546930
       4926.50        73.1461         1.7729         2.2890       0.535300
       4927.00        74.2215         1.8111         2.2868       0.523680
       4927.50        73.1461         1.8493         2.2868       0.513460
       4928.00        72.0706         1.8875         2.2868       0.503240
       4928.50        70.9952         1.8799         2.2868       0.493030
       4929.00        69.9197         1.8722         2.2868       0.535390
       4929.50        70.6314         1.8646         2.2845       0.534480
       4930.00        71.3430         1.8818         2.2823       0.534480
       4930.50        72.0546         1.8989         2.2801       0.516910
       4931.00        71.5209         1.9160         2.3156       0.499340
       4931.50        70.9872         1.9332         2.3512       0.481770
       4932.00        70.4535         1.9103         2.3868       0.489160
       4932.50        69.9197         1.8875         2.3490       0.496560
       4933.00        72.0867         1.8646         2.3112       0.503950
       4933.50        74.2536         1.8646         2.2734       0.511340
       4934.00        76.4205         1.8646         2.2756       0.512510
       4934.50        76.4205         1.8646         2.2779       0.513680
       4935.00        76.4205         1.8646         2.2801       0.514850
       4935.50        76.4205         1.8481         2.2734       0.505190
       4936.00        76.4205         1.8315         2.2668       0.495530
       4936.50        75.8708         1.8150         2.2601       0.485870
       4937.00        75.3210         1.7985         2.2534       0.476210
       4937.50        74.7713         1.7772         2.2690       0.494930
       4938.00        74.2215         1.7559         2.2845       0.513650
       4938.50        74.2215         1.7347         2.3001       0.532360
       4939.00        74.2215         1.7506         2.3014       0.551080
       4939.50        74.2215         1.7666         2.3028       0.520600
       4940.00        74.7713         1.7825         2.3041       0.490130
       4940.50        75.3210         1.7985         2.3054       0.459650
       4941.00        75.8708         1.8205         2.3068       0.461710
       4941.50        76.4205         1.8426         2.3001       0.463780
       4942.00        77.1643         1.8646         2.2934       0.465850
       4942.50        77.9080         1.8321         2.2868       0.467910
       4943.00        78.6517         1.7996         2.3068       0.478940
       4943.50        76.4687         1.7672         2.3268       0.489960
       4944.00        74.2857         1.7347         2.3468       0.500990
       4944.50        72.1027         1.7506         2.3668       0.504900
       4945.00        69.9197         1.7666         2.3290       0.508820
       4945.50        69.9197         1.7825         2.2912       0.512730
       4946.00        69.9197         1.7985         2.2534       0.516640
       4946.50        69.9197         1.8205         2.2768       0.501720
       4947.00        70.9952         1.8426         2.3001       0.486800
       4947.50        72.0706         1.8646         2.3234       0.471870
       4948.00        73.1461         1.8481         2.3468       0.456950
       4948.50        74.2215         1.8315         2.3401       0.475100
       4949.00        74.9545         1.8150         2.3334       0.493240
       4949.50        75.6875         1.7985         2.3268       0.511390
       4950.00        76.4205         1.7985         2.3151       0.510520
       4950.50        75.3290         1.7985         2.3034       0.509650
       4951.00        74.2376         1.7985         2.2918       0.508780
       4951.50        73.1461         1.7985         2.2801       0.507910
       4952.00        72.0546         1.7985         2.2890       0.501110
       4952.50        71.3430         1.7985         2.2979       0.494300
       4953.00        70.6314         1.7985         2.3068       0.487500
       4953.50        69.9197         1.7985         2.3018       0.480550
       4954.00        69.9197         1.7985         2.2968       0.473610
       4954.50        69.9197         1.7985         2.2918       0.466660
       4955.00        69.9197         1.7985         2.2868       0.459720
       4955.50        69.9197         1.7985         2.2912       0.472760
       4956.00        69.9197         1.7985         2.2957       0.485810
