~Version Information Block
VERS .                  2.0:  CWLS LOG ASCII STANDARD - VERSION 2.0
WRAP .                   NO:  One line per depth step
~Well Information Block
#MNEM.UNIT        Data Type   Information
#---------- ----------------  -----------
STRT .FT            3940.00:  START DEPTH
STOP .FT            7698.50:  STOP DEPTH
STEP .FT               0.50:  STEP
NULL .              -999.25:  NULL VALUE
COMP .                     :  COMPANY
WELL .              K-10RD2:  WELL
FLD  .                     :  FIELD
LOC  .                     :  LOCATION
CTRY .                     :  COUNTRY
STAT .                     :  STATE
CNTY .                     :  COUNTY
SRVC .                     :  SERVICE COMPANY
DATE .                     :  DATE
API  .                     :  API NUMBER
UWI  .                     :  UNIQUE WELL ID
~Curve Information Block
#MNEM.UNIT         API CODE   Curve Description
#---------- ----------------  -----------------
DEPTH.FT                   :  Depth Index
GR   .GAPI                 :  Gamma Ray
RT   .OHMM                 :  True Resistivity
RHOB .G/C3                 :  Bulk Density
NPHI .V/V                  :  Neutron Porosity
~Parameter Information Block
#MNEM.UNIT            Value   Description
#---------- ----------------  -----------
PROJECT.       KERINDINGAN_FE:  
~Other Information Block
# 
~A       DEPTH             GR             RT           RHOB           NPHI 
# ...
       6401.00        24.9356         3.5722         2.4801       0.183220
       6401.50        26.6509         3.5722         2.4668       0.171260
       6402.00        28.3661         3.8604         2.5090       0.159300
       6402.50        27.4871         4.1485         2.5512       0.148870
       6403.00        26.6080         4.4367         2.5934       0.138440
       6403.50        25.7289         4.3336         2.5645       0.128010
       6404.00        26.6080         4.2306         2.5357       0.134270
       6404.50        27.4871         4.1275         2.5068       0.140520
       6405.00        28.3661         4.1275         2.4534       0.146780
       6405.50        25.4770         4.1275         2.4001       0.146080
       6406.00        22.5879         4.1275         2.3023       0.145390
       6406.50        19.6987         3.9837         2.2045       0.144700
       6407.00        18.2836         3.8398         2.1068       0.150270
       6407.50        16.8685         4.2687         2.2156       0.155850
       6408.00        15.4534         4.6975         2.3245       0.161420
       6408.50        15.9680         5.1263         2.4334       0.194150
       6409.00        16.4826         5.0072         2.4423       0.227550
       6409.50        22.0143         4.8881         2.4512       0.208060
       6410.00        20.3017         4.7690         2.4601       0.188840
       6410.50        18.5891         5.0161         2.4957       0.154110
       6411.00        19.7148         5.2632         2.5312       0.119700
       6411.50        20.8404         5.5103         2.5668       0.126650
       6412.00        24.6033         5.6479         2.5801       0.133600
       6412.50        28.3661         5.7855         2.5934       0.140550
       6413.00        26.6509         5.9231         2.5968       0.115530
       6413.50        24.9356         6.4009         2.6001       0.090340
       6414.00        23.2204         6.8787         2.5890       0.092450
       6414.50        23.2204         7.3564         2.5779       0.094560
       6415.00        23.2204         7.1001         2.5668       0.096670
       6415.50        20.3661         6.8438         2.5368       0.100520
       6416.00        17.5117         6.6010         2.5068       0.104370
       6416.50        25.0375         5.4401         2.5157       0.108230
       6417.00        32.5632         4.2793         2.5245       0.119030
       6417.50        28.5109         5.4401         2.5334       0.129110
       6418.00        24.4586         6.6010         2.5534       0.123900
       6418.50        23.2364         6.4476         2.5734       0.107190
       6419.00        22.0143         6.2943         2.5745       0.117620
       6419.50        25.1902         6.1410         2.5757       0.128060
       6420.00        28.3661         5.6336         2.5768       0.138500
       6420.50        27.6742         5.1263         2.5401       0.132240
       6421.00        26.9823         7.1315         2.4968       0.125990
       6421.50        24.9224         9.1366         2.4823       0.119740
       6422.00        22.8625         7.7517         2.4679       0.135050
       6422.50        20.8026         6.3668         2.4534       0.150370
       6423.00        20.8026         6.0399         2.5834       0.165680
       6423.50        20.8026         5.7130         2.7134       0.143390
       6424.00        21.9904         5.1845         2.6801       0.121100
       6424.50        23.1782         4.6560         2.6468       0.098810
       6425.00        25.7464         4.1275         2.6134       0.102310
       6425.50        28.3146         4.0543         2.5684       0.105810
       6426.00        32.7929         3.9811         2.5234       0.109310
       6426.50        37.2713         2.9927         2.4784       0.145130
       6427.00        41.7496         2.0043         2.4334       0.180950
       6427.50        41.2092         2.0043         2.4768       0.216770
       6428.00        40.6688         2.0043         2.5201       0.221130
       6428.50        40.1284         3.0659         2.5534       0.225480
       6429.00        37.5869         4.1275         2.5868       0.229830
       6429.50        35.0455         4.7212         2.6201       0.178340
       6430.00        32.5040         5.3148         2.5934       0.128110
       6430.50        29.3954         5.5139         2.5668       0.128810
       6431.00        26.2868         5.7130         2.5401       0.129510
       6431.50        23.1782         5.7130         2.5445       0.130200
       6432.00        22.0064         5.7130         2.5490       0.132290
       6432.50        20.8347         5.5803         2.5534       0.134380
       6433.00        19.6629         5.4475         2.5601       0.136460
       6433.50        23.9888         5.3148         2.5668       0.135420
       6434.00        28.3146         5.0765         2.5734       0.134380
       6434.50        33.3440         4.8382         2.5268       0.145530
       6435.00        38.3735         4.5999         2.4801       0.156690
       6435.50        43.4029         4.8382         2.4334       0.167840
       6436.00        39.2937         5.0765         2.5334       0.153910
       6436.50        35.1846         5.3148         2.6334       0.139980
       6437.00        31.0754         4.6117         2.6379       0.126050
       6437.50        34.0931         3.9086         2.6423       0.140690
       6438.00        37.1107         3.2054         2.6468       0.155320
       6438.50        40.1284         3.7851         2.5834       0.169950
       6439.00        36.1905         4.3648         2.5201       0.158800
       6439.50        32.2525         4.9444         2.5023       0.147650
       6440.00        28.3146         4.0749         2.4845       0.136490
       6440.50        30.6956         3.2054         2.4668       0.150460
       6441.00        33.0765         3.1309         2.4890       0.164430
       6441.50        35.4575         3.0565         2.5112       0.178400
       6442.00        33.9807         2.9820         2.5334       0.174890
       6442.50        32.5040         3.3150         2.5245       0.171380
       6443.00        28.2236         3.6481         2.5157       0.167870
       6443.50        23.9433         3.9811         2.5068       0.161580
       6444.00        19.6629         3.7225         2.4712       0.155300
       6444.50        18.5875         3.4640         2.4357       0.168660
       6445.00        17.5120         3.2054         2.4001       0.182020
       6445.50        16.4366         3.4169         2.4068       0.195390
       6446.00        18.2825         3.6284         2.4134       0.191490
       6446.50        20.1284         3.8398         2.4201       0.187600
       6447.00        21.9743         3.7084         2.4134       0.183710
       6447.50        23.2103         3.5770         2.4068       0.183710
       6448.00        24.4462         3.4455         2.4368       0.175260
       6448.50        25.6822         3.5089         2.4668       0.182660
       6449.00        25.6822         3.5722         2.4968       0.186190
       6449.50        25.6822         3.6614         2.5268       0.192210
       6450.00        26.5597         3.7506         2.5534       0.174220
       6450.50        27.4371         3.8398         2.5368       0.155330
       6451.00        28.3146         3.3897         2.5368       0.156370
       6451.50        34.4783         2.9395         2.5034       0.157420
       6452.00        40.6421         2.4893         2.5301       0.176530
       6452.50        46.8058         2.4893         2.5223       0.195630
       6453.00        45.9470         2.4893         2.5268       0.214740
       6453.50        45.0883         2.4893         2.4968       0.213660
       6454.00        45.6608         2.4893         2.4868       0.212580
