~Version Information Block
VERS .                  2.0:  CWLS LOG ASCII STANDARD - VERSION 2.0
WRAP .                   NO:  One line per depth step
~Well Information Block
#MNEM.UNIT        Data Type   Information
#---------- ----------------  -----------
STRT .FT            3940.00:  START DEPTH
STOP .FT            7698.50:  STOP DEPTH
STEP .FT               0.50:  STEP
NULL .              -999.25:  NULL VALUE
COMP .                     :  COMPANY
WELL .              K-10RD2:  WELL
FLD  .                     :  FIELD
LOC  .                     :  LOCATION
CTRY .                     :  COUNTRY
STAT .                     :  STATE
CNTY .                     :  COUNTY
SRVC .                     :  SERVICE COMPANY
DATE .                     :  DATE
API  .                     :  API NUMBER
UWI  .                     :  UNIQUE WELL ID
~Curve Information Block
#MNEM.UNIT         API CODE   Curve Description
#---------- ----------------  -----------------
DEPTH.FT                   :  Depth Index
GR   .GAPI                 :  Gamma Ray
RT   .OHMM                 :  True Resistivity
RHOB .G/C3                 :  Bulk Density
NPHI .V/V                  :  Neutron Porosity
~Parameter Information Block
#MNEM.UNIT            Value   Description
#---------- ----------------  -----------
PROJECT.       KERINDINGAN_FE:  
~Other Information Block
# 
~A       DEPTH             GR             RT           RHOB           NPHI 
# ...
       7364.00        18.5891         5.7130         2.5334       0.183190
       7364.50        18.5891         6.0090         2.5462       0.168820
       7365.00        20.1329         6.3050         2.5590       0.154440
       7365.50        21.6766         6.6010         2.5718       0.140070
       7366.00        23.2204         7.3381         2.5845       0.116690
       7366.50        23.2204         8.0753         2.5973       0.093310
       7367.00        23.2204         8.8125         2.6101       0.069940
       7367.50        23.2204         7.7793         2.6101       0.084920
       7368.00        27.3209         6.7462         2.6023       0.099900
       7368.50        31.4214         5.7130         2.5945       0.114890
       7369.00        35.5220         4.6689         2.5868       0.134840
       7369.50        42.3402         3.6249         2.5734       0.154760
       7370.00        49.1583         2.5809         2.5601       0.172430
       7370.50        55.9765         3.1423         2.5468       0.190100
       7371.00        51.2595         3.7036         2.5290       0.207770
       7371.50        46.5425         3.1372         2.5112       0.206340
       7372.00        41.8256         2.5707         2.4934       0.204910
       7372.50        46.8910         2.0043         2.4779       0.203480
       7373.00        57.8901         1.8741         2.4623       0.249670
       7373.50        63.8238         1.7440         2.4468       0.295860
       7374.00        60.5809         1.6138         2.4601       0.342060
       7374.50        57.3380         1.6753         2.4734       0.329360
       7375.00        54.0951         1.7369         2.4868       0.316660
       7375.50        50.5573         1.7985         2.5401       0.303960
       7376.00        47.0196         2.1237         2.5934       0.270470
       7376.50        43.4819         2.4490         2.5934       0.236990
       7377.00        41.8577         2.7742         2.5934       0.203500
       7377.50        40.2336         2.7742         2.5934       0.192820
       7378.00        38.6095         2.7742         2.5734       0.182190
       7378.50        40.2175         2.7742         2.5534       0.195780
       7379.00        41.8256         2.6318         2.5334       0.209370
       7379.50        38.7381         2.4893         2.5823       0.222950
       7380.00        35.6506         2.3158         2.6312       0.214330
       7380.50        32.5632         2.6758         2.6801       0.205720
       7381.00        29.8616         3.4016         2.6534       0.197100
       7381.50        27.1601         4.1275         2.6268       0.179510
       7382.00        24.4586         3.7104         2.6001       0.161920
       7382.50        31.9360         3.2933         2.5823       0.144320
       7383.00        39.4135         2.8762         2.5645       0.175650
       7383.50        46.8910         2.6894         2.5468       0.206970
       7384.00        48.6759         2.5026         2.5668       0.238290
       7384.50        50.4608         2.3158         2.5868       0.241980
       7385.00        52.2458         2.4958         2.5801       0.245660
       7385.50        47.1804         2.6758         2.5734       0.249350
       7386.00        42.1150         3.2627         2.5668       0.219950
       7386.50        37.0496         3.8497         2.6001       0.190540
       7387.00        34.8064         4.4367         2.6334       0.161130
       7387.50        32.5632         4.3842         2.6668       0.143630
       7388.00        32.5632         4.3318         2.6112       0.126130
       7388.50        32.5632         4.2793         2.5557       0.108630
       7389.00        32.5632         3.5455         2.5001       0.154840
       7389.50        35.1093         2.8118         2.5490       0.201420
       7390.00        37.6553         2.0780         2.5979       0.210800
       7390.50        40.2014         2.3441         2.6468       0.220170
       7391.00        37.6553         2.6102         2.6157       0.229550
       7391.50        35.1093         2.8762         2.5845       0.226650
       7392.00        32.5632         2.3352         2.5534       0.223740
       7392.50        39.7405         1.7943         2.5157       0.220840
       7393.00        46.9178         1.2533         2.4779       0.266180
       7393.50        54.0951         1.0478         2.4401       0.311510
       7394.00        59.4124         0.8424         2.4368       0.356840
       7394.50        64.7297         0.8324         2.4334       0.347130
       7395.00        70.0470         0.8224         2.4268       0.337420
       7395.50        70.0470         0.8125         2.4201       0.327710
       7396.00        70.0470         0.8029         2.4134       0.343230
       7396.50        70.7599         0.7933         2.4068       0.358750
       7397.00        71.4728         0.7836         2.4001       0.374270
       7397.50        72.1857         0.7933         2.3934       0.381830
       7398.00        72.9093         0.8029         2.4112       0.389450
       7398.50        73.6330         0.8125         2.4290       0.391150
       7399.00        74.3566         0.8125         2.4468       0.392860
       7399.50        73.6330         0.8125         2.4534       0.394570
       7400.00        72.9093         0.8125         2.4601       0.395430
       7400.50        72.1857         0.8125         2.4668       0.396280
       7401.00        73.6437         0.8125         2.4768       0.397140
       7401.50        75.1016         0.8125         2.4868       0.398000
       7402.00        76.5596         0.7980         2.4868       0.398860
       7402.50        75.1016         0.7836         2.4868       0.399720
       7403.00        73.6437         0.7836         2.4868       0.411390
       7403.50        72.1857         0.7836         2.4645       0.423200
       7404.00        72.1857         0.7836         2.4423       0.427170
       7404.50        72.1857         0.7744         2.4201       0.431150
       7405.00        72.9093         0.7651         2.4290       0.436490
       7405.50        73.6330         0.7558         2.4379       0.417940
       7406.00        74.3566         0.7558         2.4468       0.417950
       7406.50        74.3566         0.7558         2.4501       0.399750
       7407.00        74.3566         0.7558         2.4534       0.404920
       7407.50        74.3566         0.8283         2.4445       0.421750
       7408.00        68.8678         0.9008         2.4357       0.438590
       7408.50        63.3789         0.9733         2.4268       0.455430
       7409.00        57.8901         0.9852         2.4301       0.429240
       7409.50        57.8901         0.9971         2.5579       0.403050
       7410.00        57.8901         1.0091         2.5579       0.376860
       7410.50        57.8901         1.9955         2.7346       0.294490
       7411.00        55.4030         2.9820         2.7868       0.212120
       7411.50        52.9158         2.3767         2.6568       0.129760
       7412.00        50.4287         1.7713         2.5268       0.192600
       7412.50        61.8137         1.1659         2.4957       0.255440
       7413.00        59.2408         1.2104         2.4645       0.318280
       7413.50        56.6679         1.2549         2.4334       0.303590
       7414.00        54.0951         1.2994         2.4490       0.288900
       7414.50        56.6679         1.2411         2.4645       0.274210
       7415.00        59.2408         1.1828         2.4801       0.281870
       7415.50        61.8137         1.1245         2.4268       0.289520
       7416.00        72.9898         1.0626         2.3734       0.297180
       7416.50        84.1657         1.0007         2.3201       0.352050
       7417.00        95.3418         0.9388         2.3334       0.410170
