~Version Information Block
VERS .                  2.0:  CWLS LOG ASCII STANDARD - VERSION 2.0
WRAP .                   NO:  One line per depth step
~Well Information Block
#MNEM.UNIT        Data Type   Information
#---------- ----------------  -----------
STRT .FT            3940.00:  START DEPTH
STOP .FT            7698.50:  STOP DEPTH
STEP .FT               0.50:  STEP
NULL .              -999.25:  NULL VALUE
COMP .                     :  COMPANY
WELL .              K-10RD2:  WELL
FLD  .                     :  FIELD
LOC  .                     :  LOCATION
CTRY .                     :  COUNTRY
STAT .                     :  STATE
CNTY .                     :  COUNTY
SRVC .                     :  SERVICE COMPANY
DATE .                     :  DATE
API  .                     :  API NUMBER
UWI  .                     :  UNIQUE WELL ID
~Curve Information Block
#MNEM.UNIT         API CODE   Curve Description
#---------- ----------------  -----------------
DEPTH.FT                   :  Depth Index
GR   .GAPI                 :  Gamma Ray
RT   .OHMM                 :  True Resistivity
RHOB .G/C3                 :  Bulk Density
NPHI .V/V                  :  Neutron Porosity
~Parameter Information Block
#MNEM.UNIT            Value   Description
#---------- ----------------  -----------
PROJECT.       KERINDINGAN_FE:  
~Other Information Block
# 
~A       DEPTH             GR             RT           RHOB           NPHI 
# ...
       5652.00        61.0540         1.5565         2.3845       0.348330
       5652.50        62.3810         1.5565         2.3823       0.339410
       5653.00        63.7079         1.6011         2.3801       0.330490
       5653.50        60.8186         1.6456         2.3718       0.344700
       5654.00        57.9294         1.6901         2.3634       0.358900
       5654.50        55.0401         1.7347         2.3551       0.373110
       5655.00        52.1509         1.7559         2.3468       0.387320
       5655.50        54.5385         1.7772         2.3623       0.366790
       5656.00        56.9262         1.7985         2.3779       0.346260
       5656.50        59.3138         1.7109         2.3934       0.325730
       5657.00        61.7014         1.6233         2.3851       0.340490
       5657.50        65.1525         1.5357         2.3768       0.355260
       5658.00        68.6035         1.4481         2.3684       0.370030
       5658.50        72.0546         1.3985         2.3601       0.384800
       5659.00        72.0546         1.3489         2.3645       0.413960
       5659.50        72.0546         1.2994         2.3690       0.443130
       5660.00        72.0546         1.3113         2.3734       0.472290
       5660.50        72.0546         1.3232         2.3484       0.469540
       5661.00        72.7769         1.3352         2.3234       0.466780
       5661.50        73.4992         1.3471         2.2984       0.464030
       5662.00        74.2215         1.3636         2.2734       0.461270
       5662.50        71.0915         1.3802         2.3001       0.433270
       5663.00        67.9615         1.3967         2.3268       0.405260
       5663.50        64.8315         1.4971         2.3534       0.377250
       5664.00        61.7014         1.5976         2.3801       0.368000
       5664.50        60.7223         1.6980         2.3801       0.358740
       5665.00        59.7432         1.7985         2.3801       0.349480
       5665.50        58.7640         1.9709         2.3801       0.340220
       5666.00        57.7849         2.1434         2.3751       0.331880
       5666.50        56.8298         2.3158         2.3701       0.323540
       5667.00        55.8748         2.3371         2.3651       0.315200
       5667.50        53.4350         2.3584         2.3601       0.306860
       5668.00        50.9952         2.3797         2.3334       0.298360
       5668.50        48.5554         2.4010         2.3068       0.289870
       5669.00        48.2638         2.4010         2.2801       0.281370
       5669.50        47.9722         2.4010         2.2968       0.274030
       5670.00        47.6806         2.4010         2.3134       0.266690
       5670.50        47.3890         2.3797         2.3301       0.259360
       5671.00        47.0974         2.3584         2.3468       0.252020
       5671.50        46.8058         2.3371         2.3623       0.260290
       5672.00        48.1421         2.3158         2.3779       0.268560
       5672.50        49.4783         2.2337         2.3934       0.276830
       5673.00        50.8146         2.1599         2.3784       0.274930
       5673.50        52.1509         2.0861         2.3634       0.273040
       5674.00        55.3344         2.0122         2.3484       0.284450
       5674.50        58.5179         1.9384         2.3334       0.295870
       5675.00        61.7014         1.8646         2.3268       0.307290
       5675.50        62.2030         1.7435         2.3201       0.318700
       5676.00        62.7047         1.6224         2.3134       0.350210
       5676.50        63.2062         1.5013         2.3068       0.381720
       5677.00        63.7079         1.5872         2.3234       0.413230
       5677.50        66.4901         1.6731         2.3401       0.431520
       5678.00        69.2723         1.5360         2.3268       0.449810
       5678.50        72.0546         1.3988         2.3134       0.468100
       5679.00        71.5209         1.2617         2.3001       0.486400
       5679.50        70.9872         1.1245         2.2979       0.467280
       5680.00        70.4535         1.1349         2.2957       0.448160
       5680.50        69.9197         1.1452         2.2934       0.429040
       5681.00        68.3668         1.1556         2.3218       0.429040
       5681.50        66.8138         1.1659         2.3501       0.429050
       5682.00        65.2608         1.1456         2.3784       0.429050
       5682.50        63.7079         1.1253         2.4068       0.429060
       5683.00        67.2124         1.1050         2.3734       0.439220
       5683.50        70.7170         1.0847         2.3401       0.449380
       5684.00        74.2215         1.1260         2.3068       0.459540
       5684.50        74.7713         1.1674         2.3054       0.469700
       5685.00        75.3210         1.2088         2.3041       0.464220
       5685.50        75.8708         1.1778         2.3028       0.458740
       5686.00        76.4205         1.1467         2.3014       0.453250
       5686.50        77.1643         1.1157         2.3001       0.458060
       5687.00        77.9080         1.0847         2.3134       0.462870
       5687.50        78.6517         1.0980         2.3268       0.467680
       5688.00        77.0024         1.1113         2.3401       0.472490
       5688.50        75.3531         1.1245         2.3401       0.467690
       5689.00        73.7039         1.1567         2.3401       0.462890
       5689.50        72.0546         1.1889         2.3401       0.458090
       5690.00        71.5209         1.2211         2.3401       0.453280
       5690.50        70.9872         1.2533         2.3312       0.463420
       5691.00        70.4535         1.3359         2.3223       0.473550
       5691.50        69.9197         1.4186         2.3134       0.483680
       5692.00        66.5222         1.5013         2.3318       0.447860
       5692.50        63.1247         1.7049         2.3501       0.412040
       5693.00        59.7271         1.9086         2.3684       0.376220
       5693.50        56.4968         2.1122         2.3868       0.340410
       5694.00        53.2664         2.3158         2.3823       0.322310
       5694.50        50.0361         2.3158         2.3779       0.304220
       5695.00        46.8058         2.3158         2.3734       0.286120
       5695.50        47.3890         2.3158         2.3751       0.277080
       5696.00        47.9722         2.2953         2.3768       0.268030
       5696.50        48.5554         2.2747         2.3784       0.258980
       5697.00        49.9157         2.2542         2.3801       0.249940
       5697.50        51.2761         2.2337         2.3734       0.241130
       5698.00        52.6364         2.1763         2.3668       0.232320
       5698.50        53.9968         2.1190         2.3601       0.223520
       5699.00        55.2595         2.0616         2.3551       0.247950
       5699.50        56.5222         2.0043         2.3501       0.272380
       5700.00        57.7849         2.0543         2.3451       0.296810
       5700.50        57.3074         2.1044         2.3401       0.321240
       5701.00        56.8298         2.1544         2.3445       0.301960
       5701.50        56.3523         2.1353         2.3490       0.282680
       5702.00        55.8748         2.1162         2.3534       0.263410
       5702.50        56.5115         2.0971         2.3651       0.270250
       5703.00        57.1482         2.0780         2.3768       0.277100
       5703.50        57.7849         1.9431         2.3884       0.283940
       5704.00        61.3523         1.8081         2.4001       0.290790
       5704.50        64.9197         1.6731         2.3984       0.311420
       5705.00        68.4872         1.5682         2.3968       0.332050
