~Version Information Block
VERS .                  2.0:  CWLS LOG ASCII STANDARD - VERSION 2.0
WRAP .                   NO:  One line per depth step
~Well Information Block
#MNEM.UNIT        Data Type   Information
#---------- ----------------  -----------
STRT .FT            3940.00:  START DEPTH
STOP .FT            7698.50:  STOP DEPTH
STEP .FT               0.50:  STEP
NULL .              -999.25:  NULL VALUE
COMP .                     :  COMPANY
WELL .              K-10RD2:  WELL
FLD  .                     :  FIELD
LOC  .                     :  LOCATION
CTRY .                     :  COUNTRY
STAT .                     :  STATE
CNTY .                     :  COUNTY
SRVC .                     :  SERVICE COMPANY
DATE .                     :  DATE
API  .                     :  API NUMBER
UWI  .                     :  UNIQUE WELL ID
~Curve Information Block
#MNEM.UNIT         API CODE   Curve Description
#---------- ----------------  -----------------
DEPTH.FT                   :  Depth Index
GR   .GAPI                 :  Gamma Ray
RT   .OHMM                 :  True Resistivity
RHOB .G/C3                 :  Bulk Density
NPHI .V/V                  :  Neutron Porosity
~Parameter Information Block
#MNEM.UNIT            Value   Description
#---------- ----------------  -----------
PROJECT.       KERINDINGAN_FE:  
~Other Information Block
# 
~A       DEPTH             GR             RT           RHOB           NPHI 
# ...
       7150.00         9.7699         1.0462         2.1434       0.243170
       7150.50        10.0321         1.0462         2.1501       0.252810
       7151.00         9.6469         1.0462         2.1434       0.262450
       7151.50         9.2616         1.0462         2.1434       0.261330
       7152.00         8.8764         1.0462         2.1312       0.260210
       7152.50         8.4912         1.0723         2.1190       0.259090
       7153.00         8.8684         1.0984         2.1068       0.257970
       7153.50         9.2456         1.1245         2.1134       0.256480
       7154.00         9.6388         1.1113         2.1201       0.254990
       7154.50        10.0321         1.0980         2.1267       0.253500
       7155.00         9.7699         1.0847         2.1234       0.247960
       7155.50         9.5078         1.0750         2.1201       0.242430
       7156.00         9.2456         1.0654         2.1168       0.236900
       7156.50         9.7368         1.0558         2.1134       0.231360
       7157.00        10.2279         1.0462         2.1112       0.232830
       7157.50        10.7191         1.0462         2.1090       0.234300
       7158.00        11.2103         1.0462         2.1068       0.235770
       7158.50        11.7014         1.0462         2.1484       0.241690
       7159.00        12.6003         1.5894         2.1901       0.247610
       7159.50        13.4992         2.1326         2.2318       0.253520
       7160.00        23.6236         2.6758         2.2734       0.266990
       7160.50        33.7480         3.0708         2.3668       0.280450
       7161.00        43.8724         3.4658         2.4601       0.293910
       7161.50        53.9968         3.7966         2.5534       0.293920
       7162.00        57.2338         4.1275         2.5534       0.286100
       7162.50        60.4708         3.9843         2.5534       0.278290
       7163.00        63.7079         3.8411         2.5534       0.270480
       7163.50        58.6570         3.6979         2.5534       0.262660
       7164.00        53.6062         3.5547         2.5934       0.254850
       7164.50        48.5554         3.4116         2.5934       0.247040
       7165.00        50.8628         3.2684         2.5934       0.239220
       7165.50        53.1701         3.1252         2.5794       0.231410
       7166.00        55.4775         2.9820         2.5653       0.247190
       7166.50        57.7849         2.5875         2.5512       0.262970
       7167.00        67.0358         2.1930         2.5371       0.278750
       7167.50        76.2868         1.7985         2.5231       0.294530
       7168.00        85.5377         1.8150         2.5090       0.323560
       7168.50        85.5377         1.8315         2.4949       0.352590
       7169.00        85.5377         1.8481         2.4808       0.381610
       7169.50        85.5377         1.8646         2.4668       0.366300
       7170.00        83.2584         1.9357         2.4823       0.350990
       7170.50        80.9791         2.0069         2.4979       0.335680
       7171.00        78.6998         2.0780         2.5134       0.320370
       7171.50        76.4205         2.0069         2.5157       0.301860
       7172.00        75.3210         1.9357         2.5179       0.283340
       7172.50        74.2215         1.8646         2.5201       0.264820
       7173.00        76.4366         1.8481         2.5168       0.289740
       7173.50        78.6517         1.8315         2.5134       0.314670
       7174.00        80.9149         1.8150         2.5101       0.339590
       7174.50        78.6838         1.7985         2.5068       0.330080
       7175.00        76.4527         1.7369         2.4934       0.320570
       7175.50        74.2215         1.6753         2.4801       0.311060
       7176.00        73.4992         1.6138         2.4668       0.301560
       7176.50        72.7769         1.5995         2.4934       0.312120
       7177.00        72.0546         1.5852         2.5201       0.322790
       7177.50        71.5209         1.5708         2.5468       0.346900
       7178.00        70.9872         1.5565         2.5284       0.398230
       7178.50        70.4535         1.5381         2.5101       0.379150
       7179.00        69.9197         1.5197         2.4918       0.382940
       7179.50        74.3499         1.5013         2.4734       0.356720
       7180.00        78.7801         1.4490         2.4634       0.371620
       7180.50        83.2103         1.3967         2.4534       0.369140
       7181.00        84.3820         1.3471         2.4434       0.366650
       7181.50        85.5538         1.3232         2.4468       0.364160
       7182.00        86.7255         1.2994         2.4568       0.361680
       7182.50        87.8973         1.2840         2.4468       0.387430
       7183.00        84.8154         1.2686         2.4401       0.413190
       7183.50        81.7336         1.2533         2.4434       0.438940
       7184.00        78.6517         1.2384         2.4468       0.431000
       7184.50        80.1712         1.2236         2.4823       0.423070
       7185.00        81.6907         1.2088         2.5179       0.415130
       7185.50        83.2103         1.1981         2.5534       0.402310
       7186.00        80.9310         1.1874         2.5290       0.389500
       7186.50        78.6517         1.1766         2.5045       0.376680
       7187.00        80.9149         1.1659         2.4801       0.381120
       7187.50        79.4168         1.1659         2.5045       0.385570
       7188.00        77.9187         1.1659         2.5290       0.390010
       7188.50        76.4205         1.1659         2.5534       0.394450
       7189.00        78.6677         1.1456         2.5301       0.399620
       7189.50        80.9149         1.1253         2.5068       0.404780
       7190.00        80.9149         1.1050         2.4834       0.409940
       7190.50        85.5377         1.0847         2.4601       0.418550
       7191.00        85.5377         1.1562         2.4645       0.427160
       7191.50        84.3740         1.2278         2.4690       0.435760
       7192.00        83.2103         1.2994         2.4734       0.444370
       7192.50        80.9149         1.3489         2.4823       0.402290
       7193.00        69.9197         1.3985         2.4912       0.360210
       7193.50        69.9197         1.4481         2.5001       0.318130
       7194.00        69.9197         1.3967         2.5234       0.312270
       7194.50        69.9197         1.5349         2.5468       0.306410
       7195.00        72.0706         1.6731         2.5701       0.300550
       7195.50        74.2215         1.6435         2.5934       0.294690
       7196.00        72.0706         1.6138         2.5734       0.269280
       7196.50        69.9197         1.8090         2.5534       0.243870
       7197.00        76.2319         2.0043         2.5334       0.218460
       7197.50        82.5441         1.7985         2.5534       0.241610
       7198.00        88.8563         1.3967         2.5734       0.264760
       7198.50        95.1685         1.6138         2.5934       0.287920
       7199.00        87.4639         1.7061         2.6134       0.311070
       7199.50        79.7592         1.7985         2.5645       0.298720
       7200.00        72.0546         1.9332         2.5157       0.286380
       7200.50        79.7592         2.0043         2.4668       0.274040
       7201.00        87.4639         1.9014         2.4751       0.284040
       7201.50        95.1685         1.7985         2.4834       0.294040
       7202.00        93.9486         1.6731         2.4918       0.304040
       7202.50        92.7287         1.5349         2.5001       0.311160
       7203.00        91.5088         1.3967         2.5112       0.318280
