~Version Information Block
VERS .                  2.0:  CWLS LOG ASCII STANDARD - VERSION 2.0
WRAP .                   NO:  One line per depth step
~Well Information Block
#MNEM.UNIT        Data Type   Information
#---------- ----------------  -----------
STRT .FT            3940.00:  START DEPTH
STOP .FT            7698.50:  STOP DEPTH
STEP .FT               0.50:  STEP
NULL .              -999.25:  NULL VALUE
COMP .                     :  COMPANY
WELL .              K-10RD2:  WELL
FLD  .                     :  FIELD
LOC  .                     :  LOCATION
CTRY .                     :  COUNTRY
STAT .                     :  STATE
CNTY .                     :  COUNTY
SRVC .                     :  SERVICE COMPANY
DATE .                     :  DATE
API  .                     :  API NUMBER
UWI  .                     :  UNIQUE WELL ID
~Curve Information Block
#MNEM.UNIT         API CODE   Curve Description
#---------- ----------------  -----------------
DEPTH.FT                   :  Depth Index
GR   .GAPI                 :  Gamma Ray
RT   .OHMM                 :  True Resistivity
RHOB .G/C3                 :  Bulk Density
NPHI .V/V                  :  Neutron Porosity
~Parameter Information Block
#MNEM.UNIT            Value   Description
#---------- ----------------  -----------
PROJECT.       KERINDINGAN_FE:  
~Other Information Block
# 
~A       DEPTH             GR             RT           RHOB           NPHI 
# ...
       7631.50        72.1857         1.6440      -999.2500    -999.250000
       7632.00        73.6437         1.6742      -999.2500    -999.250000
       7632.50        75.1016         1.7044      -999.2500    -999.250000
       7633.00        76.5596         1.7347      -999.2500    -999.250000
       7633.50        76.5596         1.9063      -999.2500    -999.250000
       7634.00        76.5596         2.0780      -999.2500    -999.250000
       7634.50        76.5596         2.2456      -999.2500    -999.250000
       7635.00        70.3364         2.4132      -999.2500    -999.250000
       7635.50        64.1133         2.5809      -999.2500    -999.250000
       7636.00        57.8901         2.3887      -999.2500    -999.250000
       7636.50        49.4478         2.1965      -999.2500    -999.250000
       7637.00        41.0055         2.0043      -999.2500    -999.250000
       7637.50        32.5632         1.8695      -999.2500    -999.250000
       7638.00        31.6198         1.7347      -999.2500    -999.250000
       7638.50        30.6764         1.6753      -999.2500    -999.250000
       7639.00        29.7330         1.6159      -999.2500    -999.250000
       7639.50        29.0496         1.5565      -999.2500    -999.250000
       7640.00        28.3661         1.5565      -999.2500    -999.250000
       7640.50        29.7652         1.5565      -999.2500    -999.250000
       7641.00        31.1642         1.5565      -999.2500    -999.250000
       7641.50        32.5632         1.5033      -999.2500    -999.250000
       7642.00        28.2750         1.4500      -999.2500    -999.250000
       7642.50        23.9869         1.3967      -999.2500    -999.250000
       7643.00        19.6987         1.3967      -999.2500    -999.250000
       7643.50        19.6987         1.3967      -999.2500    -999.250000
       7644.00        19.6987         1.3967      -999.2500    -999.250000
       7644.50        19.6987         1.3642      -999.2500    -999.250000
       7645.00        19.3289         1.3318      -999.2500    -999.250000
       7645.50        18.9590         1.2994      -999.2500    -999.250000
       7646.00        18.5891         1.4003      -999.2500    -999.250000
       7646.50        20.1329         1.5013      -999.2500    -999.250000
       7647.00        21.6766         1.5388      -999.2500    -999.250000
       7647.50        23.2204         1.5763      -999.2500    -999.250000
       7648.00        27.8918         1.6138      -999.2500    -999.250000
       7648.50        32.5632         1.6336      -999.2500    -999.250000
       7649.00        29.4489         1.6533      -999.2500    -999.250000
       7649.50        26.3346         1.6731      -999.2500    -999.250000
       7650.00        23.2204         1.5485      -999.2500    -999.250000
       7650.50        20.6314         1.4239      -999.2500    -999.250000
       7651.00        18.0424         1.2994      -999.2500    -999.250000
       7651.50        15.4534         1.2840      -999.2500    -999.250000
       7652.00        15.4534         1.2686      -999.2500    -999.250000
       7652.50        15.4534         1.2533      -999.2500    -999.250000
       7653.00        15.4534         1.3011      -999.2500    -999.250000
       7653.50        17.2491         1.3489      -999.2500    -999.250000
       7654.00        19.0448         1.3967      -999.2500    -999.250000
       7654.50        20.8404         1.5349      -999.2500    -999.250000
       7655.00        22.4699         1.6731      -999.2500    -999.250000
       7655.50        24.0994         1.6731      -999.2500    -999.250000
       7656.00        25.7289         1.6731      -999.2500    -999.250000
       7656.50        24.4746         1.6731      -999.2500    -999.250000
       7657.00        23.2204         1.6159      -999.2500    -999.250000
       7657.50        22.9188         1.5586      -999.2500    -999.250000
       7658.00        22.6173         1.5013      -999.2500    -999.250000
       7658.50        22.3158         1.4499      -999.2500    -999.250000
       7659.00        22.0143         1.3985      -999.2500    -999.250000
       7659.50        18.7339         1.3471      -999.2500    -999.250000
       7660.00        15.4534         1.2867      -999.2500    -999.250000
       7660.50        15.1265         1.2263      -999.2500    -999.250000
       7661.00        14.7995         1.1659      -999.2500    -999.250000
       7661.50        14.4725         1.1659      -999.2500    -999.250000
       7662.00        14.1563         1.1659      -999.2500    -999.250000
       7662.50        13.8400         1.1659      -999.2500    -999.250000
       7663.00        13.5238         1.1874      -999.2500    -999.250000
       7663.50        14.2594         1.2088      -999.2500    -999.250000
       7664.00        14.9951         1.2236      -999.2500    -999.250000
       7664.50        15.7308         1.2384      -999.2500    -999.250000
       7665.00        16.4665         1.2533      -999.2500    -999.250000
       7665.50        17.5439         1.2686      -999.2500    -999.250000
       7666.00        18.6213         1.2840      -999.2500    -999.250000
       7666.50        19.6987         1.2994      -999.2500    -999.250000
       7667.00        20.5791         1.3153      -999.2500    -999.250000
       7667.50        21.4595         1.3312      -999.2500    -999.250000
       7668.00        22.3399         1.3471      -999.2500    -999.250000
       7668.50        23.2204         1.4169      -999.2500    -999.250000
       7669.00        27.3209         1.4867      -999.2500    -999.250000
       7669.50        31.4214         1.5565      -999.2500    -999.250000
       7670.00        35.5220         1.5042      -999.2500    -999.250000
       7670.50        31.2888         1.4518      -999.2500    -999.250000
       7671.00        27.0556         1.3995      -999.2500    -999.250000
       7671.50        22.8224         1.3471      -999.2500    -999.250000
       7672.00        18.5891         1.3312      -999.2500    -999.250000
       7672.50        18.2300         1.3153      -999.2500    -999.250000
       7673.00        17.8709         1.2994      -999.2500    -999.250000
       7673.50        17.5117         1.3318      -999.2500    -999.250000
       7674.00        19.0126         1.3642      -999.2500    -999.250000
       7674.50        20.5135         1.3967      -999.2500    -999.250000
       7675.00        22.0143         1.4228      -999.2500    -999.250000
       7675.50        23.6023         1.4490      -999.2500    -999.250000
       7676.00        25.1902         1.4751      -999.2500    -999.250000
       7676.50        26.7782         1.5013      -999.2500    -999.250000
       7677.00        28.3661         1.5013      -999.2500    -999.250000
       7677.50        27.0636         1.5013      -999.2500    -999.250000
       7678.00        25.7611         1.5013      -999.2500    -999.250000
       7678.50        24.4586         1.5151      -999.2500    -999.250000
       7679.00        25.7611         1.5289      -999.2500    -999.250000
       7679.50        27.0636         1.5427      -999.2500    -999.250000
       7680.00        28.3661         1.5565      -999.2500    -999.250000
       7680.50        27.0797         1.5204      -999.2500    -999.250000
       7681.00        25.7932         1.4842      -999.2500    -999.250000
       7681.50        24.5068         1.4481      -999.2500    -999.250000
       7682.00        23.2204         1.4842      -999.2500    -999.250000
       7682.50        23.6331         1.5204      -999.2500    -999.250000
       7683.00        24.0458         1.5565      -999.2500    -999.250000
       7683.50        24.4586         1.5427      -999.2500    -999.250000
       7684.00        26.4847         1.5289      -999.2500    -999.250000
       7684.50        28.5109         1.5151      -999.2500    -999.250000
