~Version Information Block
VERS .                  2.0:  CWLS LOG ASCII STANDARD - VERSION 2.0
WRAP .                   NO:  One line per depth step
~Well Information Block
#MNEM.UNIT        Data Type   Information
#---------- ----------------  -----------
STRT .FT            3940.00:  START DEPTH
STOP .FT            7698.50:  STOP DEPTH
STEP .FT               0.50:  STEP
NULL .              -999.25:  NULL VALUE
COMP .                     :  COMPANY
WELL .              K-10RD2:  WELL
FLD  .                     :  FIELD
LOC  .                     :  LOCATION
CTRY .                     :  COUNTRY
STAT .                     :  STATE
CNTY .                     :  COUNTY
SRVC .                     :  SERVICE COMPANY
DATE .                     :  DATE
API  .                     :  API NUMBER
UWI  .                     :  UNIQUE WELL ID
~Curve Information Block
#MNEM.UNIT         API CODE   Curve Description
#---------- ----------------  -----------------
DEPTH.FT                   :  Depth Index
GR   .GAPI                 :  Gamma Ray
RT   .OHMM                 :  True Resistivity
RHOB .G/C3                 :  Bulk Density
NPHI .V/V                  :  Neutron Porosity
~Parameter Information Block
#MNEM.UNIT            Value   Description
#---------- ----------------  -----------
PROJECT.       KERINDINGAN_FE:  
~Other Information Block
# 
~A       DEPTH             GR             RT           RHOB           NPHI 
# ...
       5170.50        43.4029         3.4478         2.1234       0.217830
       5171.00        42.8518         3.5100         2.1318       0.206460
       5171.50        42.3007         3.5722         2.1401       0.195090
       5172.00        41.7496         3.8079         2.1201       0.200090
       5172.50        43.0136         4.0436         2.1001       0.205090
       5173.00        44.2777         4.2793         2.0801       0.210090
       5173.50        45.5417         4.0403         2.1101       0.227820
       5174.00        46.8058         3.8013         2.1401       0.245550
       5174.50        48.5875         3.5623         2.1701       0.263280
       5175.00        50.3692         3.3233         2.2001       0.281010
       5175.50        52.1509         3.4184         2.0934       0.279490
       5176.00        47.6043         3.5135         1.9867       0.277970
       5176.50        43.0578         3.6086         1.8801       0.276450
       5177.00        38.5112         3.7036         1.8567       0.257720
       5177.50        33.9647         3.7961         1.8334       0.238990
       5178.00        29.9679         3.8886         1.8101       0.220260
       5178.50        25.9711         3.9811         1.7867       0.201530
       5179.00        21.9743         3.5648         1.9117       0.213510
       5179.50        28.1822         3.1484         2.0367       0.225500
       5180.00        34.3900         2.7321         2.1618       0.237490
       5180.50        40.5979         2.3158         2.2868       0.249470
       5181.00        46.8058         2.2620         2.2979       0.264600
       5181.50        50.4655         2.2082         2.3090       0.279730
       5182.00        54.1252         2.1544         2.3201       0.294860
       5182.50        57.7849         2.1353         2.3151       0.304300
       5183.00        56.8298         2.1162         2.3101       0.313750
       5183.50        55.8748         2.0971         2.3051       0.323200
       5184.00        55.8748         2.0780         2.3001       0.332640
       5184.50        56.3523         2.0297         2.3001       0.321600
       5185.00        56.8298         1.9815         2.3001       0.310560
       5185.50        58.7560         1.9332         2.3001       0.299520
       5186.00        54.0032         1.8390         2.2418       0.307200
       5186.50        52.1509         1.7449         2.1834       0.314890
       5187.00        47.6806         1.6507         2.1251       0.322570
       5187.50        38.5393         1.5565         2.0668       0.330260
       5188.00        32.5040         1.6159         2.1218       0.323740
       5188.50        35.4575         1.6753         2.1767       0.317230
       5189.00        41.6372         1.7347         2.2318       0.310720
       5189.50        47.8170         1.8646         2.2868       0.304210
       5190.00        53.9968         2.0043         2.2979       0.312900
       5190.50        53.9968         2.0412         2.3090       0.321590
       5191.00        53.9968         2.0780         2.3201       0.330280
       5191.50        55.8909         2.0780         2.3284       0.333300
       5192.00        57.7849         2.0780         2.3368       0.336320
       5192.50        56.5222         2.1544         2.3451       0.339340
       5193.00        55.2595         2.1035         2.3534       0.342360
       5193.50        53.9968         2.0780         2.3534       0.344800
       5194.00        55.2595         2.0780         2.3534       0.347240
       5194.50        56.5222         2.0780         2.3534       0.349680
       5195.00        57.7849         2.0780         2.3668       0.343040
       5195.50        59.0904         2.0780         2.3801       0.336410
       5196.00        60.3959         2.0780         2.3934       0.329770
       5196.50        61.7014         2.0780         2.4068       0.323130
       5197.00        61.2079         2.0412         2.3868       0.323130
       5197.50        60.7143         2.0043         2.3668       0.341930
       5198.00        60.2207         1.9345         2.3468       0.360720
       5198.50        59.7271         1.8646         2.3451       0.379520
       5199.00        61.7336         1.7810         2.3434       0.420870
       5199.50        63.7400         1.6974         2.3418       0.462220
       5200.00        65.7464         1.6138         2.3401       0.503570
       5200.50        67.8170         1.5763         2.3234       0.505740
       5201.00        69.2295         1.5388         2.3068       0.507910
       5201.50        70.6421         1.5013         2.3168       0.510080
       5202.00        72.0546         1.5013         2.3268       0.512260
       5202.50        72.0546         1.5013         2.3134       0.497410
       5203.00        72.0546         1.5013         2.3001       0.482570
       5203.50        72.0546         1.5791         2.2868       0.467720
       5204.00        72.0546         1.6569         2.2734       0.452880
       5204.50        69.9519         1.7347         2.3045       0.463950
       5205.00        67.8491         1.7044         2.3356       0.475020
       5205.50        65.7464         1.6742         2.3668       0.486080
       5206.00        68.9727         1.6440         2.3568       0.487850
       5206.50        72.1990         1.6138         2.3468       0.489620
       5207.00        75.4254         1.5565         2.3368       0.491390
       5207.50        78.6517         1.5204         2.3268       0.493160
       5208.00        77.0024         1.4842         2.3245       0.525840
       5208.50        75.3531         1.4481         2.3223       0.535460
       5209.00        73.7039         1.4352         2.3201       0.540990
       5209.50        72.0546         1.4224         2.3268       0.546530
       5210.00        74.2536         1.4095         2.3334       0.552060
       5210.50        76.4527         1.3967         2.3401       0.534870
       5211.00        78.6517         1.4138         2.3468       0.517690
       5211.50        77.5441         1.4309         2.3490       0.500500
       5212.00        76.4366         1.4481         2.3734       0.483310
       5212.50        75.3291         1.5033         2.4068       0.483320
       5213.00        74.2215         1.5585         2.4401       0.483320
       5213.50        74.9545         1.6138         2.4734       0.483320
       5214.00        75.6875         1.6138         2.4368       0.475620
       5214.50        76.4205         1.6138         2.4001       0.467920
       5215.00        75.8708         1.6138         2.3634       0.460220
       5215.50        75.3210         1.6138         2.3268       0.452520
       5216.00        74.7713         1.5995         2.3218       0.444820
       5216.50        74.2215         1.5852         2.3168       0.442140
       5217.00        74.2215         1.5708         2.3118       0.439450
       5217.50        74.2215         1.5565         2.3068       0.436770
       5218.00        74.2215         1.7558         2.3334       0.434780
       5218.50        72.1027         1.9551         2.3601       0.432780
       5219.00        69.9839         2.1544         2.3868       0.430780
       5219.50        67.8652         2.0050         2.4134       0.428790
       5220.00        65.7464         1.8555         2.5423       0.379600
       5220.50        60.1605         1.7060         2.6712       0.330420
       5221.00        54.5746         1.5565         2.8001       0.281230
       5221.50        48.9888         1.9296         2.7234       0.286430
       5222.00        43.4029         2.3027         2.6468       0.291630
       5222.50        45.7143         2.6758         2.5701       0.296830
       5223.00        48.0257         2.7683         2.4934       0.302040
       5223.50        50.3371         2.8608         2.4912       0.304380
