~Version Information Block
VERS .                  2.0:  CWLS LOG ASCII STANDARD - VERSION 2.0
WRAP .                   NO:  One line per depth step
~Well Information Block
#MNEM.UNIT        Data Type   Information
#---------- ----------------  -----------
STRT .FT            3940.00:  START DEPTH
STOP .FT            7698.50:  STOP DEPTH
STEP .FT               0.50:  STEP
NULL .              -999.25:  NULL VALUE
COMP .                     :  COMPANY
WELL .              K-10RD2:  WELL
FLD  .                     :  FIELD
LOC  .                     :  LOCATION
CTRY .                     :  COUNTRY
STAT .                     :  STATE
CNTY .                     :  COUNTY
SRVC .                     :  SERVICE COMPANY
DATE .                     :  DATE
API  .                     :  API NUMBER
UWI  .                     :  UNIQUE WELL ID
~Curve Information Block
#MNEM.UNIT         API CODE   Curve Description
#---------- ----------------  -----------------
DEPTH.FT                   :  Depth Index
GR   .GAPI                 :  Gamma Ray
RT   .OHMM                 :  True Resistivity
RHOB .G/C3                 :  Bulk Density
NPHI .V/V                  :  Neutron Porosity
~Parameter Information Block
#MNEM.UNIT            Value   Description
#---------- ----------------  -----------
PROJECT.       KERINDINGAN_FE:  
~Other Information Block
# 
~A       DEPTH             GR             RT           RHOB           NPHI 
# ...
       4421.50        51.2761         2.4010         2.2201       0.278050
       4422.00        49.9157         2.4231         2.1979       0.263900
       4422.50        48.5554         2.4451         2.1756       0.249750
       4423.00        46.2868         2.4672         2.1534       0.235600
       4423.50        44.0182         2.4893         2.1434       0.236150
       4424.00        41.7496         2.4893         2.1334       0.236700
       4424.50        42.1629         2.4893         2.1234       0.237250
       4425.00        42.5762         2.4893         2.1134       0.237800
       4425.50        42.9896         2.4459         2.1490       0.240740
       4426.00        43.4029         2.4026         2.1845       0.243690
       4426.50        45.1204         2.3592         2.2201       0.246630
       4427.00        46.8379         2.3158         2.2318       0.257930
       4427.50        48.5554         2.2884         2.2434       0.269240
       4428.00        49.4543         2.2611         2.2551       0.280540
       4428.50        50.3531         2.2337         2.2668       0.291850
       4429.00        51.2520         2.2139         2.2734       0.306000
       4429.50        52.1509         2.1941         2.2801       0.320160
       4430.00        58.0738         2.1742         2.2868       0.334310
       4430.50        63.9968         2.1544         2.2934       0.342270
       4431.00        69.9197         2.1544         2.3156       0.350240
       4431.50        68.5286         2.1544         2.3379       0.358200
       4432.00        67.1375         2.1544         2.3601       0.366160
       4432.50        65.7464         2.1353         2.3401       0.385590
       4433.00        66.7897         2.1162         2.3201       0.405010
       4433.50        67.8331         2.0971         2.3001       0.424440
       4434.00        68.8764         2.0780         2.2801       0.443870
       4434.50        69.9197         2.0780         2.2823       0.448400
       4435.00        70.6314         2.0780         2.2845       0.452930
       4435.50        71.3430         2.0780         2.2868       0.457450
       4436.00        72.0546         2.0971         2.2884       0.452050
       4436.50        72.0546         2.1162         2.2901       0.446640
       4437.00        72.0546         2.1353         2.2918       0.441240
       4437.50        72.0546         2.1544         2.2934       0.435830
       4438.00        72.0546         2.1544         2.2834       0.447630
       4438.50        73.5099         2.1544         2.2734       0.459430
       4439.00        74.9652         2.1544         2.2634       0.471240
       4439.50        76.4205         2.1353         2.2534       0.484900
       4440.00        75.8708         2.1162         2.2668       0.498560
       4440.50        75.3210         2.0971         2.2801       0.512230
       4441.00        74.7713         2.0780         2.2934       0.525890
       4441.50        74.2215         2.0534         2.2751       0.512930
       4442.00        73.4992         2.0289         2.2568       0.499960
       4442.50        72.7769         2.0043         2.2384       0.487000
       4443.00        72.0546         2.0227         2.2201       0.474030
       4443.50        72.5963         2.0412         2.2267       0.480590
       4444.00        73.1380         2.0596         2.2334       0.487150
       4444.50        73.6798         2.0780         2.2401       0.493700
       4445.00        74.2215         2.0534         2.2517       0.498220
       4445.50        72.0867         2.0289         2.2634       0.502730
       4446.00        69.9518         2.0043         2.2751       0.507240
       4446.50        67.8170         2.0043         2.2868       0.511750
       4447.00        69.4181         2.0043         2.2556       0.502920
       4447.50        71.0193         2.0043         2.2245       0.494080
       4448.00        72.6204         2.0043         2.1934       0.485240
       4448.50        74.2215         2.0289         2.2067       0.489700
       4449.00        74.9545         2.0534         2.2201       0.494160
       4449.50        75.6875         2.0780         2.2334       0.498630
       4450.00        76.4205         2.1169         2.2468       0.503090
       4450.50        75.8708         2.1558         2.2534       0.528160
       4451.00        75.3210         2.1948         2.2601       0.553230
       4451.50        74.7713         2.2337         2.2668       0.578300
       4452.00        74.2215         2.1818         2.2684       0.566100
       4452.50        72.0546         2.1299         2.2701       0.553910
       4453.00        74.2215         2.0780         2.2718       0.541710
       4453.50        75.3210         2.0780         2.2734       0.529520
       4454.00        76.4205         2.0780         2.2756       0.525950
       4454.50        74.2536         2.0780         2.2779       0.522380
       4455.00        72.0867         2.0780         2.2801       0.518810
       4455.50        69.9197         2.0780         2.2784       0.527000
       4456.00        69.3941         2.0780         2.2768       0.535180
       4456.50        68.8684         2.0780         2.2751       0.543370
       4457.00        68.3427         2.1375         2.2734       0.551550
       4457.50        67.8170         2.1969         2.2851       0.527590
       4458.00        65.7785         2.2564         2.2968       0.503640
       4458.50        63.7400         2.3158         2.3084       0.479680
       4459.00        61.7014         2.4967         2.3201       0.468070
       4459.50        59.3138         2.6775         2.2756       0.456470
       4460.00        56.9262         2.7173         2.2312       0.444860
       4460.50        54.5385         2.7570         2.1867       0.433260
       4461.00        52.1509         2.7968         2.1834       0.407810
       4461.50        53.0819         2.8365         2.1801       0.399190
       4462.00        54.0128         2.8762         2.1767       0.401130
       4462.50        54.9438         2.8762         2.1734       0.403070
       4463.00        55.8748         2.8762         2.2034       0.405020
       4463.50        54.6335         2.8762         2.2334       0.406960
       4464.00        53.3922         2.8762         2.2634       0.415730
       4464.50        52.1509         2.8422         2.2634       0.424500
       4465.00        55.5498         2.8082         2.2868       0.433270
       4465.50        58.9486         2.7742         2.2534       0.437310
       4466.00        62.3475         2.6193         2.2534       0.441350
       4466.50        65.7464         2.4643         2.2534       0.445380
       4467.00        67.1375         2.3094         2.2534       0.449420
       4467.50        68.5286         2.1544         2.2468       0.465020
       4468.00        69.9197         2.0807         2.2401       0.480620
       4468.50        72.1027         2.0069         2.2334       0.496220
       4469.00        74.2857         1.9332         2.2267       0.511810
       4469.50        76.4687         1.9510         2.2356       0.502050
       4470.00        78.6517         1.9687         2.2445       0.492290
       4470.50        78.0939         1.9865         2.2534       0.482530
       4471.00        77.5361         2.0043         2.2601       0.509950
       4471.50        76.9783         2.0289         2.2668       0.537370
       4472.00        76.4205         2.0534         2.2734       0.564790
       4472.50        76.4205         2.0780         2.2801       0.592210
       4473.00        76.4205         2.0971         2.2618       0.551930
       4473.50        76.4205         2.1162         2.2434       0.511660
       4474.00        76.4205         2.1353         2.2251       0.471390
       4474.50        76.4205         2.1544         2.2067       0.473480
