~Version Information Block
VERS .                  2.0:  CWLS LOG ASCII STANDARD - VERSION 2.0
WRAP .                   NO:  One line per depth step
~Well Information Block
#MNEM.UNIT        Data Type   Information
#---------- ----------------  -----------
STRT .FT            3940.00:  START DEPTH
STOP .FT            7698.50:  STOP DEPTH
STEP .FT               0.50:  STEP
NULL .              -999.25:  NULL VALUE
COMP .                     :  COMPANY
WELL .              K-10RD2:  WELL
FLD  .                     :  FIELD
LOC  .                     :  LOCATION
CTRY .                     :  COUNTRY
STAT .                     :  STATE
CNTY .                     :  COUNTY
SRVC .                     :  SERVICE COMPANY
DATE .                     :  DATE
API  .                     :  API NUMBER
UWI  .                     :  UNIQUE WELL ID
~Curve Information Block
#MNEM.UNIT         API CODE   Curve Description
#---------- ----------------  -----------------
DEPTH.FT                   :  Depth Index
GR   .GAPI                 :  Gamma Ray
RT   .OHMM                 :  True Resistivity
RHOB .G/C3                 :  Bulk Density
NPHI .V/V                  :  Neutron Porosity
~Parameter Information Block
#MNEM.UNIT            Value   Description
#---------- ----------------  -----------
PROJECT.       KERINDINGAN_FE:  
~Other Information Block
# 
~A       DEPTH             GR             RT           RHOB           NPHI 
# ...
       5438.00        55.8748         2.3592         2.1556       0.326480
       5438.50        57.8331         2.3173         2.1534       0.348560
       5439.00        59.7913         2.2755         2.2101       0.347350
       5439.50        61.7496         2.2337         2.2668       0.346130
       5440.00        63.7079         2.0673         2.3234       0.344910
       5440.50        64.2175         1.9010         2.3801       0.343700
       5441.00        64.7271         1.7347         2.3579       0.374270
       5441.50        65.2368         1.6502         2.3356       0.404850
       5442.00        65.7464         1.5657         2.3134       0.435430
       5442.50        69.3044         1.4812         2.3234       0.451290
       5443.00        72.8625         1.3967         2.3334       0.467160
       5443.50        76.4205         1.3341         2.3434       0.483030
       5444.00        76.4205         1.2714         2.3534       0.498890
       5444.50        76.4205         1.2088         2.3401       0.497000
       5445.00        76.4205         1.2314         2.3268       0.495110
       5445.50        76.4205         1.2541         2.3134       0.493220
       5446.00        74.9652         1.2767         2.3218       0.495180
       5446.50        73.5099         1.2994         2.3301       0.497140
       5447.00        72.0546         1.4042         2.3384       0.499100
       5447.50        68.9727         1.5090         2.3468       0.501060
       5448.00        65.8908         1.6138         2.3601       0.464400
       5448.50        62.8090         1.6138         2.3734       0.427740
       5449.00        59.7271         1.6138         2.3868       0.391080
       5449.50        61.2319         1.6138         2.3818       0.398870
       5450.00        62.7368         1.6138         2.3768       0.406650
       5450.50        64.2416         1.5249         2.3718       0.414430
       5451.00        65.7464         1.4360         2.3668       0.422220
       5451.50        67.1375         1.3471         2.3734       0.432310
       5452.00        68.5286         1.4286         2.3801       0.442400
       5452.50        69.9197         1.5101         2.3868       0.452490
       5453.00        67.3716         1.5916         2.3934       0.462580
       5453.50        64.8234         1.6731         2.3490       0.426240
       5454.00        62.2753         2.0742         2.3045       0.389900
       5454.50        59.7271         2.4752         2.2601       0.353560
       5455.00        53.7346         2.8762         2.2468       0.348690
       5455.50        47.7421         3.1171         2.2334       0.343830
       5456.00        41.7496         3.3580         2.2201       0.338970
       5456.50        40.1766         3.5989         2.2067       0.334110
       5457.00        38.6035         3.8398         2.2090       0.330910
       5457.50        37.0305         3.5989         2.2112       0.327720
       5458.00        35.4575         3.3580         2.2134       0.324520
       5458.50        38.1059         3.1171         2.2334       0.325120
       5459.00        40.7544         2.8762         2.2534       0.325720
       5459.50        43.4029         2.8094         2.2734       0.326320
       5460.00        44.2536         2.7426         2.2934       0.326920
       5460.50        45.1043         2.6758         2.3184       0.337460
       5461.00        45.9551         2.5858         2.3434       0.347990
       5461.50        46.8058         2.4958         2.3684       0.358530
       5462.00        50.4655         2.4058         2.3934       0.361010
       5462.50        54.1252         2.3158         2.3645       0.363490
       5463.00        57.7849         2.2366         2.3356       0.365980
       5463.50        58.7640         2.1573         2.3068       0.368460
       5464.00        59.7432         2.0780         2.3201       0.359890
       5464.50        60.7223         2.1169         2.3334       0.351310
       5465.00        61.7014         2.1558         2.3468       0.342730
       5465.50        60.3959         2.1948         2.3601       0.334160
       5466.00        59.0904         2.2337         2.3334       0.334160
       5466.50        57.7849         2.2976         2.3068       0.334160
       5467.00        54.4001         2.3615         2.2801       0.334170
       5467.50        51.0153         2.4254         2.2768       0.329400
       5468.00        47.6304         2.4893         2.2734       0.324630
       5468.50        44.2456         2.4893         2.2701       0.319850
       5469.00        43.9647         2.4893         2.2668       0.315080
       5469.50        43.6838         2.4893         2.2890       0.333720
       5470.00        43.4029         2.4672         2.3112       0.352360
       5470.50        44.2536         2.4451         2.3334       0.371000
       5471.00        45.1043         2.4231         2.3468       0.356440
       5471.50        45.9551         2.4010         2.3601       0.341870
       5472.00        46.8058         2.3188         2.3734       0.327310
       5472.50        49.8288         2.2366         2.3868       0.312740
       5473.00        52.8518         2.1544         2.4134       0.312750
       5473.50        55.8748         2.0654         2.4401       0.312750
       5474.00        59.7913         1.9764         2.4668       0.312750
       5474.50        63.7079         1.8875         2.4568       0.324830
       5475.00        63.7239         1.7985         2.4468       0.336920
       5475.50        65.7705         1.7347         2.4368       0.349000
       5476.00        67.8170         1.7039         2.4268       0.361080
       5476.50        69.9518         1.6731         2.3934       0.361910
       5477.00        72.0867         1.6533         2.3601       0.362740
       5477.50        74.2215         1.6336         2.3268       0.363570
       5478.00        72.6244         1.6138         2.3368       0.375660
       5478.50        71.0273         1.6138         2.3468       0.387740
       5479.00        69.4302         1.6138         2.3568       0.399830
       5479.50        67.8331         1.6138         2.3668       0.411910
       5480.00        67.8170         1.6138         2.3784       0.417170
       5480.50        74.2215         1.7392         2.3901       0.422430
       5481.00        71.0915         1.8646         2.4018       0.427690
       5481.50        67.9615         1.9880         2.4134       0.394300
       5482.00        64.8315         2.1113         2.3845       0.360900
       5482.50        61.7014         2.2346         2.3556       0.327500
       5483.00        63.0498         2.1824         2.3268       0.294100
       5483.50        64.3981         2.1302         2.3518       0.310240
       5484.00        65.7464         2.0780         2.3768       0.326380
       5484.50        65.7464         2.0971         2.4018       0.342530
       5485.00        65.7464         2.1162         2.4268       0.358670
       5485.50        65.7464         2.1353         2.3956       0.358880
       5486.00        65.7464         2.1544         2.3645       0.359080
       5486.50        65.7464         2.0780         2.3334       0.359290
       5487.00        65.7464         2.0780         2.3451       0.359300
       5487.50        65.7464         2.0780         2.3568       0.362880
       5488.00        65.7464         2.0780         2.3684       0.366460
       5488.50        68.5714         2.0780         2.3801       0.370040
       5489.00        71.3965         2.0081         2.3851       0.373620
       5489.50        74.2215         1.9382         2.3901       0.381910
       5490.00        74.2215         1.8684         2.3951       0.390200
       5490.50        74.2215         1.7985         2.4001       0.398490
       5491.00        74.2215         1.8205         2.4001       0.406780
