~Version Information Block
VERS .                  2.0:  CWLS LOG ASCII STANDARD - VERSION 2.0
WRAP .                   NO:  One line per depth step
~Well Information Block
#MNEM.UNIT        Data Type   Information
#---------- ----------------  -----------
STRT .FT            3940.00:  START DEPTH
STOP .FT            7698.50:  STOP DEPTH
STEP .FT               0.50:  STEP
NULL .              -999.25:  NULL VALUE
COMP .                     :  COMPANY
WELL .              K-10RD2:  WELL
FLD  .                     :  FIELD
LOC  .                     :  LOCATION
CTRY .                     :  COUNTRY
STAT .                     :  STATE
CNTY .                     :  COUNTY
SRVC .                     :  SERVICE COMPANY
DATE .                     :  DATE
API  .                     :  API NUMBER
UWI  .                     :  UNIQUE WELL ID
~Curve Information Block
#MNEM.UNIT         API CODE   Curve Description
#---------- ----------------  -----------------
DEPTH.FT                   :  Depth Index
GR   .GAPI                 :  Gamma Ray
RT   .OHMM                 :  True Resistivity
RHOB .G/C3                 :  Bulk Density
NPHI .V/V                  :  Neutron Porosity
~Parameter Information Block
#MNEM.UNIT            Value   Description
#---------- ----------------  -----------
PROJECT.       KERINDINGAN_FE:  
~Other Information Block
# 
~A       DEPTH             GR             RT           RHOB           NPHI 
# ...
       6882.50        73.1701         1.0654         2.4268       0.394480
       6883.00        69.9197         1.2311         2.4401       0.394480
       6883.50        64.8234         1.3967         2.4534       0.394490
       6884.00        59.7271         1.3060         2.4401       0.400270
       6884.50        64.5586         1.2153         2.4268       0.376270
       6885.00        69.3901         1.1245         2.4245       0.352270
       6885.50        74.2215         1.1889         2.4223       0.328270
       6886.00        67.9615         1.2533         2.4201       0.350060
       6886.50        61.7014         1.4049         2.4101       0.372350
       6887.00        60.7143         1.5565         2.4034       0.335990
       6887.50        59.7271         1.5381         2.4034       0.299640
       6888.00        53.2664         1.5197         2.3823       0.263290
       6888.50        46.8058         1.5013         2.3612       0.267260
       6889.00        46.8058         1.4003         2.3401       0.271230
       6889.50        46.8058         1.2994         2.3023       0.275210
       6890.00        46.8058         1.2326         2.2645       0.279180
       6890.50        44.5800         1.1659         2.2267       0.282610
       6891.00        42.3542         1.1388         2.1834       0.286060
       6891.50        40.1284         1.1118         2.1401       0.283010
       6892.00        39.5987         1.0847         2.1567       0.279960
       6892.50        39.0690         1.1253         2.1734       0.276910
       6893.00        38.5393         1.1659         2.1901       0.286930
       6893.50        40.1445         1.1253         2.2067       0.296960
       6894.00        41.7496         1.0847         2.2968       0.306980
       6894.50        40.1766         1.1253         2.3868       0.304650
       6895.00        38.6035         1.1659         2.3379       0.302310
       6895.50        37.0305         1.1521         2.2890       0.299980
       6896.00        35.4575         1.1383         2.2401       0.302310
       6896.50        47.5923         1.1245         2.3023       0.304650
       6897.00        59.7271         1.1245         2.3645       0.335690
       6897.50        65.2916         1.1245         2.4268       0.366740
       6898.00        70.8561         1.1245         2.3912       0.397780
       6898.50        76.4205         1.0626         2.3556       0.424550
       6899.00        81.0433         1.0007         2.3201       0.451320
       6899.50        85.6661         0.9388         2.3379       0.478090
       6900.00        90.2889         0.8967         2.3556       0.457380
       6900.50        93.5848         0.8546         2.3734       0.436670
       6901.00        96.8807         0.8125         2.3245       0.415950
       6901.50       100.1766         1.0243         2.2756       0.436670
       6902.00       110.1231         1.2362         2.2267       0.457390
       6902.50       120.0696         1.4481         2.0701       0.478110
       6903.00       130.0161         1.5023         1.9134       0.518390
       6903.50       138.0631         1.5565         1.9534       0.558660
       6904.00       146.1102         1.5204         1.9934       0.598940
       6904.50       154.1573         1.4842         2.0334       0.591020
       6905.00       140.6501         1.4481         2.0423       0.583100
       6905.50       127.1428         1.3985         2.0512       0.575170
       6906.00       116.4847         1.3489         2.0601       0.556050
       6906.50       105.8266         1.2994         2.1379       0.536930
       6907.00        95.1685         1.3318         2.2156       0.517810
       6907.50        89.6629         1.3642         2.2934       0.532100
       6908.00        84.1573         1.3967         2.3645       0.546730
       6908.50        78.6517         1.3802         2.4357       0.462180
       6909.00        76.4527         1.3636         2.5068       0.377640
       6909.50        74.2536         1.3471         2.4757       0.293090
       6910.00        72.0546         1.3808         2.4445       0.290020
       6910.50        72.0546         1.4144         2.4134       0.286940
       6911.00        72.0546         1.4481         2.4234       0.283870
       6911.50        72.0546         1.4481         2.4334       0.300060
       6912.00        70.6421         1.4481         2.4468       0.316510
       6912.50        69.2295         1.4842         2.4601       0.306400
       6913.00        67.8170         1.5204         2.4734       0.296290
       6913.50        62.8010         1.5565         2.4223       0.286190
       6914.00        57.7849         1.5756         2.3712       0.289270
       6914.50        59.7592         1.5947         2.3201       0.292350
       6915.00        61.7335         1.6138         2.3290       0.295430
       6915.50        63.7079         1.6336         2.3379       0.294660
       6916.00        62.3810         1.6533         2.3468       0.293890
       6916.50        61.0540         1.6731         2.3601       0.293120
       6917.00        59.7271         1.6731         2.3734       0.302430
       6917.50        57.8170         1.6731         2.3645       0.311820
       6918.00        55.9069         1.6731         2.3556       0.310250
       6918.50        53.9968         1.5485         2.3468       0.308690
       6919.00        49.9144         1.4239         2.3156       0.307120
       6919.50        45.8320         1.2994         2.2845       0.300160
       6920.00        41.7496         1.1920         2.2534       0.293190
       6920.50        34.3874         1.0847         2.1967       0.286220
       6921.00        27.0252         1.0595         2.1401       0.289310
       6921.50        19.6629         1.0343         2.1179       0.292390
       6922.00        16.5811         1.0091         2.0956       0.295470
       6922.50        13.4992         0.9638         2.0734       0.294700
       6923.00        12.3435         0.9186         2.0645       0.293930
       6923.50        11.1878         0.8733         2.0556       0.293160
       6924.00        10.0321         0.8630         2.0467       0.307150
       6924.50         9.7699         0.8527         2.0467       0.321330
       6925.00         9.5078         0.8424         2.0467       0.319750
       6925.50         9.2456         0.8424         2.0467       0.318170
       6926.00         8.5233         0.8424         2.0601       0.316590
       6926.50         7.8010         0.8424         2.0734       0.304950
       6927.00         7.0786         0.8324         2.0868       0.293310
       6927.50         6.4205         0.8224         2.0734       0.281670
       6928.00         7.3622         0.8125         2.0601       0.283210
       6928.50         8.3039         0.8125         2.0467       0.284740
       6929.00         9.2456         0.8125         2.0579       0.286270
       6929.50        10.9149         0.8224         2.0690       0.289350
       6930.00        12.5843         0.8324         2.0801       0.292440
       6930.50        13.2049         0.8424         2.0834       0.295520
       6931.00        13.8256         0.8527         2.0868       0.281860
       6931.50        14.4462         0.8630         2.0890       0.268210
       6932.00        14.7726         0.8733         2.0912       0.254550
       6932.50        15.0990         0.9066         2.0934       0.257540
       6933.00        15.4254         0.9400         2.0845       0.260540
       6933.50        14.7833         0.9733         2.0756       0.263530
       6934.00        14.1412         0.9560         2.0668       0.273870
       6934.50        13.4992         0.9388         2.0890       0.284200
       6935.00        14.1412         0.9388         2.1112       0.294540
       6935.50        14.7833         0.9388         2.1334       0.304870
