~Version Information Block
VERS .                  2.0:  CWLS LOG ASCII STANDARD - VERSION 2.0
WRAP .                   NO:  One line per depth step
~Well Information Block
#MNEM.UNIT        Data Type   Information
#---------- ----------------  -----------
STRT .FT               0.00:  START DEPTH
STOP .FT            9112.00:  STOP DEPTH
STEP .FT               0.50:  STEP
NULL .              -999.25:  NULL VALUE
COMP .                     :  COMPANY
WELL .              SJ-4RD1:  WELL
FLD  .                     :  FIELD
LOC  .                     :  LOCATION
CTRY .                     :  COUNTRY
STAT .                     :  STATE
CNTY .                     :  COUNTY
SRVC .                     :  SERVICE COMPANY
DATE .                     :  DATE
API  .                     :  API NUMBER
UWI  .                     :  UNIQUE WELL ID
~Curve Information Block
#MNEM.UNIT         API CODE   Curve Description
#---------- ----------------  -----------------
DEPTH.FT                   :  
TVDSS.FT                   :  Reference TVD sub-sea log.
GR   .GAPI                 :  Gamma Ray
RT   .OHMM                 :  True Resistivity
RXO  .OHMM                 :  Flushed Zone Resistivity
NPHI .V/V                  :  Neutron Porosity
RHOB .G/C3                 :  Bulk Density
VCALCITE.V/V                  :  Calcite Volume Fraction
VQUARTZ.V/V                  :  Quartz Volume Fraction
VSH  .V/V                  :  Wet Cl/Sh 1 Volume Fraction
VCOAL.V/V                  :  Coal Volume Fraction
VORGSH.V/V                  :  Organic Shale Volume Fraction
VGAS .V/V                  :  X Gas Volume Fraction
VOIL .V/V                  :  X Oil Volume Fraction
VWATER.V/V                  :  X Water Volume Fraction
PHIT .V/V                  :  Total Porosity
PHIE .V/V                  :  Mahakam burial and vsh limited porosity
SWE  .V/V                  :  Effective Water Saturation
PERM .MD                   :  Permeability
~Parameter Information Block
#MNEM.UNIT            Value   Description
#---------- ----------------  -----------
PROJECT.            SEJADI_FE:  
~Other Information Block
# 
~A       DEPTH          TVDSS             GR             RT            RXO           NPHI           RHOB       VCALCITE        VQUARTZ            VSH          VCOAL         VORGSH           VGAS           VOIL         VWATER           PHIT           PHIE            SWE           PERM 
# ...
       6623.50      5124.4621        70.5127         2.1367         2.4347         0.2913         2.4308       0.000000       0.305165         0.6199       0.000000         0.0000      0.0000000      0.0064844       0.068425       0.074909       0.074909         0.9134         0.0061
       6624.00      5124.7874        68.3809         2.8867         2.8238         0.2883         2.4242       0.000000       0.326210         0.5940       0.000000         0.0000      0.0000000      0.0165245       0.063271       0.079795       0.079795         0.7929         0.0090
       6624.50      5125.1127        67.0691         2.8965         2.9173         0.2839         2.4264       0.000000       0.342463         0.5773       0.000000         0.0000      0.0000000      0.0157209       0.064504       0.080225       0.080225         0.8040         0.0093
       6625.00      5125.4380        66.7411         2.8965         2.9173         0.2744         2.4393       0.000000       0.355895         0.5705       0.000000         0.0000      0.0000000      0.0125651       0.060995       0.073560       0.073560         0.8292         0.0054
       6625.50      5125.7632        64.2814         2.6649         2.7613         0.2846         2.4671       0.000000       0.393784         0.5438       0.000000         0.0000      0.0000000      0.0043595       0.058050       0.062409       0.062409         0.9301         0.0019
       6626.00      5126.0885        60.3458         2.6418         2.7314         0.2975         2.4931       0.000000       0.441610         0.5040       0.000000         0.0000      0.0000000      0.0000000       0.054385       0.054385       0.054385         1.0000         0.0008
       6626.50      5126.4138        56.4102         2.9202         2.9066         0.2865         2.4889       0.000000       0.485858         0.4531       0.000000         0.0000      0.0000000      0.0000000       0.061061       0.061061       0.061061         1.0000         0.0017
       6627.00      5126.7390        53.4585         3.0385         3.0003         0.2690         2.4931       0.000000       0.518284         0.4188       0.000000         0.0000      0.0000000      0.0000000       0.062882       0.062882       0.062882         1.0000         0.0020
       6627.50      5127.0643        52.1466         2.9860         3.0207         0.2626         2.4961       0.999990       0.000000         0.0000       0.000000         0.0000      0.0000000      0.0000000       0.000010       0.000010       0.000010         1.0000         0.0000
       6628.00      5127.3895        50.8347         3.0405         3.0632         0.2553         2.5078       0.999990       0.000000         0.0000       0.000000         0.0000      0.0000000      0.0000000       0.000010       0.000010       0.000010         1.0000         0.0000
       6628.50      5127.7148        49.5229         3.3132         3.1699         0.2495         2.5060       0.999990       0.000000         0.0000       0.000000         0.0000      0.0000000      0.0000000       0.000010       0.000010       0.000010         1.0000         0.0000
       6629.00      5128.0401        48.8670         3.3951         3.3311         0.2307         2.5098       0.999990       0.000000         0.0000       0.000000         0.0000      0.0000000      0.0000000       0.000010       0.000010       0.000010         1.0000         0.0000
       6629.50      5128.3653        47.5551         3.6736         3.6096         0.2146         2.5316       0.999990       0.000000         0.0000       0.000000         0.0000      0.0000000      0.0000000       0.000010       0.000010       0.000010         1.0000         0.0000
       6630.00      5128.6906        47.2271         3.9320         3.9150         0.1928         2.5553       0.999990       0.000000         0.0000       0.000000         0.0000      0.0000000      0.0000000       0.000010       0.000010       0.000010         1.0000         0.0000
       6630.50      5129.0158        48.2110         4.2949         4.3865         0.1833         2.5465       0.999990       0.000000         0.0000       0.000000         0.0000      0.0000000      0.0000000       0.000010       0.000010       0.000010         1.0000         0.0000
       6631.00      5129.3411        46.8992         4.4781         4.7704         0.1763         2.5338       0.999990       0.000000         0.0000       0.000000         0.0000      0.0000000      0.0000000       0.000010       0.000010       0.000010         1.0000         0.0000
       6631.50      5129.6663        44.2754         4.5898         4.8445         0.1726         2.5192       0.999990       0.000000         0.0000       0.000000         0.0000      0.0000000      0.0000000       0.000010       0.000010       0.000010         1.0000         0.0000
       6632.00      5129.9915        42.9636         4.5721         4.8445         0.1686         2.5527       0.999990       0.000000         0.0000       0.000000         0.0000      0.0000000      0.0000000       0.000010       0.000010       0.000010         1.0000         0.0000
       6632.50      5130.3168        42.9636         4.4762         4.8348         0.1657         2.5601       0.999990       0.000000         0.0000       0.000000         0.0000      0.0000000      0.0000000       0.000010       0.000010       0.000010         1.0000         0.0000
       6633.00      5130.6420        44.9314         4.3256         4.5829         0.1707         2.5741       0.999990       0.000000         0.0000       0.000000         0.0000      0.0000000      0.0000000       0.000010       0.000010       0.000010         1.0000         0.0000
       6633.50      5130.9672        47.8830         4.2035         4.3366         0.1740         2.5636       0.999990       0.000000         0.0000       0.000000         0.0000      0.0000000      0.0000000       0.000010       0.000010       0.000010         1.0000         0.0000
       6634.00      5131.2925        50.1788         3.9751         3.9892         0.1915         2.5586       0.999990       0.000000         0.0000       0.000000         0.0000      0.0000000      0.0000000       0.000010       0.000010       0.000010         1.0000         0.0000
       6634.50      5131.6177        52.4746         3.5980         3.6082         0.2053         2.5331       0.000000       0.559230         0.3989       0.000000         0.0000      0.0000000      0.0000000       0.041860       0.041860       0.041860         1.0000         0.0002
       6635.00      5131.9429        55.0983         3.5980         3.6082         0.2315         2.5080       0.000000       0.528849         0.4208       0.000000         0.0000      0.0000000      0.0000000       0.050321       0.050321       0.050321         1.0000         0.0005
       6635.50      5132.2681        57.7220         3.3508         3.2758         0.2465         2.4952       0.000000       0.490550         0.4553       0.000000         0.0000      0.0000000      0.0017534       0.052444       0.054198       0.054198         0.9676         0.0008
       6636.00      5132.5934        60.3458         2.9016         2.8650         0.2650         2.4905       0.000000       0.454429         0.4914       0.000000         0.0000      0.0000000      0.0006976       0.053477       0.054174       0.054174         0.9871         0.0008
       6636.50      5132.9186        62.6415         2.7138         2.6769         0.2792         2.4995       0.000000       0.429141         0.5238       0.000000         0.0000      0.0000000      0.0000000       0.047021       0.047021       0.047021         1.0000         0.0003
       6637.00      5133.2438        64.2814         2.5866         2.5737         0.2900         2.5103       0.000000       0.409829         0.5500       0.000000         0.0000      0.0000000      0.0000000       0.040132       0.040132       0.040132         1.0000         0.0001
       6637.50      5133.5690        62.9695         2.5493         2.5885         0.2849         2.5346       0.999990       0.000000         0.0000       0.000000         0.0000      0.0000000      0.0000000       0.000010       0.000010       0.000010         1.0000         0.0000
