~Version Information Block
VERS .                  2.0:  CWLS LOG ASCII STANDARD - VERSION 2.0
WRAP .                   NO:  One line per depth step
~Well Information Block
#MNEM.UNIT        Data Type   Information
#---------- ----------------  -----------
STRT .FT               0.00:  START DEPTH
STOP .FT            9112.00:  STOP DEPTH
STEP .FT               0.50:  STEP
NULL .              -999.25:  NULL VALUE
COMP .                     :  COMPANY
WELL .              SJ-4RD1:  WELL
FLD  .                     :  FIELD
LOC  .                     :  LOCATION
CTRY .                     :  COUNTRY
STAT .                     :  STATE
CNTY .                     :  COUNTY
SRVC .                     :  SERVICE COMPANY
DATE .                     :  DATE
API  .                     :  API NUMBER
UWI  .                     :  UNIQUE WELL ID
~Curve Information Block
#MNEM.UNIT         API CODE   Curve Description
#---------- ----------------  -----------------
DEPTH.FT                   :  
TVDSS.FT                   :  Reference TVD sub-sea log.
GR   .GAPI                 :  Gamma Ray
RT   .OHMM                 :  True Resistivity
RXO  .OHMM                 :  Flushed Zone Resistivity
NPHI .V/V                  :  Neutron Porosity
RHOB .G/C3                 :  Bulk Density
VCALCITE.V/V                  :  Calcite Volume Fraction
VQUARTZ.V/V                  :  Quartz Volume Fraction
VSH  .V/V                  :  Wet Cl/Sh 1 Volume Fraction
VCOAL.V/V                  :  Coal Volume Fraction
VORGSH.V/V                  :  Organic Shale Volume Fraction
VGAS .V/V                  :  X Gas Volume Fraction
VOIL .V/V                  :  X Oil Volume Fraction
VWATER.V/V                  :  X Water Volume Fraction
PHIT .V/V                  :  Total Porosity
PHIE .V/V                  :  Mahakam burial and vsh limited porosity
SWE  .V/V                  :  Effective Water Saturation
PERM .MD                   :  Permeability
~Parameter Information Block
#MNEM.UNIT            Value   Description
#---------- ----------------  -----------
PROJECT.            SEJADI_FE:  
~Other Information Block
# 
~A       DEPTH          TVDSS             GR             RT            RXO           NPHI           RHOB       VCALCITE        VQUARTZ            VSH          VCOAL         VORGSH           VGAS           VOIL         VWATER           PHIT           PHIE            SWE           PERM 
# ...
       7102.00      5445.2603        40.3398         3.6615         3.2822         0.1812         2.4396       0.000000       0.633641         0.2618       0.000000         0.0000      0.0000000      0.0000000       0.104581       0.104581       0.104581         1.0000         0.0496
       7102.50      5445.6273        38.7000         4.0673         3.7913         0.1787         2.4420       0.000000       0.662211         0.2317       0.000000         0.0000      0.0000000      0.0005311       0.105526       0.106057       0.106057         0.9950         0.0541
       7103.00      5445.9943        35.4203         4.4856         4.1623         0.1705         2.4628       0.000000       0.707604         0.1917       0.000000         0.0000      0.0000000      0.0000000       0.100710       0.100710       0.100710         1.0000         0.0391
       7103.50      5446.3613        34.1085         4.9157         4.2479         0.1591         2.4831       0.000000       0.732057         0.1760       0.000000         0.0000      0.0000000      0.0000000       0.091920       0.091920       0.091920         1.0000         0.0220
       7104.00      5446.7285        32.7966         4.6115         4.1623         0.1514         2.5174       0.000000       0.736333         0.1876       0.000000         0.0000      0.0000000      0.0000000       0.076041       0.076041       0.076041         1.0000         0.0067
       7104.50      5447.0957        34.1085         4.1814         4.2019         0.1448         2.5270       0.000000       0.712391         0.2189       0.000000         0.0000      0.0000000      0.0000000       0.068694       0.068694       0.068694         1.0000         0.0035
       7105.00      5447.4630        32.7966         3.6613         3.9962         0.1424         2.4914       0.000000       0.713722         0.1956       0.000000         0.0000      0.0000000      0.0000000       0.090709       0.090709       0.090709         1.0000         0.0202
       7105.50      5447.8303        30.8288         3.3963         3.7929         0.1369         2.4695       0.000000       0.727664         0.1658       0.000000         0.0000      0.0000000      0.0000000       0.106546       0.106546       0.106546         1.0000         0.0557
       7106.00      5448.1977        30.5008         3.6040         3.8157         0.1388         2.4658       0.000000       0.738828         0.1521       0.000000         0.0000      0.0000000      0.0000000       0.109048       0.109048       0.109048         1.0000         0.0645
       7106.50      5448.5652        31.4847         3.5834         4.0509         0.1390         2.5040       0.000000       0.723714         0.1898       0.000000         0.0000      0.0000000      0.0000000       0.086479       0.086479       0.086479         1.0000         0.0150
       7107.00      5448.9327        32.7966         4.1612         4.6229         0.1408         2.4863       0.000000       0.730791         0.1761       0.000000         0.0000      0.0000000      0.0000000       0.093134       0.093134       0.093134         1.0000         0.0239
       7107.50      5449.3004        33.9445         3.9060         4.6818         0.1410         2.4562       0.000000       0.714719         0.1778       0.000000         0.0000      0.0000000      0.0000000       0.107476       0.107476       0.107476         1.0000         0.0589
       7108.00      5449.6680        35.0924         3.2133         3.7659         0.1434         2.4357       0.000000       0.679172         0.2039       0.000000         0.0000      0.0000000      0.0000000       0.116975       0.116975       0.116975         1.0000         0.1003
       7108.50      5450.0358        34.9284         3.1880         3.9754         0.1523         2.4529       0.000000       0.675414         0.2167       0.000000         0.0000      0.0000000      0.0000000       0.107927       0.107927       0.107927         1.0000         0.0604
       7109.00      5450.4036        33.4525         3.5416         4.2713         0.1534         2.4791       0.999990       0.000000         0.0000       0.000000         0.0000      0.0000000      0.0000000       0.000010       0.000010       0.000010         1.0000         0.0000
       7109.50      5450.7715        33.7805         4.1052         4.5898         0.1501         2.5402       0.999990       0.000000         0.0000       0.000000         0.0000      0.0000000      0.0000000       0.000010       0.000010       0.000010         1.0000         0.0000
       7110.00      5451.1395        35.0924         4.3580         4.7164         0.1418         2.5872       0.999990       0.000000         0.0000       0.000000         0.0000      0.0000000      0.0000000       0.000010       0.000010       0.000010         1.0000         0.0000
       7110.50      5451.5075        36.4042         4.7827         5.1683         0.1393         2.5767       0.999990       0.000000         0.0000       0.000000         0.0000      0.0000000      0.0000000       0.000010       0.000010       0.000010         1.0000         0.0000
       7111.00      5451.8756        39.3559         4.7245         5.3559         0.1430         2.5778       0.999990       0.000000         0.0000       0.000000         0.0000      0.0000000      0.0000000       0.000010       0.000010       0.000010         1.0000         0.0000
       7111.50      5452.2438        42.9636         4.7514         5.1944         0.1515         2.5903       0.999990       0.000000         0.0000       0.000000         0.0000      0.0000000      0.0000000       0.000010       0.000010       0.000010         1.0000         0.0000
       7112.00      5452.6120        45.5873         4.2051         4.7739         0.1570         2.6045       0.000000       0.585798         0.4058       0.000000         0.0000      0.0000000      0.0000000       0.008385       0.008385       0.008385         1.0000         0.0000
       7112.50      5452.9803        46.5712         3.7250         4.7280         0.1611         2.5249       0.000000       0.568277         0.3851       0.000000         0.0000      0.0000000      0.0000000       0.046594       0.046594       0.046594         1.0000         0.0003
       7113.00      5453.3487        45.9153         3.4060         4.2576         0.1681         2.4524       0.000000       0.563300         0.3497       0.000000         0.0000      0.0000000      0.0022404       0.084714       0.086955       0.086955         0.9742         0.0155
       7113.50      5453.7171        43.9475         3.1543         3.3958         0.1802         2.3838       0.000000       0.547039         0.3305       0.000000         0.0000      0.0129177      0.0000849       0.109431       0.122433       0.122433         0.8938         0.1336
       7114.00      5454.0856        41.9797         3.1361         3.1571         0.1917         2.3923       0.000000       0.575941         0.2972       0.000000         0.0000      0.0000000      0.0096326       0.117239       0.126871       0.126871         0.9241         0.1671
       7114.50      5454.4542        41.1597         2.6988         2.8992         0.1937         2.4180       0.000000       0.582211         0.3021       0.000000         0.0000      0.0000000      0.0000000       0.115734       0.115734       0.115734         1.0000         0.0938
       7115.00      5454.8228        40.0119         2.6140         2.8017         0.1892         2.4723       0.000000       0.584839         0.3266       0.000000         0.0000      0.0000000      0.0000000       0.088605       0.088605       0.088605         1.0000         0.0175
       7115.50      5455.1916        38.8640         2.9709         3.1232         0.1858         2.4804       0.000000       0.614742         0.2994       0.000000         0.0000      0.0000000      0.0000000       0.085886       0.085886       0.085886         1.0000         0.0144
       7116.00      5455.5603        39.0280         3.2935         3.1340         0.1727         2.4724       0.000000       0.631657         0.2788       0.000000         0.0000      0.0000000      0.0000000       0.089517       0.089517       0.089517         1.0000         0.0186
