~Version Information Block
VERS .                  2.0:  CWLS LOG ASCII STANDARD - VERSION 2.0
WRAP .                   NO:  One line per depth step
~Well Information Block
#MNEM.UNIT        Data Type   Information
#---------- ----------------  -----------
STRT .FT               0.00:  START DEPTH
STOP .FT            9112.00:  STOP DEPTH
STEP .FT               0.50:  STEP
NULL .              -999.25:  NULL VALUE
COMP .                     :  COMPANY
WELL .              SJ-4RD1:  WELL
FLD  .                     :  FIELD
LOC  .                     :  LOCATION
CTRY .                     :  COUNTRY
STAT .                     :  STATE
CNTY .                     :  COUNTY
SRVC .                     :  SERVICE COMPANY
DATE .                     :  DATE
API  .                     :  API NUMBER
UWI  .                     :  UNIQUE WELL ID
~Curve Information Block
#MNEM.UNIT         API CODE   Curve Description
#---------- ----------------  -----------------
DEPTH.FT                   :  
TVDSS.FT                   :  Reference TVD sub-sea log.
GR   .GAPI                 :  Gamma Ray
RT   .OHMM                 :  True Resistivity
RXO  .OHMM                 :  Flushed Zone Resistivity
NPHI .V/V                  :  Neutron Porosity
RHOB .G/C3                 :  Bulk Density
VCALCITE.V/V                  :  Calcite Volume Fraction
VQUARTZ.V/V                  :  Quartz Volume Fraction
VSH  .V/V                  :  Wet Cl/Sh 1 Volume Fraction
VCOAL.V/V                  :  Coal Volume Fraction
VORGSH.V/V                  :  Organic Shale Volume Fraction
VGAS .V/V                  :  X Gas Volume Fraction
VOIL .V/V                  :  X Oil Volume Fraction
VWATER.V/V                  :  X Water Volume Fraction
PHIT .V/V                  :  Total Porosity
PHIE .V/V                  :  Mahakam burial and vsh limited porosity
SWE  .V/V                  :  Effective Water Saturation
PERM .MD                   :  Permeability
~Parameter Information Block
#MNEM.UNIT            Value   Description
#---------- ----------------  -----------
PROJECT.            SEJADI_FE:  
~Other Information Block
# 
~A       DEPTH          TVDSS             GR             RT            RXO           NPHI           RHOB       VCALCITE        VQUARTZ            VSH          VCOAL         VORGSH           VGAS           VOIL         VWATER           PHIT           PHIE            SWE           PERM 
# ...
       4608.00      3816.3372       117.4904         1.9411         1.8613         0.4355         2.3126       0.000000       0.000000         1.0000       0.000000         0.0000      0.0000000      0.0000000       0.000000       0.000000       0.000000         1.0000         0.0000
       4608.50      3816.6600       119.4594         1.9572         1.8530         0.4456         2.3113       0.000000       0.000000         1.0000       0.000000         0.0000      0.0000000      0.0000000       0.000000       0.000000       0.000000         1.0000         0.0000
       4609.00      3816.9829       117.7730         1.8767         1.8140         0.4240         2.3196       0.000000       0.000000         1.0000       0.000000         0.0000      0.0000000      0.0000000       0.000000       0.000000       0.000000         1.0000         0.0000
       4609.50      3817.3058       121.9154         1.8131         1.7602         0.4437         2.3301       0.000000       0.000000         1.0000       0.000000         0.0000      0.0000000      0.0000000       0.000000       0.000000       0.000000         1.0000         0.0000
       4610.00      3817.6286       123.5122         1.8325         1.7381         0.4402         2.3239       0.000000       0.000000         1.0000       0.000000         0.0000      0.0000000      0.0000000       0.000000       0.000000       0.000000         1.0000         0.0000
       4610.50      3817.9515       122.1236         1.8516         1.7629         0.4287         2.3120       0.000000       0.000000         1.0000       0.000000         0.0000      0.0000000      0.0000000       0.000000       0.000000       0.000000         1.0000         0.0000
       4611.00      3818.2744       117.1215         1.9179         1.8401         0.4078         2.2950       0.000000       0.000000         1.0000       0.000000         0.0000      0.0000000      0.0000000       0.000000       0.000000       0.000000         1.0000         0.0000
       4611.50      3818.5972       106.3026         2.0642         1.9876         0.3873         2.2888       0.000000       0.000000         1.0000       0.000000         0.0000      0.0000000      0.0000000       0.000000       0.000000       0.000000         1.0000         0.0000
       4612.00      3818.9201        97.3012         2.1299         2.0793         0.3777         2.2756       0.000000       0.000000         1.0000       0.000000         0.0000      0.0000000      0.0000000       0.000000       0.000000       0.000000         1.0000         0.0000
       4612.50      3819.2430        86.5493         2.1257         2.0917         0.3462         2.2794       0.000000       0.104095         0.8766       0.000000         0.0000      0.0021698      0.0000000       0.017098       0.019267       0.019267         0.8983         0.0203
       4613.00      3819.5659        80.2873         2.1093         2.0726         0.3248         2.2751       0.000000       0.172400         0.7863       0.000000         0.0000      0.0049895      0.0000000       0.036359       0.041348       0.041348         0.9004         0.2818
       4613.50      3819.8888        74.4301         2.0639         2.0225         0.3186         2.2741       0.000000       0.231389         0.7089       0.000000         0.0000      0.0062546      0.0000000       0.053411       0.059665       0.059665         0.9207         0.0970
       4614.00      3820.2117        71.6212         2.0502         2.0012         0.3161         2.2634       0.000000       0.254000         0.6724       0.000000         0.0000      0.0081369      0.0000000       0.065465       0.073602       0.073602         0.9183         0.1819
       4614.50      3820.5346        68.8470         2.0119         1.9729         0.3218         2.2586       0.000000       0.276094         0.6396       0.000000         0.0000      0.0084132      0.0000000       0.075940       0.084353       0.084353         0.9283         0.2735
       4615.00      3820.8575        66.8497         1.9787         1.9468         0.3071         2.2548       0.000000       0.298168         0.6085       0.000000         0.0000      0.0085588      0.0000000       0.084789       0.093348       0.093348         0.9417         4.6493
       4615.50      3821.1804        65.5351         1.9341         1.8998         0.3039         2.2597       0.000000       0.313990         0.5903       0.000000         0.0000      0.0066928      0.0000000       0.089036       0.095729       0.095729         0.9640         5.0704
       4616.00      3821.5033        66.7117         1.8959         1.8677         0.2953         2.2640       0.000000       0.307333         0.6020       0.000000         0.0000      0.0055771      0.0000000       0.085074       0.090651       0.090651         0.9755         0.3393
       4616.50      3821.8262        69.0490         1.8671         1.8406         0.3132         2.2733       0.000000       0.283350         0.6385       0.000000         0.0000      0.0037838      0.0000000       0.074323       0.078107       0.078107         0.9813         0.2173
       4617.00      3822.1491        69.8843         1.8522         1.8409         0.3143         2.2736       0.000000       0.274870         0.6498       0.000000         0.0000      0.0035804      0.0000000       0.071793       0.075373       0.075373         0.9820         0.1953
       4617.50      3822.4720        68.5537         1.8438         1.8301         0.3156         2.2780       0.000000       0.289592         0.6330       0.000000         0.0000      0.0025972      0.0000000       0.074841       0.077438       0.077438         0.9947         0.2117
       4618.00      3822.7949        69.7080         1.8297         1.8116         0.3100         2.2802       0.000000       0.281282         0.6457       0.000000         0.0000      0.0022729      0.0000000       0.070714       0.072987       0.072987         0.9985         0.1774
       4618.50      3823.1178        69.9433         1.8048         1.7947         0.3167         2.2852       0.000000       0.278116         0.6522       0.000000         0.0000      0.0012333      0.0000000       0.068494       0.069727       0.069727         1.0000         0.1547
       4619.00      3823.4408        68.0487         1.7787         1.7742         0.3270         2.2841       0.000000       0.291188         0.6325       0.000000         0.0000      0.0004737      0.0000000       0.075869       0.076343       0.076343         1.0000         0.2029
       4619.50      3823.7637        66.6656         1.7662         1.7453         0.3304         2.2745       0.000000       0.298816         0.6156       0.000000         0.0000      0.0010897      0.0000000       0.084472       0.085562       0.085562         1.0000         0.2854
       4620.00      3824.0866        65.2759         1.7398         1.7254         0.3234         2.2678       0.000000       0.309950         0.5960       0.000000         0.0000      0.0010997      0.0000000       0.092952       0.094052       0.094052         1.0000         4.7711
       4620.50      3824.4096        67.1741         1.7124         1.7089         0.3246         2.2690       0.000000       0.291450         0.6211       0.000000         0.0000      0.0009987      0.0000000       0.086444       0.087443       0.087443         1.0000         0.3046
       4621.00      3824.7325        69.0518         1.7180         1.6877         0.3284         2.2771       0.000000       0.276302         0.6466       0.000000         0.0000      0.0005157      0.0000000       0.076575       0.077091       0.077091         1.0000         0.2089
       4621.50      3825.0554        71.3956         1.7041         1.6714         0.3516         2.2761       0.000000       0.246254         0.6848       0.000000         0.0000      0.0007542      0.0000000       0.068217       0.068971       0.068971         1.0000         0.1497
       4622.00      3825.3784        72.1183         1.6765         1.6553         0.3431         2.2705       0.000000       0.238774         0.6912       0.000000         0.0000      0.0010820      0.0000000       0.068990       0.070072       0.070072         1.0000         0.1570
