~Version Information Block
VERS .                  2.0:  CWLS LOG ASCII STANDARD - VERSION 2.0
WRAP .                   NO:  One line per depth step
~Well Information Block
#MNEM.UNIT        Data Type   Information
#---------- ----------------  -----------
STRT .FT               0.00:  START DEPTH
STOP .FT            9112.00:  STOP DEPTH
STEP .FT               0.50:  STEP
NULL .              -999.25:  NULL VALUE
COMP .                     :  COMPANY
WELL .              SJ-4RD1:  WELL
FLD  .                     :  FIELD
LOC  .                     :  LOCATION
CTRY .                     :  COUNTRY
STAT .                     :  STATE
CNTY .                     :  COUNTY
SRVC .                     :  SERVICE COMPANY
DATE .                     :  DATE
API  .                     :  API NUMBER
UWI  .                     :  UNIQUE WELL ID
~Curve Information Block
#MNEM.UNIT         API CODE   Curve Description
#---------- ----------------  -----------------
DEPTH.FT                   :  
TVDSS.FT                   :  Reference TVD sub-sea log.
GR   .GAPI                 :  Gamma Ray
RT   .OHMM                 :  True Resistivity
RXO  .OHMM                 :  Flushed Zone Resistivity
NPHI .V/V                  :  Neutron Porosity
RHOB .G/C3                 :  Bulk Density
VCALCITE.V/V                  :  Calcite Volume Fraction
VQUARTZ.V/V                  :  Quartz Volume Fraction
VSH  .V/V                  :  Wet Cl/Sh 1 Volume Fraction
VCOAL.V/V                  :  Coal Volume Fraction
VORGSH.V/V                  :  Organic Shale Volume Fraction
VGAS .V/V                  :  X Gas Volume Fraction
VOIL .V/V                  :  X Oil Volume Fraction
VWATER.V/V                  :  X Water Volume Fraction
PHIT .V/V                  :  Total Porosity
PHIE .V/V                  :  Mahakam burial and vsh limited porosity
SWE  .V/V                  :  Effective Water Saturation
PERM .MD                   :  Permeability
~Parameter Information Block
#MNEM.UNIT            Value   Description
#---------- ----------------  -----------
PROJECT.            SEJADI_FE:  
~Other Information Block
# 
~A       DEPTH          TVDSS             GR             RT            RXO           NPHI           RHOB       VCALCITE        VQUARTZ            VSH          VCOAL         VORGSH           VGAS           VOIL         VWATER           PHIT           PHIE            SWE           PERM 
# ...
       8566.50      6793.7692        22.3017         1.3620         1.4053         0.2169         2.2987       0.000000       0.563227         0.2188       0.000000         0.0000      0.0000000      0.0000000       0.217937       0.217937       0.217937         1.0000        86.1084
       8567.00      6794.2692        14.7585         1.1906         1.1894         0.2264         2.2346       0.000000       0.592625         0.1473       0.000000         0.0000      0.0000000      0.0000000       0.260029       0.260029       0.260029         1.0000       158.1459
       8567.50      6794.7692        10.4949         1.1537         1.1349         0.2223         2.2115       0.000000       0.619923         0.1040       0.000000         0.0000      0.0000000      0.0000000       0.276036       0.276036       0.276036         1.0000       702.5126
       8568.00      6795.2692         9.8390         1.1537         1.1349         0.2143         2.1991       0.000000       0.626129         0.0912       0.000000         0.0000      0.0000000      0.0000000       0.282704       0.282704       0.282704         1.0000       753.6309
       8568.50      6795.7692         9.1831         1.1394         1.1325         0.2069         2.1983       0.000000       0.631239         0.0850       0.000000         0.0000      0.0000000      0.0000000       0.283809       0.283809       0.283809         1.0000       762.3384
       8569.00      6796.2692        10.4949         1.1493         1.1419         0.2069         2.1977       0.000000       0.622048         0.0952       0.000000         0.0000      0.0000000      0.0000000       0.282767       0.282767       0.282767         1.0000       754.1304
       8569.50      6796.7692        12.1347         1.1757         1.1997         0.2150         2.2046       0.000000       0.611212         0.1113       0.000000         0.0000      0.0000000      0.0000000       0.277499       0.277499       0.277499         1.0000       713.5275
       8570.00      6797.2692        13.7746         1.1888         1.2133         0.2209         2.2178       0.000000       0.599876         0.1308       0.000000         0.0000      0.0000000      0.0000000       0.269278       0.269278       0.269278         1.0000       653.0977
       8570.50      6797.7692        14.1025         1.2269         1.2517         0.2241         2.2193       0.000000       0.601449         0.1310       0.000000         0.0000      0.0000000      0.0000000       0.267568       0.267568       0.267568         1.0000       640.9650
       8571.00      6798.2692        13.7746         1.2321         1.2579         0.2312         2.2240       0.000000       0.603300         0.1312       0.000000         0.0000      0.0000000      0.0000000       0.265529       0.265529       0.265529         1.0000       626.7025
       8571.50      6798.7692        13.1186         1.1903         1.2117         0.2359         2.2211       0.000000       0.601825         0.1297       0.000000         0.0000      0.0000000      0.0000000       0.268479       0.268479       0.268479         1.0000       647.4096
       8572.00      6799.2692        11.4788         1.1794         1.1987         0.2324         2.2292       0.000000       0.614608         0.1195       0.000000         0.0000      0.0000000      0.0000000       0.265914       0.265914       0.265914         1.0000       629.3770
       8572.50      6799.7692        10.8229         1.1728         1.1938         0.2132         2.2223       0.000000       0.622994         0.1073       0.000000         0.0000      0.0000000      0.0000000       0.269666       0.269666       0.269666         1.0000       655.8713
       8573.00      6800.2692        11.8068         1.1768         1.1842         0.2033         2.2152       0.000000       0.617645         0.1102       0.000000         0.0000      0.0000000      0.0000000       0.272107       0.272107       0.272107         1.0000       673.4976
       8573.50      6800.7692        11.1508         1.1799         1.1794         0.2016         2.2235       0.000000       0.624265         0.1074       0.000000         0.0000      0.0000000      0.0000000       0.268365       0.268365       0.268365         1.0000       646.6019
       8574.00      6801.2692        10.4949         1.1710         1.1637         0.2165         2.2292       0.000000       0.625094         0.1083       0.000000         0.0000      0.0000000      0.0000000       0.266563       0.266563       0.266563         1.0000       633.9077
       8574.50      6801.7692         9.8390         1.1710         1.1637         0.2189         2.2290       0.000000       0.629684         0.1030       0.000000         0.0000      0.0000000      0.0000000       0.267284       0.267284       0.267284         1.0000       638.9651
       8575.00      6802.2692         8.5271         1.1286         1.1378         0.2245         2.2344       0.000000       0.633440         0.0999       0.000000         0.0000      0.0000000      0.0000000       0.266703       0.266703       0.266703         1.0000       634.8880
       8575.50      6802.7692         8.5271         1.1329         1.1440         0.2256         2.2816       0.000000       0.637192         0.1200       0.000000         0.0000      0.0000000      0.0000000       0.242776       0.242776       0.242776         1.0000       124.8569
       8576.00      6803.2692        10.1669         1.2125         1.2056         0.2268         2.2972       0.000000       0.635635         0.1325       0.000000         0.0000      0.0000000      0.0000000       0.231884       0.231884       0.231884         1.0000       106.6082
       8576.50      6803.7692        11.4788         1.3205         1.3204         0.2247         2.2699       0.000000       0.636440         0.1211       0.000000         0.0000      0.0000000      0.0000000       0.242505       0.242505       0.242505         1.0000       124.3778
       8577.00      6804.2692        11.4788         1.2935         1.2959         0.2218         2.2292       0.000000       0.630949         0.1056       0.000000         0.0000      0.0000000      0.0000000       0.263498       0.263498       0.263498         1.0000       612.6975
       8577.50      6804.7692        11.1508         1.2054         1.2205         0.2291         2.2133       0.000000       0.620070         0.1063       0.000000         0.0000      0.0000000      0.0000000       0.273644       0.273644       0.273644         1.0000       684.7501
       8578.00      6805.2692        11.8068         1.1794         1.2037         0.2233         2.2060       0.000000       0.612470         0.1104       0.000000         0.0000      0.0000000      0.0000000       0.277165       0.277165       0.277165         1.0000       711.0053
       8578.50      6805.7692        13.1186         1.1890         1.2027         0.2171         2.2095       0.000000       0.605295         0.1208       0.000000         0.0000      0.0000000      0.0000000       0.273932       0.273932       0.273932         1.0000       686.8707
       8579.00      6806.2692        13.1186         1.1893         1.1878         0.2107         2.2134       0.000000       0.607193         0.1210       0.000000         0.0000      0.0000000      0.0000000       0.271799       0.271799       0.271799         1.0000       671.2571
       8579.50      6806.7692        13.1186         1.1776         1.1725         0.2157         2.2135       0.000000       0.604513         0.1234       0.000000         0.0000      0.0000000      0.0000000       0.272098       0.272098       0.272098         1.0000       673.4312
       8580.00      6807.2692        12.1347         1.1776         1.1725         0.2234         2.2068       0.000000       0.609751         0.1137       0.000000         0.0000      0.0000000      0.0000000       0.276513       0.276513       0.276513         1.0000       706.0906
       8580.50      6807.7692        11.8068         1.1698         1.1718         0.2292         2.1960       0.000000       0.609018         0.1084       0.000000         0.0000      0.0000000      0.0000000       0.282562       0.282562       0.282562         1.0000       752.5223
