~Version Information Block
VERS .                  2.0:  CWLS LOG ASCII STANDARD - VERSION 2.0
WRAP .                   NO:  One line per depth step
~Well Information Block
#MNEM.UNIT        Data Type   Information
#---------- ----------------  -----------
STRT .FT               0.00:  START DEPTH
STOP .FT            9112.00:  STOP DEPTH
STEP .FT               0.50:  STEP
NULL .              -999.25:  NULL VALUE
COMP .                     :  COMPANY
WELL .              SJ-4RD1:  WELL
FLD  .                     :  FIELD
LOC  .                     :  LOCATION
CTRY .                     :  COUNTRY
STAT .                     :  STATE
CNTY .                     :  COUNTY
SRVC .                     :  SERVICE COMPANY
DATE .                     :  DATE
API  .                     :  API NUMBER
UWI  .                     :  UNIQUE WELL ID
~Curve Information Block
#MNEM.UNIT         API CODE   Curve Description
#---------- ----------------  -----------------
DEPTH.FT                   :  
TVDSS.FT                   :  Reference TVD sub-sea log.
GR   .GAPI                 :  Gamma Ray
RT   .OHMM                 :  True Resistivity
RXO  .OHMM                 :  Flushed Zone Resistivity
NPHI .V/V                  :  Neutron Porosity
RHOB .G/C3                 :  Bulk Density
VCALCITE.V/V                  :  Calcite Volume Fraction
VQUARTZ.V/V                  :  Quartz Volume Fraction
VSH  .V/V                  :  Wet Cl/Sh 1 Volume Fraction
VCOAL.V/V                  :  Coal Volume Fraction
VORGSH.V/V                  :  Organic Shale Volume Fraction
VGAS .V/V                  :  X Gas Volume Fraction
VOIL .V/V                  :  X Oil Volume Fraction
VWATER.V/V                  :  X Water Volume Fraction
PHIT .V/V                  :  Total Porosity
PHIE .V/V                  :  Mahakam burial and vsh limited porosity
SWE  .V/V                  :  Effective Water Saturation
PERM .MD                   :  Permeability
~Parameter Information Block
#MNEM.UNIT            Value   Description
#---------- ----------------  -----------
PROJECT.            SEJADI_FE:  
~Other Information Block
# 
~A       DEPTH          TVDSS             GR             RT            RXO           NPHI           RHOB       VCALCITE        VQUARTZ            VSH          VCOAL         VORGSH           VGAS           VOIL         VWATER           PHIT           PHIE            SWE           PERM 
# ...
       7595.00      5854.4358        53.1305         2.2758         2.2568         0.2445         2.3289       0.000000       0.344680         0.5032       0.000000         0.0000      0.0315220      0.0000000       0.120596       0.152118       0.152118         0.8136        24.9736
       7595.50      5854.8890        34.1085         1.9806         1.8787         0.2289         2.3239       0.000000       0.557010         0.2563       0.000000         0.0000      0.0000000      0.0000000       0.186702       0.186702       0.186702         1.0000        50.5552
       7596.00      5855.3422        26.2373         1.7886         1.7623         0.2181         2.3206       0.000000       0.607570         0.1936       0.000000         0.0000      0.0000000      0.0000000       0.198811       0.198811       0.198811         1.0000        62.7649
       7596.50      5855.7954        29.1890         1.8775         1.8423         0.2064         2.3305       0.000000       0.594162         0.2165       0.000000         0.0000      0.0000000      0.0000000       0.189348       0.189348       0.189348         1.0000        53.0643
       7597.00      5856.2487        34.4364         2.4364         2.1561         0.2012         2.3275       0.000000       0.580203         0.2412       0.000000         0.0000      0.0071161      0.0000000       0.171481       0.178597       0.178597         0.9778        43.3920
       7597.50      5856.7021        36.7322         2.2892         2.1926         0.1972         2.3203       0.000000       0.548633         0.2724       0.000000         0.0000      0.0112769      0.0000000       0.167647       0.178923       0.178923         0.9671        43.6655
       7598.00      5857.1555        39.3559         2.0458         2.1781         0.1996         2.3285       0.000000       0.518059         0.3077       0.000000         0.0000      0.0077855      0.0000000       0.166485       0.174271       0.174271         0.9936        39.8791
       7598.50      5857.6089        42.6356         2.4658         2.5181         0.1983         2.3376       0.000000       0.489214         0.3511       0.000000         0.0000      0.0206503      0.0000000       0.139000       0.159651       0.159651         0.8999        29.4946
       7599.00      5858.0624        45.9153         2.8028         2.8574         0.1936         2.3124       0.000000       0.441839         0.3959       0.000000         0.0000      0.0387131      0.0000000       0.123527       0.162240       0.162240         0.7948        31.1744
       7599.50      5858.5160        37.3881         2.8319         2.8309         0.1818         2.2843       0.000000       0.532463         0.2816       0.000000         0.0000      0.0358047      0.0000000       0.150096       0.185901       0.185901         0.8400        49.8122
       7600.00      5858.9695        28.8610         2.5769         2.5889         0.1723         2.2566       0.000000       0.619090         0.1665       0.000000         0.0000      0.0238017      0.0000000       0.190624       0.214425       0.214425         0.9292        81.4250
       7600.50      5859.4232        25.9093         2.5769         2.5889         0.1718         2.2653       0.000000       0.658096         0.1251       0.000000         0.0000      0.0138164      0.0000000       0.203011       0.216827       0.216827         0.9736        84.6083
       7601.00      5859.8768        24.5975         2.2328         2.2693         0.1789         2.2821       0.000000       0.662783         0.1202       0.000000         0.0000      0.0000000      0.0000000       0.217047       0.217047       0.217047         1.0000        84.9042
       7601.50      5860.3306        24.2695         2.0526         2.0317         0.1922         2.2944       0.000000       0.650437         0.1372       0.000000         0.0000      0.0000000      0.0000000       0.212372       0.212372       0.212372         1.0000        78.7718
       7602.00      5860.7843        24.2695         2.0073         1.9323         0.1976         2.3029       0.000000       0.645929         0.1457       0.000000         0.0000      0.0000000      0.0000000       0.208342       0.208342       0.208342         1.0000        73.7446
       7602.50      5861.2381        24.2695         1.9934         1.9175         0.2064         2.3087       0.000000       0.642752         0.1517       0.000000         0.0000      0.0000000      0.0000000       0.205568       0.205568       0.205568         1.0000        70.4185
       7603.00      5861.6920        23.9415         1.8448         1.8159         0.2024         2.2967       0.000000       0.634781         0.1520       0.000000         0.0000      0.0000000      0.0000000       0.213199       0.213199       0.213199         1.0000        79.8330
       7603.50      5862.1459        22.9576         1.7670         1.7757         0.2049         2.2897       0.000000       0.635539         0.1458       0.000000         0.0000      0.0000000      0.0000000       0.218647       0.218647       0.218647         1.0000        87.0784
       7604.00      5862.5999        22.3017         1.7796         1.7863         0.2071         2.2961       0.000000       0.641565         0.1424       0.000000         0.0000      0.0000000      0.0000000       0.216023       0.216023       0.216023         1.0000        83.5320
       7604.50      5863.0539        22.9576         1.7578         1.7844         0.2078         2.3158       0.000000       0.634207         0.1606       0.000000         0.0000      0.0000000      0.0000000       0.205198       0.205198       0.205198         1.0000        69.9836
       7605.00      5863.5079        23.6136         1.7105         1.7240         0.2085         2.3224       0.000000       0.624414         0.1742       0.000000         0.0000      0.0000000      0.0000000       0.201409       0.201409       0.201409         1.0000        65.6338
       7605.50      5863.9620        21.6458         1.6669         1.6769         0.1988         2.2966       0.000000       0.638779         0.1439       0.000000         0.0000      0.0000000      0.0000000       0.217339       0.217339       0.217339         1.0000        85.2977
       7606.00      5864.4161        19.0220         1.6669         1.6769         0.2003         2.2760       0.000000       0.660390         0.1084       0.000000         0.0000      0.0000000      0.0000000       0.231194       0.231194       0.231194         1.0000       105.5193
       7606.50      5864.8703        17.0542         1.6165         1.6269         0.1964         2.2682       0.000000       0.673446         0.0885       0.000000         0.0000      0.0000000      0.0000000       0.238007       0.238007       0.238007         1.0000       116.6142
       7607.00      5865.3245        16.3983         1.6012         1.5953         0.1977         2.2811       0.000000       0.677275         0.0905       0.000000         0.0000      0.0000000      0.0000000       0.232244       0.232244       0.232244         1.0000       107.1786
       7607.50      5865.7788        18.0381         1.6455         1.6236         0.2041         2.2833       0.000000       0.665768         0.1054       0.000000         0.0000      0.0000000      0.0000000       0.228819       0.228819       0.228819         1.0000       101.8336
       7608.00      5866.2331        20.9898         1.7083         1.6897         0.2092         2.2798       0.000000       0.645422         0.1279       0.000000         0.0000      0.0000000      0.0000000       0.226668       0.226668       0.226668         1.0000        98.5767
       7608.50      5866.6875        21.6458         1.7172         1.7144         0.2149         2.2713       0.000000       0.639234         0.1304       0.000000         0.0000      0.0000000      0.0000000       0.230342       0.230342       0.230342         1.0000       104.1869
       7609.00      5867.1419        19.6780         1.6385         1.6552         0.2152         2.2692       0.000000       0.648096         0.1175       0.000000         0.0000      0.0000000      0.0000000       0.234448       0.234448       0.234448         1.0000       110.7207
