~Version Information Block
VERS .                  2.0:  CWLS LOG ASCII STANDARD - VERSION 2.0
WRAP .                   NO:  One line per depth step
~Well Information Block
#MNEM.UNIT        Data Type   Information
#---------- ----------------  -----------
STRT .FT               0.00:  START DEPTH
STOP .FT            9112.00:  STOP DEPTH
STEP .FT               0.50:  STEP
NULL .              -999.25:  NULL VALUE
COMP .                     :  COMPANY
WELL .              SJ-4RD1:  WELL
FLD  .                     :  FIELD
LOC  .                     :  LOCATION
CTRY .                     :  COUNTRY
STAT .                     :  STATE
CNTY .                     :  COUNTY
SRVC .                     :  SERVICE COMPANY
DATE .                     :  DATE
API  .                     :  API NUMBER
UWI  .                     :  UNIQUE WELL ID
~Curve Information Block
#MNEM.UNIT         API CODE   Curve Description
#---------- ----------------  -----------------
DEPTH.FT                   :  
TVDSS.FT                   :  Reference TVD sub-sea log.
GR   .GAPI                 :  Gamma Ray
RT   .OHMM                 :  True Resistivity
RXO  .OHMM                 :  Flushed Zone Resistivity
NPHI .V/V                  :  Neutron Porosity
RHOB .G/C3                 :  Bulk Density
VCALCITE.V/V                  :  Calcite Volume Fraction
VQUARTZ.V/V                  :  Quartz Volume Fraction
VSH  .V/V                  :  Wet Cl/Sh 1 Volume Fraction
VCOAL.V/V                  :  Coal Volume Fraction
VORGSH.V/V                  :  Organic Shale Volume Fraction
VGAS .V/V                  :  X Gas Volume Fraction
VOIL .V/V                  :  X Oil Volume Fraction
VWATER.V/V                  :  X Water Volume Fraction
PHIT .V/V                  :  Total Porosity
PHIE .V/V                  :  Mahakam burial and vsh limited porosity
SWE  .V/V                  :  Effective Water Saturation
PERM .MD                   :  Permeability
~Parameter Information Block
#MNEM.UNIT            Value   Description
#---------- ----------------  -----------
PROJECT.            SEJADI_FE:  
~Other Information Block
# 
~A       DEPTH          TVDSS             GR             RT            RXO           NPHI           RHOB       VCALCITE        VQUARTZ            VSH          VCOAL         VORGSH           VGAS           VOIL         VWATER           PHIT           PHIE            SWE           PERM 
# ...
       9059.50      7286.7679        45.5873         3.4627         3.4601      -999.2500      -999.2500       0.000000       0.502873         0.4180       0.000000         0.0000      0.0039820      0.0000000       0.075132       0.079114       0.079114         0.9601         0.2258
       9060.00      7287.2679        40.9958         3.0982         3.1629      -999.2500      -999.2500       0.000000       0.537129         0.3778       0.000000         0.0000      0.0000000      0.0000000       0.085037       0.085037       0.085037         1.0000         0.2802
       9060.50      7287.7679        31.4847         2.7925         2.8349      -999.2500      -999.2500       0.000000       0.600045         0.3052       0.000000         0.0000      0.0000000      0.0000000       0.094789       0.094789       0.094789         1.0000         4.9012
       9061.00      7288.2679        30.8288         2.6132         2.6012      -999.2500      -999.2500       0.000000       0.598709         0.3048       0.000000         0.0000      0.0000000      0.0000000       0.096493       0.096493       0.096493         1.0000         5.2112
       9061.50      7288.7679        30.1729         2.4865         2.4665      -999.2500      -999.2500       0.000000       0.598805         0.3033       0.000000         0.0000      0.0000000      0.0000000       0.097929       0.097929       0.097929         1.0000         5.4829
       9062.00      7289.2679        30.8288         2.4865         2.4665      -999.2500      -999.2500       0.000000       0.593887         0.3087       0.000000         0.0000      0.0000000      0.0000000       0.097382       0.097382       0.097382         1.0000         5.3782
       9062.50      7289.7679        27.2212         2.3864         2.4013      -999.2500      -999.2500       0.000000       0.616834         0.2820       0.000000         0.0000      0.0000000      0.0000000       0.101134       0.101134       0.101134         1.0000         6.1258
       9063.00      7290.2679        21.3178         2.1204         2.1638      -999.2500      -999.2500       0.000000       0.648719         0.2430       0.000000         0.0000      0.0000000      0.0000000       0.108261       0.108261       0.108261         1.0000         7.7444
       9063.50      7290.7679        17.0542         2.1061         2.0820      -999.2500      -999.2500       0.000000       0.680127         0.2079       0.000000         0.0000      0.0000000      0.0000000       0.111951       0.111951       0.111951         1.0000         8.6914
       9064.00      7291.2679        16.3983         2.0762         2.0522      -999.2500      -999.2500       0.000000       0.683543         0.2037       0.000000         0.0000      0.0000000      0.0000000       0.112774       0.112774       0.112774         1.0000         8.9134
       9064.50      7291.7679        18.6941         2.1282         2.0869      -999.2500      -999.2500       0.000000       0.668864         0.2208       0.000000         0.0000      0.0000000      0.0000000       0.110377       0.110377       0.110377         1.0000         8.2780
       9065.00      7292.2679        21.9737         2.3706         2.3440      -999.2500      -999.2500       0.000000       0.655511         0.2389       0.000000         0.0000      0.0000000      0.0000000       0.105628       0.105628       0.105628         1.0000         7.1149
       9065.50      7292.7679        24.9254         2.6657         2.5604      -999.2500      -999.2500       0.000000       0.644958         0.2540       0.000000         0.0000      0.0000000      0.0000000       0.101077       0.101077       0.101077         1.0000         6.1139
       9066.00      7293.2679        28.2051         2.9282         2.9098      -999.2500      -999.2500       0.000000       0.629118         0.2741       0.000000         0.0000      0.0000000      0.0000000       0.096733       0.096733       0.096733         1.0000         5.2558
       9066.50      7293.7679        31.4847         3.4627         3.4669      -999.2500      -999.2500       0.000000       0.619095         0.2896       0.000000         0.0000      0.0000000      0.0000000       0.091280       0.091280       0.091280         1.0000         0.3464
       9067.00      7294.2679        41.3237         3.4627         3.4669      -999.2500      -999.2500       0.000000       0.544084         0.3730       0.000000         0.0000      0.0000000      0.0000000       0.082939       0.082939       0.082939         1.0000         0.2600
       9067.50      7294.7679        43.2915         3.6422         3.8266      -999.2500      -999.2500       0.000000       0.526407         0.3933       0.000000         0.0000      0.0031987      0.0000000       0.077087       0.080286       0.080286         0.9647         0.2359
       9068.00      7295.2679        40.9958         3.7334         3.9857      -999.2500      -999.2500       0.000000       0.549480         0.3681       0.000000         0.0000      0.0000000      0.0016731       0.080769       0.082442       0.082442         0.9797         0.2554
       9068.50      7295.7679        40.0119         3.8021         3.9962      -999.2500      -999.2500       0.000000       0.559307         0.3578       0.000000         0.0000      0.0000000      0.0012937       0.081611       0.082904       0.082904         0.9844         0.2597
       9069.00      7296.2679        41.9797         3.9303         3.9241      -999.2500      -999.2500       0.000000       0.540284         0.3793       0.000000         0.0000      0.0036725      0.0005254       0.076185       0.080383       0.080383         0.9478         0.2368
       9069.50      7296.7679        48.5390         4.0018         4.0420      -999.2500      -999.2500       0.000000       0.474641         0.4506       0.000000         0.0000      0.0106008      0.0000000       0.064121       0.074722       0.074722         0.8707         0.1903
       9070.00      7297.2679        56.4102         4.0415         4.0724      -999.2500      -999.2500       0.000000       0.395786         0.5347       0.000000         0.0000      0.0156581      0.0000000       0.053904       0.069562       0.069562         0.7977         0.1536
       9070.50      7297.7679        61.9856         4.1262         4.0688      -999.2500      -999.2500       0.000000       0.340016         0.5936       0.000000         0.0000      0.0184257      0.0000000       0.047940       0.066366       0.066366         0.7499         0.1334
       9071.00      7298.2679        66.9051         4.2499         4.1886      -999.2500      -999.2500       0.000000       0.290832         0.6454       0.000000         0.0000      0.0204798      0.0000000       0.043293       0.063773       0.063773         0.7094         0.1184
       9071.50      7298.7679        66.2491         4.2120         4.2344      -999.2500      -999.2500       0.000000       0.297364         0.6385       0.000000         0.0000      0.0201448      0.0000000       0.044001       0.064145       0.064145         0.7162         0.1205
       9072.00      7299.2679        65.5932         4.3025         4.2929      -999.2500      -999.2500       0.000000       0.304076         0.6317       0.000000         0.0000      0.0203480      0.0000000       0.043914       0.064262       0.064262         0.7130         0.1212
       9072.50      7299.7679        65.5932         4.3025         4.2929      -999.2500      -999.2500       0.000000       0.304077         0.6317       0.000000         0.0000      0.0203482      0.0000000       0.043913       0.064262       0.064262         0.7130         0.1212
       9073.00      7300.2679      -999.2500         4.4054         4.4621      -999.2500      -999.2500    -999.250000    -999.250000      -999.2500    -999.250000      -999.2500   -999.2500000   -999.2500000    -999.250000    -999.250000    -999.250000      -999.2500      -999.2500
       9073.50      7300.7679      -999.2500         4.4762         4.4875      -999.2500      -999.2500    -999.250000    -999.250000      -999.2500    -999.250000      -999.2500   -999.2500000   -999.2500000    -999.250000    -999.250000    -999.250000      -999.2500      -999.2500
