~Version Information Block
VERS .                  2.0:  CWLS LOG ASCII STANDARD - VERSION 2.0
WRAP .                   NO:  One line per depth step
~Well Information Block
#MNEM.UNIT        Data Type   Information
#---------- ----------------  -----------
STRT .FT               0.00:  START DEPTH
STOP .FT            9112.00:  STOP DEPTH
STEP .FT               0.50:  STEP
NULL .              -999.25:  NULL VALUE
COMP .                     :  COMPANY
WELL .              SJ-4RD1:  WELL
FLD  .                     :  FIELD
LOC  .                     :  LOCATION
CTRY .                     :  COUNTRY
STAT .                     :  STATE
CNTY .                     :  COUNTY
SRVC .                     :  SERVICE COMPANY
DATE .                     :  DATE
API  .                     :  API NUMBER
UWI  .                     :  UNIQUE WELL ID
~Curve Information Block
#MNEM.UNIT         API CODE   Curve Description
#---------- ----------------  -----------------
DEPTH.FT                   :  
TVDSS.FT                   :  Reference TVD sub-sea log.
GR   .GAPI                 :  Gamma Ray
RT   .OHMM                 :  True Resistivity
RXO  .OHMM                 :  Flushed Zone Resistivity
NPHI .V/V                  :  Neutron Porosity
RHOB .G/C3                 :  Bulk Density
VCALCITE.V/V                  :  Calcite Volume Fraction
VQUARTZ.V/V                  :  Quartz Volume Fraction
VSH  .V/V                  :  Wet Cl/Sh 1 Volume Fraction
VCOAL.V/V                  :  Coal Volume Fraction
VORGSH.V/V                  :  Organic Shale Volume Fraction
VGAS .V/V                  :  X Gas Volume Fraction
VOIL .V/V                  :  X Oil Volume Fraction
VWATER.V/V                  :  X Water Volume Fraction
PHIT .V/V                  :  Total Porosity
PHIE .V/V                  :  Mahakam burial and vsh limited porosity
SWE  .V/V                  :  Effective Water Saturation
PERM .MD                   :  Permeability
~Parameter Information Block
#MNEM.UNIT            Value   Description
#---------- ----------------  -----------
PROJECT.            SEJADI_FE:  
~Other Information Block
# 
~A       DEPTH          TVDSS             GR             RT            RXO           NPHI           RHOB       VCALCITE        VQUARTZ            VSH          VCOAL         VORGSH           VGAS           VOIL         VWATER           PHIT           PHIE            SWE           PERM 
# ...
       3636.50      3188.1847        65.6094         1.9561         1.9378         0.2895         2.3707       0.000000       0.351003         0.6083       0.000000         0.0000      0.0000000      0.0000000       0.040747       0.040747       0.040747         1.0000         0.2679
       3637.00      3188.5135        63.9409         1.9702         1.9526         0.2951         2.3813       0.000000       0.366266         0.5935       0.000000         0.0000      0.0000000      0.0000000       0.040191       0.040191       0.040191         1.0000         0.2556
       3637.50      3188.8423        65.1558         1.9632         1.9439         0.2976         2.3913       0.000000       0.358184         0.6099       0.000000         0.0000      0.0000000      0.0000000       0.031904       0.031904       0.031904         1.0000         0.1154
       3638.00      3189.1710        67.3830         1.9524         1.9260         0.2975         2.3917       0.000000       0.340020         0.6344       0.000000         0.0000      0.0000000      0.0000000       0.025538       0.025538       0.025538         1.0000         0.0536
       3638.50      3189.4998        70.3570         1.9098         1.8919         0.2947         2.3878       0.000000       0.313468         0.6670       0.000000         0.0000      0.0000000      0.0000000       0.019565       0.019565       0.019565         1.0000         0.0214
       3639.00      3189.8286        72.2156         1.8768         1.8594         0.3089         2.3822       0.000000       0.290743         0.6925       0.000000         0.0000      0.0000000      0.0000000       0.016718       0.016718       0.016718         1.0000         0.0125
       3639.50      3190.1573        73.5409         1.8472         1.8244         0.3167         2.3753       0.000000       0.273621         0.7103       0.000000         0.0000      0.0000000      0.0000000       0.016035       0.016035       0.016035         1.0000         0.0108
       3640.00      3190.4861        73.8312         1.8209         1.7968         0.3305         2.3711       0.000000       0.264388         0.7188       0.000000         0.0000      0.0000000      0.0000000       0.016790       0.016790       0.016790         1.0000         0.0127
       3640.50      3190.8149        73.8329         1.7963         1.7826         0.3332         2.3655       0.000000       0.260366         0.7203       0.000000         0.0000      0.0000000      0.0000000       0.019334       0.019334       0.019334         1.0000         0.0206
       3641.00      3191.1436        73.4625         1.7874         1.7697         0.3277         2.3679       0.000000       0.265545         0.7147       0.000000         0.0000      0.0000000      0.0000000       0.019709       0.019709       0.019709         1.0000         0.0220
       3641.50      3191.4724        73.3897         1.7997         1.7827         0.3265         2.3702       0.000000       0.267933         0.7132       0.000000         0.0000      0.0000000      0.0000000       0.018826       0.018826       0.018826         1.0000         0.0188
       3642.00      3191.8011        72.2478         1.8153         1.7978         0.3235         2.3773       0.000000       0.281600         0.6995       0.000000         0.0000      0.0000000      0.0000000       0.018912       0.018912       0.018912         1.0000         0.0191
       3642.50      3192.1299        70.7598         1.8281         1.8035         0.3392         2.3811       0.000000       0.291302         0.6881       0.000000         0.0000      0.0000000      0.0000000       0.020625       0.020625       0.020625         1.0000         0.0257
       3643.00      3192.4587        70.0364         1.8231         1.8176         0.3311         2.3860       0.000000       0.300916         0.6782       0.000000         0.0000      0.0000000      0.0000000       0.020899       0.020899       0.020899         1.0000         0.0269
       3643.50      3192.7874        70.3019         1.8403         1.8244         0.3289         2.3900       0.000000       0.301673         0.6799       0.000000         0.0000      0.0000000      0.0000000       0.018396       0.018396       0.018396         1.0000         0.0173
       3644.00      3193.1162        68.5920         1.8581         1.8251         0.3282         2.3774       0.000000       0.312511         0.6591       0.000000         0.0000      0.0000000      0.0000000       0.028346       0.028346       0.028346         1.0000         0.0768
       3644.50      3193.4449        70.7563         1.8252         1.8103         0.3354         2.3736       0.000000       0.289736         0.6862       0.000000         0.0000      0.0000000      0.0000000       0.024017       0.024017       0.024017         1.0000         0.0434
       3645.00      3193.7737        69.9579         1.8258         1.7907         0.3429         2.3634       0.000000       0.291047         0.6784       0.000000         0.0000      0.0000000      0.0000000       0.030545       0.030545       0.030545         1.0000         0.0993
       3645.50      3194.1024        74.4257         1.8102         1.7616         0.3434         2.3665       0.000000       0.253363         0.7300       0.000000         0.0000      0.0000000      0.0000000       0.016685       0.016685       0.016685         1.0000         0.0124
       3646.00      3194.4312        73.8169         1.7512         1.7266         0.3376         2.3622       0.000000       0.255868         0.7229       0.000000         0.0000      0.0000000      0.0000000       0.021267       0.021267       0.021267         1.0000         0.0286
       3646.50      3194.7600        77.8834         1.7086         1.6969         0.3313         2.3638       0.000000       0.222424         0.7667       0.000000         0.0000      0.0000000      0.0000000       0.010866       0.010866       0.010866         1.0000         0.0028
       3647.00      3195.0887        75.7695         1.7093         1.6930         0.3446         2.3620       0.000000       0.235320         0.7482       0.000000         0.0000      0.0000000      0.0000000       0.016461       0.016461       0.016461         1.0000         0.0118
       3647.50      3195.4175        76.2871         1.7347         1.6994         0.3508         2.3594       0.000000       0.229192         0.7554       0.000000         0.0000      0.0000000      0.0000000       0.015414       0.015414       0.015414         1.0000         0.0094
       3648.00      3195.7462        76.5908         1.7135         1.6782         0.3644         2.3577       0.000000       0.220913         0.7640       0.000000         0.0000      0.0000000      0.0000000       0.015129       0.015129       0.015129         1.0000         0.0088
       3648.50      3196.0749        79.7826         1.6977         1.6654         0.3658         2.3626       0.000000       0.195791         0.7983       0.000000         0.0000      0.0000000      0.0000000       0.005945       0.005945       0.005945         1.0000         0.0087
       3649.00      3196.4036        79.6858         1.6821         1.6562         0.3651         2.3621       0.000000       0.195865         0.7975       0.000000         0.0000      0.0000000      0.0000000       0.006617       0.006617       0.006617         1.0000         0.0120
       3649.50      3196.7323        78.7746         1.6588         1.6468         0.3604         2.3667       0.000000       0.206008         0.7862       0.000000         0.0000      0.0000000      0.0000000       0.007813       0.007813       0.007813         1.0000         0.0195
       3650.00      3197.0610        78.8867         1.6648         1.6402         0.3528         2.3671       0.000000       0.207816         0.7846       0.000000         0.0000      0.0000000      0.0000000       0.007571       0.007571       0.007571         1.0000         0.0178
       3650.50      3197.3896        80.8608         1.6519         1.6283         0.3837         2.3694       0.000000       0.185050         0.8122       0.000000         0.0000      0.0000000      0.0000000       0.002751       0.002751       0.002751         1.0000         0.0009
