~Version Information Block
VERS .                  2.0:  CWLS LOG ASCII STANDARD - VERSION 2.0
WRAP .                   NO:  One line per depth step
~Well Information Block
#MNEM.UNIT        Data Type   Information
#---------- ----------------  -----------
STRT .FT               0.00:  START DEPTH
STOP .FT            9112.00:  STOP DEPTH
STEP .FT               0.50:  STEP
NULL .              -999.25:  NULL VALUE
COMP .                     :  COMPANY
WELL .              SJ-4RD1:  WELL
FLD  .                     :  FIELD
LOC  .                     :  LOCATION
CTRY .                     :  COUNTRY
STAT .                     :  STATE
CNTY .                     :  COUNTY
SRVC .                     :  SERVICE COMPANY
DATE .                     :  DATE
API  .                     :  API NUMBER
UWI  .                     :  UNIQUE WELL ID
~Curve Information Block
#MNEM.UNIT         API CODE   Curve Description
#---------- ----------------  -----------------
DEPTH.FT                   :  
TVDSS.FT                   :  Reference TVD sub-sea log.
GR   .GAPI                 :  Gamma Ray
RT   .OHMM                 :  True Resistivity
RXO  .OHMM                 :  Flushed Zone Resistivity
NPHI .V/V                  :  Neutron Porosity
RHOB .G/C3                 :  Bulk Density
VCALCITE.V/V                  :  Calcite Volume Fraction
VQUARTZ.V/V                  :  Quartz Volume Fraction
VSH  .V/V                  :  Wet Cl/Sh 1 Volume Fraction
VCOAL.V/V                  :  Coal Volume Fraction
VORGSH.V/V                  :  Organic Shale Volume Fraction
VGAS .V/V                  :  X Gas Volume Fraction
VOIL .V/V                  :  X Oil Volume Fraction
VWATER.V/V                  :  X Water Volume Fraction
PHIT .V/V                  :  Total Porosity
PHIE .V/V                  :  Mahakam burial and vsh limited porosity
SWE  .V/V                  :  Effective Water Saturation
PERM .MD                   :  Permeability
~Parameter Information Block
#MNEM.UNIT            Value   Description
#---------- ----------------  -----------
PROJECT.            SEJADI_FE:  
~Other Information Block
# 
~A       DEPTH          TVDSS             GR             RT            RXO           NPHI           RHOB       VCALCITE        VQUARTZ            VSH          VCOAL         VORGSH           VGAS           VOIL         VWATER           PHIT           PHIE            SWE           PERM 
# ...
       5159.00      4174.7550        45.2593         2.2922         2.3348         0.2290         2.4927       0.000000       0.557790         0.3625       0.000000         0.0000      0.0000000      0.0000000       0.079697       0.079697       0.079697         1.0000         0.0090
       5159.50      4175.0803        50.1788         2.2778         2.3304         0.2309         2.4942       0.000000       0.518999         0.4094       0.000000         0.0000      0.0000000      0.0000000       0.071568       0.071568       0.071568         1.0000         0.0046
       5160.00      4175.4056        56.7381         2.0990         2.1788         0.2438         2.4898       0.000000       0.455050         0.4798       0.000000         0.0000      0.0000000      0.0000000       0.065183       0.065183       0.065183         1.0000         0.0025
       5160.50      4175.7308        59.6898         2.1091         2.1301         0.2533         2.4851       0.000000       0.429052         0.5079       0.000000         0.0000      0.0000000      0.0000000       0.063011       0.063011       0.063011         1.0000         0.0020
       5161.00      4176.0561        58.2140         2.1248         2.1356         0.2540         2.4826       0.000000       0.441362         0.4922       0.000000         0.0000      0.0000000      0.0000000       0.066393       0.066393       0.066393         1.0000         0.0028
       5161.50      4176.3814        55.9182         2.1358         2.1472         0.2430         2.4665       0.000000       0.460375         0.4619       0.000000         0.0000      0.0000000      0.0000000       0.077679       0.077679       0.077679         1.0000         0.0076
       5162.00      4176.7066        51.6547         2.1843         2.2002         0.2344         2.4636       0.000000       0.497975         0.4168       0.000000         0.0000      0.0000000      0.0000000       0.085245       0.085245       0.085245         1.0000         0.0137
       5162.50      4177.0319        46.4072         2.2176         2.2331         0.2301         2.4394       0.000000       0.537966         0.3567       0.000000         0.0000      0.0000000      0.0000000       0.105297       0.105297       0.105297         1.0000         0.0517
       5163.00      4177.3571        45.7513         2.1918         2.2192         0.2286         2.4406       0.000000       0.542117         0.3520       0.000000         0.0000      0.0000000      0.0000000       0.105836       0.105836       0.105836         1.0000         0.0534
       5163.50      4177.6823        47.7191         2.1981         2.2226         0.2333         2.4217       0.000000       0.523868         0.3637       0.000000         0.0000      0.0000000      0.0000000       0.112452       0.112452       0.112452         1.0000         0.0782
       5164.00      4178.0075        47.8830         2.2276         2.2557         0.2260         2.4177       0.000000       0.525066         0.3610       0.000000         0.0000      0.0000000      0.0000000       0.113961       0.113961       0.113961         1.0000         0.0851
       5164.50      4178.3328        46.2432         2.2452         2.2840         0.2241         2.4005       0.000000       0.536721         0.3381       0.000000         0.0000      0.0000000      0.0000000       0.125205       0.125205       0.125205         1.0000         0.1538
       5165.00      4178.6580        45.0953         2.2704         2.2883         0.2149         2.4125       0.000000       0.550213         0.3292       0.000000         0.0000      0.0000000      0.0000000       0.120551       0.120551       0.120551         1.0000         0.1212
       5165.50      4178.9832        45.9153         2.2765         2.3054         0.2191         2.4271       0.000000       0.545311         0.3429       0.000000         0.0000      0.0000000      0.0000000       0.111825       0.111825       0.111825         1.0000         0.0755
       5166.00      4179.3084        47.8830         2.3283         2.3559         0.2175         2.4400       0.000000       0.534699         0.3634       0.000000         0.0000      0.0000000      0.0000000       0.101876       0.101876       0.101876         1.0000         0.0420
       5166.50      4179.6336        47.0631         2.3749         2.4005         0.2146         2.4473       0.000000       0.544758         0.3561       0.000000         0.0000      0.0000000      0.0000000       0.099132       0.099132       0.099132         1.0000         0.0354
       5167.00      4179.9587        44.9314         2.4352         2.4570         0.2095         2.4492       0.000000       0.565156         0.3338       0.000000         0.0000      0.0000000      0.0000000       0.101071       0.101071       0.101071         1.0000         0.0400
       5167.50      4180.2839        45.9153         2.4544         2.4942         0.2104         2.4695       0.000000       0.560907         0.3499       0.000000         0.0000      0.0000000      0.0000000       0.089167       0.089167       0.089167         1.0000         0.0182
       5168.00      4180.6091        47.5551         2.4865         2.5273         0.2129         2.4678       0.000000       0.548964         0.3637       0.000000         0.0000      0.0000000      0.0000000       0.087352       0.087352       0.087352         1.0000         0.0160
       5168.50      4180.9342        47.2271         2.5118         2.5518         0.2094         2.4510       0.000000       0.551120         0.3527       0.000000         0.0000      0.0000000      0.0000000       0.096195       0.096195       0.096195         1.0000         0.0293
       5169.00      4181.2594        45.5873         2.5446         2.5850         0.2039         2.4170       0.000000       0.561916         0.3222       0.000000         0.0000      0.0000000      0.0000000       0.115897       0.115897       0.115897         1.0000         0.0946
       5169.50      4181.5845        43.6195         2.5798         2.6186         0.1994         2.3912       0.000000       0.576107         0.2918       0.000000         0.0000      0.0000000      0.0000000       0.132056       0.132056       0.132056         1.0000         0.2150
       5170.00      4181.9097        40.6678         2.5337         2.5753         0.1958         2.3614       0.000000       0.593530         0.2542       0.000000         0.0000      0.0000000      0.0000000       0.152292       0.152292       0.152292         1.0000         8.4790
       5170.50      4182.2348        37.0602         2.4965         2.5254         0.1895         2.3247       0.000000       0.614931         0.2085       0.000000         0.0000      0.0011881      0.0000000       0.175420       0.176608       0.176608         1.0000        17.3229
       5171.00      4182.5599        33.4525         2.4198         2.4261         0.1846         2.2915       0.000000       0.633823         0.1675       0.000000         0.0000      0.0037937      0.0000000       0.194887       0.198681       0.198681         1.0000        30.5709
       5171.50      4182.8851        30.5008         2.3374         2.3319         0.1845         2.2673       0.000000       0.649017         0.1348       0.000000         0.0000      0.0041145      0.0000000       0.212063       0.216177       0.216177         1.0000        45.9294
       5172.00      4183.2102        30.5008         2.2879         2.2812         0.1855         2.2605       0.000000       0.644836         0.1356       0.000000         0.0000      0.0051180      0.0000000       0.214416       0.219534       0.219534         1.0000        49.4732
       5172.50      4183.5353        32.4686         2.2442         2.2219         0.1865         2.2601       0.000000       0.625593         0.1588       0.000000         0.0000      0.0079899      0.0000000       0.207624       0.215614       0.215614         1.0000        45.3554
       5173.00      4183.8604        33.7805         2.2029         2.1860         0.1894         2.2754       0.000000       0.617145         0.1753       0.000000         0.0000      0.0040688      0.0000000       0.203532       0.207601       0.207601         1.0000        37.7833
