~Version Information Block
VERS .                  2.0:  CWLS LOG ASCII STANDARD - VERSION 2.0
WRAP .                   NO:  One line per depth step
~Well Information Block
#MNEM.UNIT        Data Type   Information
#---------- ----------------  -----------
STRT .FT               0.00:  START DEPTH
STOP .FT            9112.00:  STOP DEPTH
STEP .FT               0.50:  STEP
NULL .              -999.25:  NULL VALUE
COMP .                     :  COMPANY
WELL .              SJ-4RD1:  WELL
FLD  .                     :  FIELD
LOC  .                     :  LOCATION
CTRY .                     :  COUNTRY
STAT .                     :  STATE
CNTY .                     :  COUNTY
SRVC .                     :  SERVICE COMPANY
DATE .                     :  DATE
API  .                     :  API NUMBER
UWI  .                     :  UNIQUE WELL ID
~Curve Information Block
#MNEM.UNIT         API CODE   Curve Description
#---------- ----------------  -----------------
DEPTH.FT                   :  
TVDSS.FT                   :  Reference TVD sub-sea log.
GR   .GAPI                 :  Gamma Ray
RT   .OHMM                 :  True Resistivity
RXO  .OHMM                 :  Flushed Zone Resistivity
NPHI .V/V                  :  Neutron Porosity
RHOB .G/C3                 :  Bulk Density
VCALCITE.V/V                  :  Calcite Volume Fraction
VQUARTZ.V/V                  :  Quartz Volume Fraction
VSH  .V/V                  :  Wet Cl/Sh 1 Volume Fraction
VCOAL.V/V                  :  Coal Volume Fraction
VORGSH.V/V                  :  Organic Shale Volume Fraction
VGAS .V/V                  :  X Gas Volume Fraction
VOIL .V/V                  :  X Oil Volume Fraction
VWATER.V/V                  :  X Water Volume Fraction
PHIT .V/V                  :  Total Porosity
PHIE .V/V                  :  Mahakam burial and vsh limited porosity
SWE  .V/V                  :  Effective Water Saturation
PERM .MD                   :  Permeability
~Parameter Information Block
#MNEM.UNIT            Value   Description
#---------- ----------------  -----------
PROJECT.            SEJADI_FE:  
~Other Information Block
# 
~A       DEPTH          TVDSS             GR             RT            RXO           NPHI           RHOB       VCALCITE        VQUARTZ            VSH          VCOAL         VORGSH           VGAS           VOIL         VWATER           PHIT           PHIE            SWE           PERM 
# ...
       2172.00      2037.5837        64.9432         1.4924         1.5189         0.3994         2.0446       0.000000       0.164491         0.6357       0.000000         0.0000      0.0323448      0.0000000       0.167445       0.199790       0.124705         0.8778        63.8352
       2172.50      2038.0535        66.5630         1.5465         1.5710         0.4153         2.0229       0.000000       0.133689         0.6643       0.000000         0.0000      0.0393694      0.0000000       0.162609       0.201978       0.113043         0.8404        66.2747
       2173.00      2038.5233        66.9173         1.5426         1.5660         0.4263         2.0220       0.000000       0.125997         0.6731       0.000000         0.0000      0.0390684      0.0000000       0.161848       0.200916       0.109512         0.8377        65.0827
       2173.50      2038.9930        65.3988         1.5191         1.5461         0.4529         2.0268       0.000000       0.133549         0.6631       0.000000         0.0000      0.0355184      0.0000000       0.167788       0.203306       0.113519         0.8468        67.7870
       2174.00      2039.4627        67.4994         1.4974         1.5228         0.4373         2.0238       0.000000       0.116790         0.6842       0.000000         0.0000      0.0366348      0.0000000       0.162381       0.199015       0.105059         0.8462        62.9874
       2174.50      2039.9323        70.1316         1.4888         1.4908         0.4378         2.0249       0.000000       0.091944         0.7175       0.000000         0.0000      0.0365123      0.0000000       0.154077       0.190590       0.091919         0.8414        54.2720
       2175.00      2040.4019        74.9150         1.4672         1.4231         0.4220         2.0282       0.000000       0.053549         0.7703       0.000000         0.0000      0.0356773      0.0000000       0.140476       0.176153       0.071699         0.8397        41.3818
       2175.50      2040.8715        78.3823         1.2519         1.2341         0.4237         2.0463       0.000000       0.024637         0.8125       0.000000         0.0000      0.0231170      0.0000000       0.139708       0.162825       0.056183         0.9069        31.5631
       2176.00      2041.3410        80.6095         1.1285         1.1409         0.4342         2.0496       0.000000       0.000000         0.8422       0.000000         0.0000      0.0163913      0.0000000       0.141384       0.157775       0.045682         0.9478        28.3186
       2176.50      2041.8104        82.1028         1.1945         1.2063         0.4316         1.9913       0.000000       0.000000         0.8137       0.000000         0.0000      0.0320145      0.0000000       0.154317       0.186332       0.055775         0.8920        50.2107
       2177.00      2042.2798        78.8632         1.1722         1.2000         0.4293         1.9271       0.000000       0.000000         0.7750       0.000000         0.0000      0.0461359      0.0000000       0.178863       0.224999       0.069936         0.8653        96.1000
       2177.50      2042.7492        74.6113         1.1864         1.2195         0.4189         1.9219       0.000000       0.000000         0.7684       0.000000         0.0000      0.0484232      0.0000000       0.183133       0.231556       0.072388         0.8546       106.0896
       2178.00      2043.2185        70.3847         1.3598         1.3272         0.4590         1.9950       0.000000       0.064259         0.7305       0.000000         0.0000      0.0373402      0.0000000       0.167910       0.205251       0.086848         0.8515        70.0450
       2178.50      2043.6878        71.0933         1.3605         1.2920         0.5283         2.1135       0.000000       0.096507         0.7556       0.000000         0.0000      0.0110181      0.0000000       0.136913       0.147931       0.077244         0.9256        22.6855
       2179.00      2044.1571        79.3694         1.1226         1.1162         0.5566         2.1578       0.000000       0.019740         0.8753       0.000000         0.0000      0.0000000      0.0000000       0.104919       0.104919       0.034429         1.0000         6.9517
       2179.50      2044.6263        85.7220         1.0790         1.0934         0.5316         2.1503       0.000000       0.000000         0.9006       0.000000         0.0000      0.0000000      0.0000000       0.099360       0.099360       0.026224         1.0000         5.7638
       2180.00      2045.0954        85.9245         1.0974         1.1301         0.4772         2.1399       0.000000       0.000000         0.8979       0.000000         0.0000      0.0000000      0.0000000       0.102150       0.102150       0.027110         1.0000         6.3403
       2180.50      2045.5645        82.9633         1.1671         1.1833         0.4375         2.1337       0.000000       0.017842         0.8739       0.000000         0.0000      0.0036897      0.0000000       0.104552       0.108242       0.034900         1.0000         7.7396
       2181.00      2046.0336        76.0286         1.2385         1.2390         0.4075         2.1358       0.000000       0.097871         0.7733       0.000000         0.0000      0.0060528      0.0000000       0.122821       0.128874       0.070578         0.9937        14.1112
       2181.50      2046.5026        72.4600         1.2760         1.2725         0.4176         2.1351       0.000000       0.129358         0.7311       0.000000         0.0000      0.0066640      0.0000000       0.132899       0.139563       0.086610         0.9875        18.5647
       2182.00      2046.9715        68.3093         1.3018         1.3028         0.4298         2.1374       0.000000       0.167340         0.6812       0.000000         0.0000      0.0053955      0.0000000       0.146018       0.151413       0.106208         0.9919        24.5775
       2182.50      2047.4405        68.7396         1.2582         1.2732         0.4185         2.1247       0.000000       0.158693         0.6840       0.000000         0.0000      0.0062803      0.0000000       0.150980       0.157260       0.105087         0.9955        28.0017
       2183.00      2047.9094        69.8279         1.2336         1.2431         0.4162         2.1152       0.000000       0.143273         0.6980       0.000000         0.0000      0.0074752      0.0000000       0.151214       0.158690       0.099527         0.9921        28.8879
       2183.50      2048.3782        71.9285         1.2136         1.2154         0.4124         2.1089       0.000000       0.120600         0.7241       0.000000         0.0000      0.0086069      0.0000000       0.146705       0.155312       0.089312         0.9877        26.8253
       2184.00      2048.8470        72.4094         1.1943         1.1903         0.4385         2.1016       0.000000       0.103318         0.7399       0.000000         0.0000      0.0085290      0.0000000       0.148258       0.156787       0.083207         0.9821        27.7130
       2184.50      2049.3157        74.3582         1.1913         1.1703         0.4622         2.0832       0.000000       0.067135         0.7746       0.000000         0.0000      0.0117183      0.0000000       0.146517       0.158236       0.070057         0.9587        28.6042
       2185.00      2049.7844        74.9909         1.1088         1.1101         0.4716         2.0696       0.000000       0.048589         0.7867       0.000000         0.0000      0.0099502      0.0000000       0.154719       0.164669       0.065562         0.9751        32.8105
       2185.50      2050.2531        74.5101         1.0624         1.0930         0.4763         2.0532       0.000000       0.041660         0.7831       0.000000         0.0000      0.0101383      0.0000000       0.165086       0.175224       0.066901         0.9804        40.6353
       2186.00      2050.7217        70.8402         1.1435         1.1583         0.4621         2.0410       0.000000       0.077448         0.7322       0.000000         0.0000      0.0165358      0.0000000       0.173813       0.190349       0.086162         0.9508        54.0362
