~Version Information Block
VERS .                  2.0:  CWLS LOG ASCII STANDARD - VERSION 2.0
WRAP .                   NO:  One line per depth step
~Well Information Block
#MNEM.UNIT        Data Type   Information
#---------- ----------------  -----------
STRT .FT               0.00:  START DEPTH
STOP .FT            9112.00:  STOP DEPTH
STEP .FT               0.50:  STEP
NULL .              -999.25:  NULL VALUE
COMP .                     :  COMPANY
WELL .              SJ-4RD1:  WELL
FLD  .                     :  FIELD
LOC  .                     :  LOCATION
CTRY .                     :  COUNTRY
STAT .                     :  STATE
CNTY .                     :  COUNTY
SRVC .                     :  SERVICE COMPANY
DATE .                     :  DATE
API  .                     :  API NUMBER
UWI  .                     :  UNIQUE WELL ID
~Curve Information Block
#MNEM.UNIT         API CODE   Curve Description
#---------- ----------------  -----------------
DEPTH.FT                   :  
TVDSS.FT                   :  Reference TVD sub-sea log.
GR   .GAPI                 :  Gamma Ray
RT   .OHMM                 :  True Resistivity
RXO  .OHMM                 :  Flushed Zone Resistivity
NPHI .V/V                  :  Neutron Porosity
RHOB .G/C3                 :  Bulk Density
VCALCITE.V/V                  :  Calcite Volume Fraction
VQUARTZ.V/V                  :  Quartz Volume Fraction
VSH  .V/V                  :  Wet Cl/Sh 1 Volume Fraction
VCOAL.V/V                  :  Coal Volume Fraction
VORGSH.V/V                  :  Organic Shale Volume Fraction
VGAS .V/V                  :  X Gas Volume Fraction
VOIL .V/V                  :  X Oil Volume Fraction
VWATER.V/V                  :  X Water Volume Fraction
PHIT .V/V                  :  Total Porosity
PHIE .V/V                  :  Mahakam burial and vsh limited porosity
SWE  .V/V                  :  Effective Water Saturation
PERM .MD                   :  Permeability
~Parameter Information Block
#MNEM.UNIT            Value   Description
#---------- ----------------  -----------
PROJECT.            SEJADI_FE:  
~Other Information Block
# 
~A       DEPTH          TVDSS             GR             RT            RXO           NPHI           RHOB       VCALCITE        VQUARTZ            VSH          VCOAL         VORGSH           VGAS           VOIL         VWATER           PHIT           PHIE            SWE           PERM 
# ...
       5637.50      4485.2126        69.2008         1.5847         1.6450         0.3387         2.4634       0.000000       0.296688         0.6377       0.000000         0.0000      0.0000000      0.0000000       0.065562       0.065562       0.065562         1.0000         0.0026
       5638.00      4485.5367        72.1525         1.6654         1.6452         0.3448         2.4714       0.000000       0.276251         0.6675       0.000000         0.0000      0.0000000      0.0000000       0.056260       0.056260       0.056260         1.0000         0.0010
       5638.50      4485.8607        70.8407         1.6228         1.6143         0.3379         2.4700       0.000000       0.286405         0.6542       0.000000         0.0000      0.0000000      0.0000000       0.059394       0.059394       0.059394         1.0000         0.0014
       5639.00      4486.1847        69.5288         1.6032         1.5921         0.3387         2.4719       0.000000       0.296768         0.6425       0.000000         0.0000      0.0000000      0.0000000       0.060740       0.060740       0.060740         1.0000         0.0016
       5639.50      4486.5087        73.4644         1.5463         1.5582         0.3438         2.4658       0.000000       0.255734         0.6856       0.000000         0.0000      0.0000000      0.0000000       0.058656       0.058656       0.058656         1.0000         0.0013
       5640.00      4486.8327        73.1364         1.5661         1.5679         0.3590         2.4679       0.000000       0.256966         0.6850       0.000000         0.0000      0.0000000      0.0000000       0.058061       0.058061       0.058061         1.0000         0.0012
       5640.50      4487.1567        71.1686         1.7074         1.6587         0.3464         2.4851       0.000000       0.289964         0.6593       0.000000         0.0000      0.0000000      0.0000000       0.050700       0.050700       0.050700         1.0000         0.0005
       5641.00      4487.4808        73.4644         1.6060         1.6198         0.3323         2.5013       0.000000       0.269779         0.6892       0.000000         0.0000      0.0000000      0.0000000       0.040974       0.040974       0.040974         1.0000         0.0001
       5641.50      4487.8048        78.3839         1.5177         1.5333         0.3383         2.5142       0.000000       0.221647         0.7487       0.000000         0.0000      0.0000000      0.0000000       0.029621       0.029621       0.029621         1.0000         0.0000
       5642.00      4488.1288        82.9754         1.3712         1.3975         0.3401         2.4961       0.000000       0.165130         0.8008       0.000000         0.0000      0.0000000      0.0000000       0.034097       0.034097       0.034097         1.0000         0.0000
       5642.50      4488.4529        88.5508         1.2664         1.3238         0.3579         2.4953       0.000000       0.101600         0.8688       0.000000         0.0000      0.0000000      0.0000000       0.029576       0.029576       0.029576         1.0000         0.0000
       5643.00      4488.7769        95.7661         1.3011         1.3746         0.3471         2.4652       0.000000       0.027809         0.9403       0.000000         0.0000      0.0000000      0.0000000       0.031883       0.031883       0.012963         1.0000         0.0000
       5643.50      4489.1010        93.1424         1.6246         1.5667         0.3631         2.4502       0.000000       0.056272         0.9065       0.000000         0.0000      0.0014883      0.0000000       0.035752       0.037241       0.022214         0.9611         0.0000
       5644.00      4489.4250        90.5186         1.6480         1.6725         0.3521         2.4301       0.000000       0.075969         0.8734       0.000000         0.0000      0.0036073      0.0000000       0.047025       0.050632       0.031953         0.9322         0.0000
       5644.50      4489.7490        83.3034         1.6480         1.6725         0.3550         2.4498       0.999990       0.000000         0.0000       0.000000         0.0000      0.0000000      0.0000000       0.000010       0.000010       0.000010         1.0000         0.0000
       5645.00      4490.0731        77.0720         1.7114         1.8624         0.3375         2.4630       0.999990       0.000000         0.0000       0.000000         0.0000      0.0000000      0.0000000       0.000010       0.000010       0.000010         1.0000         0.0000
       5645.50      4490.3972        70.8407         2.1312         2.3061         0.3127         2.4744       0.999990       0.000000         0.0000       0.000000         0.0000      0.0000000      0.0000000       0.000010       0.000010       0.000010         1.0000         0.0000
       5646.00      4490.7212        65.5932         2.5082         2.5484         0.2843         2.4899       0.999990       0.000000         0.0000       0.000000         0.0000      0.0000000      0.0000000       0.000010       0.000010       0.000010         1.0000         0.0000
       5646.50      4491.0453        64.2814         2.4356         2.4876         0.2790         2.4853       0.999990       0.000000         0.0000       0.000000         0.0000      0.0000000      0.0000000       0.000010       0.000010       0.000010         1.0000         0.0000
       5647.00      4491.3693        67.5610         2.0814         2.2098         0.2881         2.4615       0.999990       0.000000         0.0000       0.000000         0.0000      0.0000000      0.0000000       0.000010       0.000010       0.000010         1.0000         0.0000
       5647.50      4491.6934        73.4644         1.7957         1.9098         0.3081         2.4613       0.000000       0.278805         0.6643       0.000000         0.0000      0.0000000      0.0000000       0.056921       0.056921       0.056921         1.0000         0.0011
       5648.00      4492.0175        79.6958         1.7703         1.7805         0.3129         2.4627       0.000000       0.218819         0.7341       0.000000         0.0000      0.0000000      0.0000000       0.047044       0.047044       0.047044         1.0000         0.0003
       5648.50      4492.3415        83.6314         1.8577         1.7863         0.3200         2.4563       0.000000       0.173221         0.7824       0.000000         0.0000      0.0021874      0.0000000       0.042217       0.044404       0.044404         0.9519         0.0002
       5649.00      4492.6656        81.9915         1.8810         1.8489         0.3116         2.4517       0.000000       0.190342         0.7610       0.000000         0.0000      0.0026469      0.0000000       0.046023       0.048670       0.048670         0.9479         0.0004
       5649.50      4492.9897        74.2843         2.1880         2.1213         0.3012         2.4748       0.000000       0.287770         0.6659       0.000000         0.0000      0.0000000      0.0017026       0.044585       0.046287       0.046287         0.9632         0.0003
       5650.00      4493.3138        66.0852         2.1880         2.1213         0.2895         2.4948       0.000000       0.374275         0.5777       0.000000         0.0000      0.0000000      0.0000000       0.048045       0.048045       0.048045         1.0000         0.0004
       5650.50      4493.6378        63.6254         2.4164         2.3723         0.2804         2.4893       0.000000       0.406409         0.5409       0.000000         0.0000      0.0000000      0.0000000       0.052694       0.052694       0.052694         1.0000         0.0007
       5651.00      4493.9619        65.5932         2.8084         2.5724         0.2791         2.4776       0.000000       0.387798         0.5574       0.000000         0.0000      0.0000000      0.0040517       0.050795       0.054846       0.054846         0.9261         0.0009
       5651.50      4494.2860        65.5932         2.8300         2.5889         0.2658         2.4728       0.000000       0.389050         0.5538       0.000000         0.0000      0.0000000      0.0046878       0.052447       0.057135       0.057135         0.9180         0.0011
