~Version Information Block
VERS .                  2.0:  CWLS LOG ASCII STANDARD - VERSION 2.0
WRAP .                   NO:  One line per depth step
~Well Information Block
#MNEM.UNIT        Data Type   Information
#---------- ----------------  -----------
STRT .FT               0.00:  START DEPTH
STOP .FT            9112.00:  STOP DEPTH
STEP .FT               0.50:  STEP
NULL .              -999.25:  NULL VALUE
COMP .                     :  COMPANY
WELL .              SJ-4RD1:  WELL
FLD  .                     :  FIELD
LOC  .                     :  LOCATION
CTRY .                     :  COUNTRY
STAT .                     :  STATE
CNTY .                     :  COUNTY
SRVC .                     :  SERVICE COMPANY
DATE .                     :  DATE
API  .                     :  API NUMBER
UWI  .                     :  UNIQUE WELL ID
~Curve Information Block
#MNEM.UNIT         API CODE   Curve Description
#---------- ----------------  -----------------
DEPTH.FT                   :  
TVDSS.FT                   :  Reference TVD sub-sea log.
GR   .GAPI                 :  Gamma Ray
RT   .OHMM                 :  True Resistivity
RXO  .OHMM                 :  Flushed Zone Resistivity
NPHI .V/V                  :  Neutron Porosity
RHOB .G/C3                 :  Bulk Density
VCALCITE.V/V                  :  Calcite Volume Fraction
VQUARTZ.V/V                  :  Quartz Volume Fraction
VSH  .V/V                  :  Wet Cl/Sh 1 Volume Fraction
VCOAL.V/V                  :  Coal Volume Fraction
VORGSH.V/V                  :  Organic Shale Volume Fraction
VGAS .V/V                  :  X Gas Volume Fraction
VOIL .V/V                  :  X Oil Volume Fraction
VWATER.V/V                  :  X Water Volume Fraction
PHIT .V/V                  :  Total Porosity
PHIE .V/V                  :  Mahakam burial and vsh limited porosity
SWE  .V/V                  :  Effective Water Saturation
PERM .MD                   :  Permeability
~Parameter Information Block
#MNEM.UNIT            Value   Description
#---------- ----------------  -----------
PROJECT.            SEJADI_FE:  
~Other Information Block
# 
~A       DEPTH          TVDSS             GR             RT            RXO           NPHI           RHOB       VCALCITE        VQUARTZ            VSH          VCOAL         VORGSH           VGAS           VOIL         VWATER           PHIT           PHIE            SWE           PERM 
# ...
       1679.00      1562.6922        53.9388      -999.2500      -999.2500         0.4608         2.2637    -999.250000    -999.250000      -999.2500    -999.250000      -999.2500   -999.2500000   -999.2500000    -999.250000    -999.250000    -999.250000      -999.2500      -999.2500
       1679.50      1563.1858        52.8560      -999.2500      -999.2500         0.4373         2.2704    -999.250000    -999.250000      -999.2500    -999.250000      -999.2500   -999.2500000   -999.2500000    -999.250000    -999.250000    -999.250000      -999.2500      -999.2500
       1680.00      1563.6793        55.7903      -999.2500      -999.2500         0.4042         2.2278    -999.250000    -999.250000      -999.2500    -999.250000      -999.2500   -999.2500000   -999.2500000    -999.250000    -999.250000    -999.250000      -999.2500      -999.2500
       1680.50      1564.1729        53.2240      -999.2500      -999.2500         0.3898         2.2479    -999.250000    -999.250000      -999.2500    -999.250000      -999.2500   -999.2500000   -999.2500000    -999.250000    -999.250000    -999.250000      -999.2500      -999.2500
       1681.00      1564.6664        52.9606      -999.2500      -999.2500         0.4116         2.2032    -999.250000    -999.250000      -999.2500    -999.250000      -999.2500   -999.2500000   -999.2500000    -999.250000    -999.250000    -999.250000      -999.2500      -999.2500
       1681.50      1565.1599        46.5040      -999.2500      -999.2500         0.4293         2.1217    -999.250000    -999.250000      -999.2500    -999.250000      -999.2500   -999.2500000   -999.2500000    -999.250000    -999.250000    -999.250000      -999.2500      -999.2500
       1682.00      1565.6534        46.2401      -999.2500      -999.2500         0.4535         2.1192    -999.250000    -999.250000      -999.2500    -999.250000      -999.2500   -999.2500000   -999.2500000    -999.250000    -999.250000    -999.250000      -999.2500      -999.2500
       1682.50      1566.1468        46.2849      -999.2500      -999.2500         0.4633         2.0512    -999.250000    -999.250000      -999.2500    -999.250000      -999.2500   -999.2500000   -999.2500000    -999.250000    -999.250000    -999.250000      -999.2500      -999.2500
       1683.00      1566.6402        48.5988      -999.2500      -999.2500         0.4951         2.0788    -999.250000    -999.250000      -999.2500    -999.250000      -999.2500   -999.2500000   -999.2500000    -999.250000    -999.250000    -999.250000      -999.2500      -999.2500
       1683.50      1567.1337        50.2546         2.0947      -999.2500         0.5234         2.0510       0.000000       0.272617         0.4742       0.000000         0.0000      0.0000000      0.0526790       0.200468       0.253147       0.197005         0.7919       144.1982
       1684.00      1567.6270        54.6277         1.7071      -999.2500         0.5110         2.0061       0.000000       0.207996         0.5330       0.000000         0.0000      0.0111131      0.0350772       0.212793       0.258983       0.170875         0.8216       155.9684
       1684.50      1568.1204        61.2677         1.6352      -999.2500         0.5154         2.0562       0.000000       0.167924         0.6210       0.000000         0.0000      0.0100633      0.0225426       0.178424       0.211030       0.132989         0.8455        77.0715
       1685.00      1568.6138        63.0737         1.4484      -999.2500         0.5045         2.0621       0.000000       0.156497         0.6452       0.000000         0.0000      0.0190540      0.0006163       0.178657       0.198327       0.122892         0.9008        62.2407
       1685.50      1569.1071        65.7782         1.1517      -999.2500         0.5043         2.0571       0.000000       0.120564         0.6787       0.000000         0.0000      0.0072994      0.0000000       0.193452       0.200751       0.109098         0.9808        64.8988
       1686.00      1569.6004        65.9764         1.1862      -999.2500         0.5218         2.0439       0.000000       0.107207         0.6887       0.000000         0.0000      0.0115246      0.0000000       0.192540       0.204065       0.105017         0.9542        68.6618
       1686.50      1570.0937        69.7905         1.3019      -999.2500         0.5442         2.0944       0.000000       0.092011         0.7427       0.000000         0.0000      0.0062845      0.0041163       0.154853       0.165254       0.083549         0.9371        33.2136
       1687.00      1570.5869        65.4813         1.2392         2.2745         0.5585         2.1180       0.000000       0.141348         0.6887       0.000000         0.0000      0.0000000      0.0016383       0.168310       0.169948       0.105023         0.9904        36.5759
       1687.50      1571.0802        66.5046         1.3383         2.4689         0.5314         2.1141       0.000000       0.139716         0.6912       0.000000         0.0000      0.0000000      0.0080558       0.161067       0.169122       0.104027         0.9524        35.9676
       1688.00      1571.5734        65.5346         1.3550         2.3062         0.5102         2.0342       0.000000       0.113428         0.6826       0.000000         0.0000      0.0226314      0.0000000       0.181307       0.203938       0.107481         0.8968        68.5154
       1688.50      1572.0666        67.4766         1.3169         2.4328         0.4880         1.9844       0.000000       0.074190         0.7053       0.000000         0.0000      0.0336216      0.0000000       0.186885       0.220507       0.098334         0.8717        89.6543
       1689.00      1572.5598        68.8711         1.5041         2.0645         0.5285         1.9342       0.000000       0.023369         0.7469       0.000000         0.0000      0.0522615      0.0000000       0.177426       0.229687       0.081904         0.7831       103.1711
       1689.50      1573.0529        63.2070         1.3491         1.9629         0.5203         1.9805       0.000000       0.103853         0.6615       0.000000         0.0000      0.0324237      0.0000000       0.202265       0.234689       0.116137         0.8680       111.1122
       1690.00      1573.5461        63.3343         1.3729         1.9896         0.5655         2.1002       0.000000       0.151164         0.6632       0.000000         0.0000      0.0000000      0.0124205       0.173183       0.185603       0.115405         0.9331        49.5381
       1690.50      1574.0392        61.9076         1.3948         1.8830         0.5085         2.0266       0.000000       0.146481         0.6346       0.000000         0.0000      0.0237703      0.0000000       0.195151       0.218922       0.127276         0.8935        87.4548
       1691.00      1574.5323        66.3637         1.4667         1.8815         0.4933         2.1951       0.000000       0.199962         0.6740       0.000000         0.0000      0.0000000      0.0000000       0.126052       0.126052       0.110994         1.0000        13.0756
       1691.50      1575.0253        68.9805         2.0515         1.8732         0.4141         2.1153       0.000000       0.164323         0.6894       0.000000         0.0000      0.0314551      0.0000000       0.114775       0.146231       0.104705         0.8033        21.8005
       1692.00      1575.5184        66.2769         1.1325         1.0907         0.3949         1.9426       0.000000       0.087785         0.6607       0.000000         0.0000      0.0370664      0.0000000       0.214409       0.251476       0.116423         0.9233       140.9468
       1692.50      1576.0114        66.5021         1.0749         1.3236         0.4266         1.7818       0.000000       0.000000         0.6789       0.000000         0.0000      0.0720952      0.0000000       0.249009       0.321104       0.108985         0.8476      1096.3113
       1693.00      1576.5044        60.6825         1.2456         1.3559         0.5142         1.6406       0.000000       0.000000         0.6059       0.000000         0.0000      0.1120972      0.0000000       0.282020       0.394117       0.139359         0.7497      2003.4233
