~Version Information Block
VERS .                  2.0:  CWLS LOG ASCII STANDARD - VERSION 2.0
WRAP .                   NO:  One line per depth step
~Well Information Block
#MNEM.UNIT        Data Type   Information
#---------- ----------------  -----------
STRT .FT               0.00:  START DEPTH
STOP .FT            9112.00:  STOP DEPTH
STEP .FT               0.50:  STEP
NULL .              -999.25:  NULL VALUE
COMP .                     :  COMPANY
WELL .              SJ-4RD1:  WELL
FLD  .                     :  FIELD
LOC  .                     :  LOCATION
CTRY .                     :  COUNTRY
STAT .                     :  STATE
CNTY .                     :  COUNTY
SRVC .                     :  SERVICE COMPANY
DATE .                     :  DATE
API  .                     :  API NUMBER
UWI  .                     :  UNIQUE WELL ID
~Curve Information Block
#MNEM.UNIT         API CODE   Curve Description
#---------- ----------------  -----------------
DEPTH.FT                   :  
TVDSS.FT                   :  Reference TVD sub-sea log.
GR   .GAPI                 :  Gamma Ray
RT   .OHMM                 :  True Resistivity
RXO  .OHMM                 :  Flushed Zone Resistivity
NPHI .V/V                  :  Neutron Porosity
RHOB .G/C3                 :  Bulk Density
VCALCITE.V/V                  :  Calcite Volume Fraction
VQUARTZ.V/V                  :  Quartz Volume Fraction
VSH  .V/V                  :  Wet Cl/Sh 1 Volume Fraction
VCOAL.V/V                  :  Coal Volume Fraction
VORGSH.V/V                  :  Organic Shale Volume Fraction
VGAS .V/V                  :  X Gas Volume Fraction
VOIL .V/V                  :  X Oil Volume Fraction
VWATER.V/V                  :  X Water Volume Fraction
PHIT .V/V                  :  Total Porosity
PHIE .V/V                  :  Mahakam burial and vsh limited porosity
SWE  .V/V                  :  Effective Water Saturation
PERM .MD                   :  Permeability
~Parameter Information Block
#MNEM.UNIT            Value   Description
#---------- ----------------  -----------
PROJECT.            SEJADI_FE:  
~Other Information Block
# 
~A       DEPTH          TVDSS             GR             RT            RXO           NPHI           RHOB       VCALCITE        VQUARTZ            VSH          VCOAL         VORGSH           VGAS           VOIL         VWATER           PHIT           PHIE            SWE           PERM 
# ...
       8088.00      6319.4560        94.1263         1.8183         1.8484         0.3479         2.5377       0.000000       0.000000         0.9808       0.000000         0.0000      0.0006453      0.0000000       0.018547       0.019193       0.003079         0.9729         0.0013
       8088.50      6319.9422        92.4864         1.7952         1.8469         0.3434         2.5351       0.000000       0.000000         0.9781       0.000000         0.0000      0.0007896      0.0000000       0.021086       0.021875       0.003602         0.9705         0.0020
       8089.00      6320.4285        88.2229         1.9090         1.9329         0.3671         2.5412       0.000000       0.000000         0.9776       0.000000         0.0000      0.0013701      0.0000000       0.021036       0.022406       0.003707         0.9395         0.0022
       8089.50      6320.9147        83.3034         2.1079         2.0682         0.3467         2.5267       0.000000       0.043380         0.9239       0.000000         0.0000      0.0037702      0.0000000       0.028920       0.032690       0.016072         0.8854         0.0109
       8090.00      6321.4010        82.3195         1.9834         2.0581         0.3459         2.5121       0.000000       0.048040         0.9106       0.000000         0.0000      0.0045297      0.0000000       0.036844       0.041374       0.019511         0.8921         0.0212
       8090.50      6321.8873        86.5831         1.8557         1.9329         0.3471         2.4920       0.000000       0.000000         0.9511       0.000000         0.0000      0.0061810      0.0000000       0.042694       0.048875       0.009451         0.8814         0.0018
       8091.00      6322.3737        86.5831         1.8438         1.8888         0.3622         2.4947       0.000000       0.000000         0.9521       0.000000         0.0000      0.0056787      0.0000000       0.042238       0.047916       0.009229         0.8866         0.0016
       8091.50      6322.8601        86.5831         1.8403         1.8520         0.3775         2.4980       0.000000       0.000000         0.9534       0.000000         0.0000      0.0052043      0.0000000       0.041415       0.046619       0.008930         0.8906         0.0014
       8092.00      6323.3465        88.8788         1.8991         1.8199         0.3634         2.4984       0.000000       0.000000         0.9559       0.000000         0.0000      0.0054824      0.0000000       0.038627       0.044109       0.008356         0.8828         0.0238
       8092.50      6323.8329        90.5186         1.8991         1.8199         0.3615         2.4917       0.000000       0.000000         0.9537       0.000000         0.0000      0.0061521      0.0000000       0.040121       0.046273       0.008850         0.8775         0.0014
       8093.00      6324.3193        95.1102         1.9354         1.8428         0.3712         2.4300       0.000000       0.000000         0.9264       0.000000         0.0000      0.0159522      0.0000000       0.057629       0.073581       0.015440         0.8105         0.0095
       8093.50      6324.8058        98.7178         1.9408         1.8947         0.4045         2.2495       0.000000       0.000000         0.8456       0.000000         0.0000      0.0579931      0.0000000       0.096363       0.154356       0.037562         0.6853         0.2025
       8094.00      6325.2923        95.7661         2.3893         2.2206         0.4835         1.7996       0.000000       0.000000         0.0000       0.999990         0.0000      0.0000000      0.0000000       0.000010       0.000010       0.000010         1.0000         0.0000
       8094.50      6325.7789        86.5830         5.8922         5.1066         0.5557         1.5236       0.000000       0.000000         0.0000       0.999990         0.0000      0.0000000      0.0000000       0.000010       0.000010       0.000010         1.0000         0.0000
       8095.00      6326.2654        72.1525         8.3100         8.9663         0.6518         1.4454       0.000000       0.000000         0.0000       0.999990         0.0000      0.0000000      0.0000000       0.000010       0.000010       0.000010         1.0000         0.0000
       8095.50      6326.7520        54.6064         8.1550        11.9172         0.7096         1.3954       0.000000       0.000000         0.0000       0.999990         0.0000      0.0000000      0.0000000       0.000010       0.000010       0.000010         1.0000         0.0000
       8096.00      6327.2386        39.6839         6.3951         8.3960         0.7340         1.4108       0.000000       0.000000         0.0000       0.999990         0.0000      0.0000000      0.0000000       0.000010       0.000010       0.000010         1.0000         0.0000
       8096.50      6327.7253        30.6648         5.6212         6.1422         0.7107         1.5006       0.000000       0.000000         0.0000       0.999990         0.0000      0.0000000      0.0000000       0.000010       0.000010       0.000010         1.0000         0.0000
       8097.00      6328.2120        30.5008         3.1923         3.5377         0.6835         1.6797       0.000000       0.000000         0.0000       0.999990         0.0000      0.0000000      0.0000000       0.000010       0.000010       0.000010         1.0000         0.0000
       8097.50      6328.6987        45.2593         3.1923         3.5377         0.5267         1.9377       0.000000       0.000000         0.0000       0.999990         0.0000      0.0000000      0.0000000       0.000010       0.000010       0.000010         1.0000         0.0000
       8098.00      6329.1854        72.1525         1.6032         1.6215         0.3990         2.4211       0.000000       0.000000         0.0000       0.999990         0.0000      0.0000000      0.0000000       0.000010       0.000010       0.000010         1.0000         0.0000
       8098.50      6329.6721        75.4322         2.2671         2.1052         0.3212         2.5797       0.000000       0.000000         0.0000       0.999990         0.0000      0.0000000      0.0000000       0.000010       0.000010       0.000010         1.0000         0.0000
       8099.00      6330.1589        78.7119         2.3069         2.1561         0.2958         2.5703       0.000000       0.141336         0.8471       0.000000         0.0000      0.0004055      0.0000000       0.011138       0.011544       0.011544         0.9655         0.0035
       8099.50      6330.6457        80.6797         2.3028         2.1978         0.2993         2.5827       0.000000       0.122578         0.8742       0.000000         0.0000      0.0000447      0.0000000       0.003194       0.003239       0.003239         0.9864         0.0015
       8100.00      6331.1326        82.3195         2.1981         2.1893         0.3018         2.5824       0.000000       0.101476         0.8963       0.000000         0.0000      0.0000006      0.0000000       0.002211       0.002211       0.002211         0.9999         0.0005
       8100.50      6331.6195        85.2712         2.1452         2.1755         0.3109         2.5816       0.000000       0.061572         0.9378       0.000000         0.0000      0.0000033      0.0000000       0.000635       0.000639       0.000639         1.0000         0.0000
       8101.00      6332.1064        83.9593         2.0538         2.0833         0.3276         2.5561       0.000000       0.057644         0.9260       0.000000         0.0000      0.0007899      0.0000000       0.015590       0.016380       0.015547         0.9528         0.0097
       8101.50      6332.5933        82.6475         2.1162         2.1245         0.3279         2.5489       0.000000       0.069845         0.9090       0.000000         0.0000      0.0014972      0.0000000       0.019651       0.021148       0.019915         0.9301         0.0228
       8102.00      6333.0802        83.6314         2.3872         2.3381         0.3307         2.5408       0.000000       0.052960         0.9229       0.000000         0.0000      0.0034428      0.0000000       0.020693       0.024135       0.016323         0.8589         0.0115
