~Version Information Block
VERS .                  2.0:  CWLS LOG ASCII STANDARD - VERSION 2.0
WRAP .                   NO:  One line per depth step
~Well Information Block
#MNEM.UNIT        Data Type   Information
#---------- ----------------  -----------
STRT .FT               0.00:  START DEPTH
STOP .FT            9112.00:  STOP DEPTH
STEP .FT               0.50:  STEP
NULL .              -999.25:  NULL VALUE
COMP .                     :  COMPANY
WELL .              SJ-4RD1:  WELL
FLD  .                     :  FIELD
LOC  .                     :  LOCATION
CTRY .                     :  COUNTRY
STAT .                     :  STATE
CNTY .                     :  COUNTY
SRVC .                     :  SERVICE COMPANY
DATE .                     :  DATE
API  .                     :  API NUMBER
UWI  .                     :  UNIQUE WELL ID
~Curve Information Block
#MNEM.UNIT         API CODE   Curve Description
#---------- ----------------  -----------------
DEPTH.FT                   :  
TVDSS.FT                   :  Reference TVD sub-sea log.
GR   .GAPI                 :  Gamma Ray
RT   .OHMM                 :  True Resistivity
RXO  .OHMM                 :  Flushed Zone Resistivity
NPHI .V/V                  :  Neutron Porosity
RHOB .G/C3                 :  Bulk Density
VCALCITE.V/V                  :  Calcite Volume Fraction
VQUARTZ.V/V                  :  Quartz Volume Fraction
VSH  .V/V                  :  Wet Cl/Sh 1 Volume Fraction
VCOAL.V/V                  :  Coal Volume Fraction
VORGSH.V/V                  :  Organic Shale Volume Fraction
VGAS .V/V                  :  X Gas Volume Fraction
VOIL .V/V                  :  X Oil Volume Fraction
VWATER.V/V                  :  X Water Volume Fraction
PHIT .V/V                  :  Total Porosity
PHIE .V/V                  :  Mahakam burial and vsh limited porosity
SWE  .V/V                  :  Effective Water Saturation
PERM .MD                   :  Permeability
~Parameter Information Block
#MNEM.UNIT            Value   Description
#---------- ----------------  -----------
PROJECT.            SEJADI_FE:  
~Other Information Block
# 
~A       DEPTH          TVDSS             GR             RT            RXO           NPHI           RHOB       VCALCITE        VQUARTZ            VSH          VCOAL         VORGSH           VGAS           VOIL         VWATER           PHIT           PHIE            SWE           PERM 
# ...
       4115.00      3498.3263        73.1410         1.9359         1.8886         0.3048         2.4251       0.000000       0.311261         0.6870       0.000000         0.0000      0.0000000      0.0000000       0.001721       0.001721       0.001721         1.0000         0.0002
       4115.50      3498.6486        72.2712         1.9146         1.8739         0.3279         2.4184       0.000000       0.305113         0.6912       0.000000         0.0000      0.0000000      0.0000000       0.003689       0.003689       0.003689         1.0000         0.0021
       4116.00      3498.9709        72.6153         1.8997         1.8609         0.3227         2.4160       0.000000       0.302047         0.6940       0.000000         0.0000      0.0000000      0.0000000       0.003958       0.003958       0.003958         1.0000         0.0026
       4116.50      3499.2932        73.6370         1.8976         1.8435         0.3319         2.4115       0.000000       0.289752         0.7071       0.000000         0.0000      0.0000000      0.0000000       0.003130       0.003130       0.003130         1.0000         0.0013
       4117.00      3499.6156        75.3832         1.8758         1.8256         0.3341         2.4132       0.000000       0.278670         0.7202       0.000000         0.0000      0.0000000      0.0000000       0.001118       0.001118       0.001118         1.0000         0.0001
       4117.50      3499.9379        75.8350         1.8704         1.8138         0.3370         2.4191       0.000000       0.280384         0.7191       0.000000         0.0000      0.0000000      0.0000000       0.000507       0.000507       0.000507         1.0000         0.0000
       4118.00      3500.2602        75.5758         1.8728         1.8188         0.3442         2.4227       0.000000       0.283299         0.7163       0.000000         0.0000      0.0000000      0.0000000       0.000409       0.000409       0.000409         1.0000         0.0000
       4118.50      3500.5826        73.3567         1.8853         1.8457         0.3362         2.4272       0.000000       0.301222         0.6975       0.000000         0.0000      0.0000000      0.0000000       0.001228       0.001228       0.001228         1.0000         0.0001
       4119.00      3500.9049        70.8943         1.9139         1.8824         0.3410         2.4254       0.000000       0.315111         0.6809       0.000000         0.0000      0.0000000      0.0000000       0.004017       0.004017       0.004017         1.0000         0.0028
       4119.50      3501.2273        70.7743         1.9704         1.9400         0.3374         2.4285       0.000000       0.321332         0.6756       0.000000         0.0000      0.0000000      0.0000000       0.003077       0.003077       0.003077         1.0000         0.0013
       4120.00      3501.5496        72.5345         2.0156         1.9545         0.3247         2.4277       0.000000       0.315525         0.6833       0.000000         0.0000      0.0000000      0.0000000       0.001154       0.001154       0.001154         1.0000         0.0001
       4120.50      3501.8719        72.8285         1.9752         1.9535         0.3085         2.4273       0.000000       0.315710         0.6829       0.000000         0.0000      0.0000000      0.0000000       0.001422       0.001422       0.001422         1.0000         0.0001
       4121.00      3502.1943        72.7557         1.9496         1.9203         0.2994         2.4219       0.000000       0.313377         0.6840       0.000000         0.0000      0.0000000      0.0000000       0.002611       0.002611       0.002611         1.0000         0.0008
       4121.50      3502.5166        73.8944         1.9213         1.8685         0.3268         2.4196       0.000000       0.296388         0.7022       0.000000         0.0000      0.0000000      0.0000000       0.001454       0.001454       0.001454         1.0000         0.0001
       4122.00      3502.8390        77.2063         1.8436         1.8071         0.3566         2.4154       0.000000       0.264019         0.7357       0.000000         0.0000      0.0000000      0.0000000       0.000242       0.000242       0.000242         1.0000         0.0000
       4122.50      3503.1613        79.7856         1.7826         1.7352         0.3812         2.4132       0.000000       0.240316         0.7596       0.000000         0.0000      0.0000000      0.0000000       0.000054       0.000054       0.000054         1.0000         0.0000
       4123.00      3503.4837        80.8864         1.7380         1.6774         0.3762         2.4144       0.000000       0.234861         0.7651       0.000000         0.0000      0.0000000      0.0000000       0.000041       0.000041       0.000041         1.0000         0.0000
       4123.50      3503.8060        82.6322         1.6781         1.6280         0.3692         2.4109       0.000000       0.221171         0.7788       0.000000         0.0000      0.0000000      0.0000000       0.000034       0.000034       0.000034         1.0000         0.0000
       4124.00      3504.1284        83.1255         1.6416         1.6280         0.3507         2.4080       0.000000       0.218011         0.7819       0.000000         0.0000      0.0000000      0.0000000       0.000057       0.000057       0.000057         1.0000         0.0000
       4124.50      3504.4507        82.8197         1.7140         1.6957         0.3480         2.4063       0.000000       0.223275         0.7767       0.000000         0.0000      0.0000000      0.0000000       0.000034       0.000034       0.000034         1.0000         0.0000
       4125.00      3504.7731        80.8809         1.8734         1.7948         0.3601         2.4148       0.000000       0.247706         0.7523       0.000000         0.0000      0.0000000      0.0000000       0.000010       0.000010       0.000010         1.0000         0.0000
       4125.50      3505.0955        79.4370         1.9717         1.8602         0.3605         2.4248       0.000000       0.269791         0.7302       0.000000         0.0000      0.0000000      0.0000000       0.000006       0.000006       0.000006         1.0000         0.0000
       4126.00      3505.4178        77.3515         1.9998         1.8933         0.3420         2.4305       0.000000       0.290550         0.7094       0.000000         0.0000      0.0000000      0.0000000       0.000021       0.000021       0.000021         1.0000         0.0000
       4126.50      3505.7402        79.2874         1.9704         1.8926         0.3530         2.4253       0.000000       0.272660         0.7273       0.000000         0.0000      0.0000000      0.0000000       0.000007       0.000007       0.000007         1.0000         0.0000
       4127.00      3506.0626        80.1983         1.9464         1.8677         0.3611         2.4177       0.000000       0.257745         0.7422       0.000000         0.0000      0.0000000      0.0000000       0.000006       0.000006       0.000006         1.0000         0.0000
       4127.50      3506.3849        79.8946         1.8964         1.8386         0.3744         2.4136       0.000000       0.248868         0.7511       0.000000         0.0000      0.0000000      0.0000000       0.000014       0.000014       0.000014         1.0000         0.0000
       4128.00      3506.7073        79.0385         1.8737         1.8466         0.3413         2.4221       0.000000       0.267678         0.7323       0.000000         0.0000      0.0000000      0.0000000       0.000036       0.000036       0.000036         1.0000         0.0000
       4128.50      3507.0297        77.9378         1.9255         1.8949         0.3336         2.4359       0.000000       0.290880         0.7091       0.000000         0.0000      0.0000000      0.0000000       0.000023       0.000023       0.000023         1.0000         0.0000
       4129.00      3507.3520        80.2551         2.1252         2.0261         0.3509         2.4364       0.000000       0.288374         0.7116       0.000000         0.0000      0.0000000      0.0000000       0.000001       0.000001       0.000001         1.0000         0.0000
