~Version Information Block
VERS .                  2.0:  CWLS LOG ASCII STANDARD - VERSION 2.0
WRAP .                   NO:  One line per depth step
~Well Information Block
#MNEM.UNIT        Data Type   Information
#---------- ----------------  -----------
STRT .FT               0.00:  START DEPTH
STOP .FT            9112.00:  STOP DEPTH
STEP .FT               0.50:  STEP
NULL .              -999.25:  NULL VALUE
COMP .                     :  COMPANY
WELL .              SJ-4RD1:  WELL
FLD  .                     :  FIELD
LOC  .                     :  LOCATION
CTRY .                     :  COUNTRY
STAT .                     :  STATE
CNTY .                     :  COUNTY
SRVC .                     :  SERVICE COMPANY
DATE .                     :  DATE
API  .                     :  API NUMBER
UWI  .                     :  UNIQUE WELL ID
~Curve Information Block
#MNEM.UNIT         API CODE   Curve Description
#---------- ----------------  -----------------
DEPTH.FT                   :  
TVDSS.FT                   :  Reference TVD sub-sea log.
GR   .GAPI                 :  Gamma Ray
RT   .OHMM                 :  True Resistivity
RXO  .OHMM                 :  Flushed Zone Resistivity
NPHI .V/V                  :  Neutron Porosity
RHOB .G/C3                 :  Bulk Density
VCALCITE.V/V                  :  Calcite Volume Fraction
VQUARTZ.V/V                  :  Quartz Volume Fraction
VSH  .V/V                  :  Wet Cl/Sh 1 Volume Fraction
VCOAL.V/V                  :  Coal Volume Fraction
VORGSH.V/V                  :  Organic Shale Volume Fraction
VGAS .V/V                  :  X Gas Volume Fraction
VOIL .V/V                  :  X Oil Volume Fraction
VWATER.V/V                  :  X Water Volume Fraction
PHIT .V/V                  :  Total Porosity
PHIE .V/V                  :  Mahakam burial and vsh limited porosity
SWE  .V/V                  :  Effective Water Saturation
PERM .MD                   :  Permeability
~Parameter Information Block
#MNEM.UNIT            Value   Description
#---------- ----------------  -----------
PROJECT.            SEJADI_FE:  
~Other Information Block
# 
~A       DEPTH          TVDSS             GR             RT            RXO           NPHI           RHOB       VCALCITE        VQUARTZ            VSH          VCOAL         VORGSH           VGAS           VOIL         VWATER           PHIT           PHIE            SWE           PERM 
# ...
       6130.50      4805.3509        92.4864         2.2805         2.3162         0.3397         2.4310       0.000000       0.061621         0.8939       0.000000         0.0000      0.0092808      0.0000000       0.035181       0.044461       0.025518         0.7963         0.0000
       6131.00      4805.6756        95.4381         2.3621         2.3566         0.3379         2.4065       0.000000       0.018217         0.9292       0.000000         0.0000      0.0137349      0.0000000       0.038880       0.052615       0.015716         0.7486         0.0000
       6131.50      4806.0003        98.0619         2.2591         2.3633         0.3380         2.4008       0.000000       0.000000         0.9468       0.000000         0.0000      0.0135909      0.0000000       0.039583       0.053174       0.011140         0.7576         0.0000
       6132.00      4806.3250        99.7017         2.3886         2.3997         0.3264         2.3929       0.000000       0.000000         0.9449       0.000000         0.0000      0.0157098      0.0000000       0.039387       0.055097       0.011625         0.7332         0.0000
       6132.50      4806.6497        98.3898         2.3735         2.3723         0.3278         2.4183       0.000000       0.000000         0.9563       0.000000         0.0000      0.0111048      0.0000000       0.032581       0.043685       0.008799         0.7572         0.0000
       6133.00      4806.9744        99.7017         2.3543         2.3791         0.3326         2.4507       0.000000       0.000000         0.9737       0.000000         0.0000      0.0054973      0.0000000       0.020849       0.026347       0.004796         0.7976         0.0000
       6133.50      4807.2992       101.0136         2.4605         2.4746         0.3286         2.4802       0.000000       0.001261         0.9891       0.000000         0.0000      0.0017211      0.0000000       0.007894       0.009615       0.001659         0.8233         0.0000
       6134.00      4807.6239        85.4898         2.7852         2.7769         0.3260         2.5013       0.000000       0.178249         0.8043       0.000000         0.0000      0.0000000      0.0027417       0.014718       0.017460       0.017460         0.8430         0.0000
       6134.50      4807.9486        82.1008         2.7852         2.7769         0.3137         2.5333       0.999990       0.000000         0.0000       0.000000         0.0000      0.0000000      0.0000000       0.000010       0.000010       0.000010         1.0000         0.0000
       6135.00      4808.2733        78.7119         3.1319         3.1887         0.3065         2.5567       0.999990       0.000000         0.0000       0.000000         0.0000      0.0000000      0.0000000       0.000010       0.000010       0.000010         1.0000         0.0000
       6135.50      4808.5981        69.8568         3.9319         3.9275         0.2873         2.5570       0.999990       0.000000         0.0000       0.000000         0.0000      0.0000000      0.0000000       0.000010       0.000010       0.000010         1.0000         0.0000
       6136.00      4808.9228        59.0339         4.3999         4.5785         0.2691         2.5735       0.999990       0.000000         0.0000       0.000000         0.0000      0.0000000      0.0000000       0.000010       0.000010       0.000010         1.0000         0.0000
       6136.50      4809.2475        46.2432         4.7369         4.8373         0.2523         2.5774       0.999990       0.000000         0.0000       0.000000         0.0000      0.0000000      0.0000000       0.000010       0.000010       0.000010         1.0000         0.0000
       6137.00      4809.5723        40.0119         4.5199         4.7117         0.2359         2.5750       0.999990       0.000000         0.0000       0.000000         0.0000      0.0000000      0.0000000       0.000010       0.000010       0.000010         1.0000         0.0000
       6137.50      4809.8970        43.6195         4.6513         4.7350         0.2328         2.5487       0.999990       0.000000         0.0000       0.000000         0.0000      0.0000000      0.0000000       0.000010       0.000010       0.000010         1.0000         0.0000
       6138.00      4810.2217        51.4907         4.3725         4.6073         0.2428         2.5492       0.999990       0.000000         0.0000       0.000000         0.0000      0.0000000      0.0000000       0.000010       0.000010       0.000010         1.0000         0.0000
       6138.50      4810.5465        60.6737         3.8284         4.1160         0.2657         2.5341       0.999990       0.000000         0.0000       0.000000         0.0000      0.0000000      0.0000000       0.000010       0.000010       0.000010         1.0000         0.0000
       6139.00      4810.8712        70.5127         3.4440         3.4560         0.2816         2.4958       0.000000       0.346626         0.6154       0.000000         0.0000      0.0000000      0.0062910       0.031636       0.037927       0.037927         0.8341         0.0001
       6139.50      4811.1960        80.0237         3.4440         3.4560         0.2900         2.4687       0.000000       0.230365         0.7325       0.000000         0.0000      0.0095053      0.0000000       0.027666       0.037172       0.037172         0.7448         0.0001
       6140.00      4811.5207        84.6152         3.2210         3.0654         0.3131         2.4657       0.000000       0.173049         0.7930       0.000000         0.0000      0.0087799      0.0000000       0.025217       0.033997       0.033997         0.7420         0.0000
       6140.50      4811.8455        89.2068         2.4643         2.6686         0.3353         2.4780       0.000000       0.122941         0.8516       0.000000         0.0000      0.0011742      0.0029226       0.021375       0.025472       0.025472         0.8392         0.0000
       6141.00      4812.1702        79.0398         2.8614         2.7710         0.3331         2.5030       0.000000       0.245220         0.7300       0.000000         0.0000      0.0000000      0.0034776       0.021321       0.024799       0.024799         0.8598         0.0000
       6141.50      4812.4950        69.5288         2.9232         2.7818         0.3216         2.5050       0.000000       0.349889         0.6146       0.000000         0.0000      0.0000000      0.0029808       0.032519       0.035500       0.035500         0.9160         0.0001
       6142.00      4812.8197        64.2814         2.9462         2.7878         0.3002         2.5177       0.999990       0.000000         0.0000       0.000000         0.0000      0.0000000      0.0000000       0.000010       0.000010       0.000010         1.0000         0.0000
       6142.50      4813.1445        62.6415         2.7324         2.7276         0.3066         2.5220       0.999990       0.000000         0.0000       0.000000         0.0000      0.0000000      0.0000000       0.000010       0.000010       0.000010         1.0000         0.0000
       6143.00      4813.4692        62.6415         2.4780         2.6908         0.2966         2.5078       0.999990       0.000000         0.0000       0.000000         0.0000      0.0000000      0.0000000       0.000010       0.000010       0.000010         1.0000         0.0000
       6143.50      4813.7940        65.2653         2.8721         2.7400         0.3147         2.4954       0.999990       0.000000         0.0000       0.000000         0.0000      0.0000000      0.0000000       0.000010       0.000010       0.000010         1.0000         0.0000
       6144.00      4814.1188        71.1686         2.8140         2.6945         0.3147         2.4825       0.999990       0.000000         0.0000       0.000000         0.0000      0.0000000      0.0000000       0.000010       0.000010       0.000010         1.0000         0.0000
       6144.50      4814.4435        77.4000         2.4127         2.4458         0.3105         2.4916       0.000000       0.262324         0.7048       0.000000         0.0000      0.0000000      0.0023824       0.030515       0.032898       0.032898         0.9276         0.0000
