~Version Information Block
VERS .                  2.0:  CWLS LOG ASCII STANDARD - VERSION 2.0
WRAP .                   NO:  One line per depth step
~Well Information Block
#MNEM.UNIT        Data Type   Information
#---------- ----------------  -----------
STRT .FT               0.00:  START DEPTH
STOP .FT            9112.00:  STOP DEPTH
STEP .FT               0.50:  STEP
NULL .              -999.25:  NULL VALUE
COMP .                     :  COMPANY
WELL .              SJ-4RD1:  WELL
FLD  .                     :  FIELD
LOC  .                     :  LOCATION
CTRY .                     :  COUNTRY
STAT .                     :  STATE
CNTY .                     :  COUNTY
SRVC .                     :  SERVICE COMPANY
DATE .                     :  DATE
API  .                     :  API NUMBER
UWI  .                     :  UNIQUE WELL ID
~Curve Information Block
#MNEM.UNIT         API CODE   Curve Description
#---------- ----------------  -----------------
DEPTH.FT                   :  
TVDSS.FT                   :  Reference TVD sub-sea log.
GR   .GAPI                 :  Gamma Ray
RT   .OHMM                 :  True Resistivity
RXO  .OHMM                 :  Flushed Zone Resistivity
NPHI .V/V                  :  Neutron Porosity
RHOB .G/C3                 :  Bulk Density
VCALCITE.V/V                  :  Calcite Volume Fraction
VQUARTZ.V/V                  :  Quartz Volume Fraction
VSH  .V/V                  :  Wet Cl/Sh 1 Volume Fraction
VCOAL.V/V                  :  Coal Volume Fraction
VORGSH.V/V                  :  Organic Shale Volume Fraction
VGAS .V/V                  :  X Gas Volume Fraction
VOIL .V/V                  :  X Oil Volume Fraction
VWATER.V/V                  :  X Water Volume Fraction
PHIT .V/V                  :  Total Porosity
PHIE .V/V                  :  Mahakam burial and vsh limited porosity
SWE  .V/V                  :  Effective Water Saturation
PERM .MD                   :  Permeability
~Parameter Information Block
#MNEM.UNIT            Value   Description
#---------- ----------------  -----------
PROJECT.            SEJADI_FE:  
~Other Information Block
# 
~A       DEPTH          TVDSS             GR             RT            RXO           NPHI           RHOB       VCALCITE        VQUARTZ            VSH          VCOAL         VORGSH           VGAS           VOIL         VWATER           PHIT           PHIE            SWE           PERM 
# ...
       2650.50      2467.4217        75.1175         1.5925         1.5993         0.3692         2.1414       0.000000       0.131054         0.7449       0.000000         0.0000      0.0182871      0.0000000       0.105775       0.124063       0.080057         0.8938        12.3787
       2651.00      2467.8473        71.3717         1.6202         1.5925         0.3553         2.1333       0.000000       0.167967         0.6928       0.000000         0.0000      0.0211172      0.0000000       0.118089       0.139206       0.100039         0.8931        18.4019
       2651.50      2468.2728        72.2322         1.5827         1.5467         0.3587         2.1525       0.000000       0.167746         0.7041       0.000000         0.0000      0.0161397      0.0000000       0.112049       0.128189       0.095662         0.9163        13.8546
       2652.00      2468.6983        71.0174         1.5316         1.5019         0.3635         2.1656       0.000000       0.183527         0.6900       0.000000         0.0000      0.0119349      0.0000000       0.114493       0.126428       0.101124         0.9452        13.2102
       2652.50      2469.1238        71.8779         1.4981         1.4717         0.3766         2.1803       0.000000       0.177991         0.7053       0.000000         0.0000      0.0082089      0.0000000       0.108537       0.116746       0.095194         0.9639        10.0413
       2653.00      2469.5492        71.5742         1.4623         1.4525         0.3822         2.1906       0.000000       0.183863         0.7030       0.000000         0.0000      0.0052656      0.0000000       0.107875       0.113141       0.096072         0.9850         9.0136
       2653.50      2469.9746        73.8520         1.4577         1.4598         0.3665         2.1930       0.000000       0.168270         0.7264       0.000000         0.0000      0.0054026      0.0000000       0.099941       0.105344       0.087064         0.9852         7.0492
       2654.00      2470.3999        74.3076         1.4689         1.4774         0.3568         2.1816       0.000000       0.161414         0.7289       0.000000         0.0000      0.0077743      0.0000000       0.101945       0.109719       0.086116         0.9703         8.1092
       2654.50      2470.8252        73.4977         1.4585         1.4773         0.3582         2.1187       0.000000       0.136329         0.7216       0.000000         0.0000      0.0191813      0.0000000       0.122895       0.142077       0.088894         0.9159        19.7415
       2655.00      2471.2504        71.8273         1.4511         1.4555         0.3576         2.0453       0.000000       0.115386         0.7044       0.000000         0.0000      0.0351253      0.0000000       0.145114       0.180239       0.095531         0.8648        44.7807
       2655.50      2471.6756        67.2210         1.3874         1.3806         0.3798         2.0007       0.000000       0.126679         0.6594       0.000000         0.0000      0.0418839      0.0000000       0.172024       0.213908       0.113219         0.8602        80.7507
       2656.00      2472.1008        58.6159         1.2301         1.2462         0.3920         1.9871       0.000000       0.191058         0.5568       0.000000         0.0000      0.0327074      0.0000000       0.219393       0.252100       0.155278         0.9254       142.1549
       2656.50      2472.5259        50.9220         1.1682         1.1609         0.4106         1.9848       0.000000       0.253854         0.4625       0.000000         0.0000      0.0203105      0.0000000       0.263332       0.283642       0.195742         0.9755       761.0190
       2657.00      2472.9510        45.2527         1.0346         1.0674         0.4065         1.9737       0.000000       0.283102         0.4015       0.000000         0.0000      0.0059348      0.0000000       0.309420       0.315355       0.222672         1.0000      1039.5417
       2657.50      2473.3760        43.1774         1.0016         1.0357         0.4098         1.9573       0.000000       0.287755         0.3806       0.000000         0.0000      0.0041886      0.0000000       0.327449       0.331637       0.232049         1.0000      1205.5422
       2658.00      2473.8010        40.8995         1.0052         1.0254         0.4077         1.9369       0.000000       0.299286         0.3519       0.000000         0.0000      0.0066270      0.0000000       0.342167       0.348794       0.245000         1.0000      1398.4391
       2658.50      2474.2260        41.5829         1.0085         1.0237         0.4174         1.9292       0.000000       0.290561         0.3599       0.000000         0.0000      0.0090624      0.0000000       0.340525       0.349588       0.241403         1.0000      1407.8251
       2659.00      2474.6509        42.7471         1.0125         1.0324         0.4018         1.9201       0.000000       0.281562         0.3708       0.000000         0.0000      0.0157360      0.0000000       0.331921       0.347657       0.236462         1.0000      1385.0659
       2659.50      2475.0758        40.1150         1.0220         1.0710         0.4191         1.9411       0.000000       0.308029         0.3416       0.000000         0.0000      0.0039383      0.0000000       0.346475       0.350413       0.249697         1.0000      1417.6298
       2660.00      2475.5006        39.3810         1.0296         1.0985         0.4144         1.9214       0.000000       0.308935         0.3303       0.000000         0.0000      0.0094540      0.0000000       0.351315       0.360770       0.254827         1.0000      1544.4932
       2660.50      2475.9254        38.2621         1.0485         1.1501         0.3540         1.9366       0.000000       0.334336         0.3108       0.000000         0.0000      0.0122988      0.0000000       0.342524       0.354823       0.263731         1.0000      1470.7706
       2661.00      2476.3502        40.3875         1.0560         1.1624         0.3826         1.9489       0.000000       0.319345         0.3378       0.000000         0.0000      0.0092904      0.0000000       0.333537       0.342827       0.251384         1.0000      1329.2072
       2661.50      2476.7749        35.2974         1.0128         1.1059         0.4419         1.9276       0.000000       0.332599         0.2931       0.000000         0.0000      0.0000000      0.0000000       0.374329       0.374329       0.271904         1.0000      1721.6311
       2662.00      2477.1995        29.8324         0.9929         1.0809         0.4360         1.8818       0.000000       0.357481         0.2253       0.000000         0.0000      0.0000000      0.0000000       0.417207       0.417207       0.303466         1.0000      2368.8274
       2662.50      2477.6241        23.7610         0.9467         1.0588         0.4316         1.8346       0.000000       0.379477         0.1583       0.000000         0.0000      0.0000000      0.0000000       0.462184       0.462184       0.335209         1.0000      3201.6792
       2663.00      2478.0487        20.9535         0.9016         1.0161         0.3772         1.8137       0.000000       0.394594         0.1236       0.000000         0.0000      0.0018539      0.0000000       0.479979       0.481833       0.351887         1.0000      3618.9773
       2663.50      2478.4733        24.7498         0.8863         1.0071         0.4256         1.8158       0.000000       0.355392         0.1755       0.000000         0.0000      0.0000000      0.0000000       0.469063       0.469063       0.326992         1.0000      3343.9312
       2664.00      2478.8978        26.4215         0.8551         0.9887         0.4228         1.8223       0.000000       0.337054         0.2036       0.000000         0.0000      0.0000000      0.0000000       0.459381       0.459381       0.313698         1.0000      3144.8647
       2664.50      2479.3222        29.7623         0.8396         0.9665         0.4296         1.8408       0.000000       0.312453         0.2495       0.000000         0.0000      0.0000000      0.0000000       0.438091       0.438091       0.292130         1.0000      2735.0078
