~Version Information Block
VERS .                  2.0:  CWLS LOG ASCII STANDARD - VERSION 2.0
WRAP .                   NO:  One line per depth step
~Well Information Block
#MNEM.UNIT        Data Type   Information
#---------- ----------------  -----------
STRT .FT               0.00:  START DEPTH
STOP .FT            9112.00:  STOP DEPTH
STEP .FT               0.50:  STEP
NULL .              -999.25:  NULL VALUE
COMP .                     :  COMPANY
WELL .              SJ-4RD1:  WELL
FLD  .                     :  FIELD
LOC  .                     :  LOCATION
CTRY .                     :  COUNTRY
STAT .                     :  STATE
CNTY .                     :  COUNTY
SRVC .                     :  SERVICE COMPANY
DATE .                     :  DATE
API  .                     :  API NUMBER
UWI  .                     :  UNIQUE WELL ID
~Curve Information Block
#MNEM.UNIT         API CODE   Curve Description
#---------- ----------------  -----------------
DEPTH.FT                   :  
TVDSS.FT                   :  Reference TVD sub-sea log.
GR   .GAPI                 :  Gamma Ray
RT   .OHMM                 :  True Resistivity
RXO  .OHMM                 :  Flushed Zone Resistivity
NPHI .V/V                  :  Neutron Porosity
RHOB .G/C3                 :  Bulk Density
VCALCITE.V/V                  :  Calcite Volume Fraction
VQUARTZ.V/V                  :  Quartz Volume Fraction
VSH  .V/V                  :  Wet Cl/Sh 1 Volume Fraction
VCOAL.V/V                  :  Coal Volume Fraction
VORGSH.V/V                  :  Organic Shale Volume Fraction
VGAS .V/V                  :  X Gas Volume Fraction
VOIL .V/V                  :  X Oil Volume Fraction
VWATER.V/V                  :  X Water Volume Fraction
PHIT .V/V                  :  Total Porosity
PHIE .V/V                  :  Mahakam burial and vsh limited porosity
SWE  .V/V                  :  Effective Water Saturation
PERM .MD                   :  Permeability
~Parameter Information Block
#MNEM.UNIT            Value   Description
#---------- ----------------  -----------
PROJECT.            SEJADI_FE:  
~Other Information Block
# 
~A       DEPTH          TVDSS             GR             RT            RXO           NPHI           RHOB       VCALCITE        VQUARTZ            VSH          VCOAL         VORGSH           VGAS           VOIL         VWATER           PHIT           PHIE            SWE           PERM 
# ...
       3143.50      2859.1408        24.9746         0.9034         0.9258         0.3522         2.1329       0.000000       0.434606         0.2826       0.000000         0.0000      0.0000000      0.0000000       0.282811       0.282811       0.272840         1.0000       754.4747
       3144.00      2859.4962        30.2514         1.0165         0.9633         0.3477         2.1418       0.000000       0.429532         0.3056       0.000000         0.0000      0.0000000      0.0000000       0.264918       0.264918       0.262389         1.0000       622.4635
       3144.50      2859.8515        37.0815         1.1054         1.0397         0.3381         2.1729       0.000000       0.410538         0.3601       0.000000         0.0000      0.0000000      0.0000000       0.229324       0.229324       0.229324         1.0000       102.6106
       3145.00      2860.2068        47.1809         1.2387         1.1782         0.3473         2.2081       0.000000       0.369734         0.4486       0.000000         0.0000      0.0000000      0.0000000       0.181695       0.181695       0.181695         1.0000        46.0385
       3145.50      2860.5619        56.5912         1.3370         1.2592         0.3719         2.2465       0.000000       0.317724         0.5496       0.000000         0.0000      0.0000000      0.0000000       0.132673       0.132673       0.132673         1.0000        15.5954
       3146.00      2860.9170        67.0689         1.3362         1.2700         0.3911         2.2680       0.000000       0.236878         0.6734       0.000000         0.0000      0.0000000      0.0000000       0.089717       0.089717       0.089717         1.0000         0.3289
       3146.50      2861.2720        75.3075         1.3143         1.2512         0.3987         2.2820       0.000000       0.168769         0.7726       0.000000         0.0000      0.0000000      0.0000000       0.058624       0.058624       0.058624         1.0000         0.0921
       3147.00      2861.6269        80.2470         1.3035         1.2418         0.4192         2.2876       0.000000       0.121729         0.8368       0.000000         0.0000      0.0000000      0.0000000       0.041478       0.041478       0.041478         1.0000         0.2849
       3147.50      2861.9817        83.0892         1.3206         1.2535         0.4384         2.2980       0.000000       0.096783         0.8751       0.000000         0.0000      0.0000000      0.0000000       0.028152       0.028152       0.028152         1.0000         0.0750
       3148.00      2862.3364        82.2745         1.3289         1.2637         0.4548         2.3035       0.000000       0.101716         0.8710       0.000000         0.0000      0.0000000      0.0000000       0.027308       0.027308       0.027308         1.0000         0.0676
       3148.50      2862.6910        82.9540         1.3190         1.2837         0.4500         2.3073       0.000000       0.098715         0.8768       0.000000         0.0000      0.0000000      0.0000000       0.024522       0.024522       0.024522         1.0000         0.0466
       3149.00      2863.0456        82.1591         1.3855         1.3311         0.4390         2.3154       0.000000       0.115729         0.8625       0.000000         0.0000      0.0000000      0.0000000       0.021755       0.021755       0.021755         1.0000         0.0309
       3149.50      2863.4000        82.5133         1.4579         1.3706         0.4211         2.3229       0.000000       0.124912         0.8586       0.000000         0.0000      0.0000000      0.0000000       0.016529       0.016529       0.016529         1.0000         0.0120
       3150.00      2863.7544        78.3364         1.4434         1.3739         0.4140         2.3322       0.000000       0.165896         0.8096       0.000000         0.0000      0.0000000      0.0000000       0.024486       0.024486       0.024486         1.0000         0.0464
       3150.50      2864.1087        77.9085         1.4327         1.3828         0.4102         2.3328       0.000000       0.170242         0.8040       0.000000         0.0000      0.0000000      0.0000000       0.025775       0.025775       0.025775         1.0000         0.0554
       3151.00      2864.4629        76.9250         1.4476         1.4045         0.4134         2.3183       0.000000       0.172684         0.7932       0.000000         0.0000      0.0000000      0.0000000       0.034088       0.034088       0.034088         1.0000         0.1450
       3151.50      2864.8170        77.7652         1.4891         1.4323         0.4086         2.3094       0.000000       0.165849         0.7994       0.000000         0.0000      0.0000000      0.0000000       0.034787       0.034787       0.034787         1.0000         0.1554
       3152.00      2865.1710        78.1206         1.5169         1.4491         0.4032         2.3152       0.000000       0.168074         0.8011       0.000000         0.0000      0.0000000      0.0000000       0.030831       0.030831       0.030831         1.0000         0.1026
       3152.50      2865.5250        77.0819         1.5127         1.4531         0.3963         2.3175       0.000000       0.179887         0.7869       0.000000         0.0000      0.0000000      0.0000000       0.033189       0.033189       0.033189         1.0000         0.1322
       3153.00      2865.8789        80.1531         1.4950         1.4450         0.4090         2.3155       0.000000       0.147433         0.8274       0.000000         0.0000      0.0000000      0.0000000       0.025214       0.025214       0.025214         1.0000         0.0513
       3153.50      2866.2326        79.0558         1.4731         1.4403         0.4199         2.3080       0.000000       0.149621         0.8188       0.000000         0.0000      0.0000000      0.0000000       0.031597       0.031597       0.031597         1.0000         0.1116
       3154.00      2866.5863        81.1177         1.4674         1.4156         0.4249         2.3235       0.000000       0.136421         0.8440       0.000000         0.0000      0.0000000      0.0000000       0.019538       0.019538       0.019538         1.0000         0.0213
       3154.50      2866.9399        80.1720         1.4278         1.3847         0.4192         2.3370       0.000000       0.150477         0.8314       0.000000         0.0000      0.0000000      0.0000000       0.018112       0.018112       0.018112         1.0000         0.0164
       3155.00      2867.2934        80.9278         1.3948         1.3608         0.4203         2.3419       0.000000       0.144759         0.8399       0.000000         0.0000      0.0000000      0.0000000       0.015371       0.015371       0.015371         1.0000         0.0093
       3155.50      2867.6469        80.2876         1.4068         1.3491         0.4190         2.3403       0.000000       0.150111         0.8327       0.000000         0.0000      0.0000000      0.0000000       0.017185       0.017185       0.017185         1.0000         0.0137
       3156.00      2868.0002        77.5911         1.4101         1.3540         0.4275         2.3318       0.000000       0.166146         0.8069       0.000000         0.0000      0.0000000      0.0000000       0.026999       0.026999       0.026999         1.0000         0.0650
       3156.50      2868.3535        78.2707         1.3629         1.3366         0.4369         2.3291       0.000000       0.153941         0.8188       0.000000         0.0000      0.0000000      0.0000000       0.027220       0.027220       0.027220         1.0000         0.0668
       3157.00      2868.7067        76.2947         1.4344         1.3863         0.4291         2.3263       0.000000       0.175716         0.7921       0.000000         0.0000      0.0000000      0.0000000       0.032161       0.032161       0.032161         1.0000         0.1186
       3157.50      2869.0598        76.8276         1.4446         1.4182         0.4030         2.3387       0.000000       0.184409         0.7894       0.000000         0.0000      0.0000000      0.0000000       0.026202       0.026202       0.026202         1.0000         0.0586
