~Version Information Block
VERS .                  2.0:  CWLS LOG ASCII STANDARD - VERSION 2.0
WRAP .                   NO:  One line per depth step
~Well Information Block
#MNEM.UNIT        Data Type   Information
#---------- ----------------  -----------
STRT .FT               0.00:  START DEPTH
STOP .FT           11259.00:  STOP DEPTH
STEP .FT               0.50:  STEP
NULL .              -999.25:  NULL VALUE
COMP .                     :  COMPANY
WELL .                 SJ-6:  WELL
FLD  .                     :  FIELD
LOC  .                     :  LOCATION
CTRY .                     :  COUNTRY
STAT .                     :  STATE
CNTY .                     :  COUNTY
SRVC .                     :  SERVICE COMPANY
DATE .                     :  DATE
API  .                     :  API NUMBER
UWI  .                     :  UNIQUE WELL ID
~Curve Information Block
#MNEM.UNIT         API CODE   Curve Description
#---------- ----------------  -----------------
DEPTH.FT                   :  Gamma Ray
TVDSS.FT                   :  Reference TVD sub-sea log.
GR   .GAPI                 :  Gamma Ray
RT   .OHMM                 :  True Resistivity
RXO  .OHMM                 :  Flushed Zone Resistivity
NPHI .V/V                  :  Neutron Porosity
RHOB .G/C3                 :  Bulk Density
VCALCITE.V/V                  :  Calcite Volume Fraction
VQUARTZ.V/V                  :  Quartz Volume Fraction
VSH  .V/V                  :  Wet Cl/Sh 1 Volume Fraction
VCOAL.V/V                  :  Coal Volume Fraction
VORGSH.V/V                  :  Organic Shale Volume Fraction
VGAS .V/V                  :  X Gas Volume Fraction
VOIL .V/V                  :  X Oil Volume Fraction
VWATER.V/V                  :  X Water Volume Fraction
PHIT .V/V                  :  Total Porosity
PHIE .V/V                  :  Mahakam burial and vsh limited porosity
SWE  .V/V                  :  Effective Water Saturation
PERM .MD                   :  Permeability
~Parameter Information Block
#MNEM.UNIT            Value   Description
#---------- ----------------  -----------
PROJECT.            SEJADI_FE:  
~Other Information Block
# 
~A       DEPTH          TVDSS             GR             RT            RXO           NPHI           RHOB       VCALCITE        VQUARTZ            VSH          VCOAL         VORGSH           VGAS           VOIL         VWATER           PHIT           PHIE            SWE           PERM 
       5830.00      4596.5817        58.0885         2.2236         2.4337         0.4773         1.7400       0.000000       0.027898         0.5965       0.000000         0.0000      0.1397198      0.0858898       0.149943       0.375553       0.139989         0.4177        18.7607
       5830.50      4596.9183        50.1255         2.2750         2.2796         0.4819         1.7450       0.000000       0.094593         0.5090       0.000000         0.0000      0.1096810      0.1200458       0.166724       0.396451       0.173760         0.4210        39.4784
       5831.00      4597.2550        42.1626         2.3263         2.1254         0.3723         1.7500       0.000000       0.196249         0.4185       0.000000         0.0000      0.1609799      0.0471266       0.177164       0.385271       0.209283         0.4598        74.8968
       5831.50      4597.5917        48.0836         2.2281         2.0942         0.2978         1.9400       0.000000       0.247355         0.4660       0.000000         0.0000      0.1361938      0.0000000       0.150423       0.286617       0.190536         0.5281        54.2195
       5832.00      4597.9284        49.8639         2.1298         2.0629         0.3014         2.1300       0.000000       0.310902         0.4831       0.000000         0.0000      0.0763988      0.0000000       0.129558       0.205957       0.183827         0.6317        47.9251
       5832.50      4598.2651        51.6442         2.0316         2.0316         0.3051         2.3200       0.000000       0.375833         0.5014       0.000000         0.0000      0.0195923      0.0060277       0.097129       0.122749       0.122749         0.7913        11.9334
       5833.00      4598.6019        51.6442         1.9439         2.4735         0.3087         2.3500       0.000000       0.387963         0.5004       0.000000         0.0000      0.0032660      0.0254294       0.082924       0.111620       0.111620         0.8380         8.6032
       5833.50      4598.9386        51.6442         1.8562         2.9155         0.2865         2.3800       0.000000       0.408652         0.4987       0.000000         0.0000      0.0070042      0.0180383       0.067594       0.092636       0.092636         0.9145         4.5284
       5834.00      4599.2753        54.4338         1.8562         2.3858         0.2695         2.3667       0.000000       0.382771         0.5258       0.000000         0.0000      0.0204472      0.0000000       0.071027       0.091474       0.091474         0.8894         0.3486
       5834.50      4599.6121        57.2235         1.8562         1.8562         0.2791         2.3533       0.000000       0.347545         0.5547       0.000000         0.0000      0.0166002      0.0000000       0.081157       0.097757       0.097757         0.8444         5.4499
       5835.00      4599.9488        57.2235         1.8562         1.8562         0.2887         2.3400       0.000000       0.339492         0.5564       0.000000         0.0000      0.0193201      0.0000000       0.084791       0.104111       0.104111         0.8264         6.7693
       5835.50      4600.2856        57.2235         1.8562         1.8562         0.2983         2.3450       0.000000       0.339663         0.5585       0.000000         0.0000      0.0180393      0.0000000       0.083826       0.101866       0.101866         0.8304         6.2798
       5836.00      4600.6224        57.2235         1.8562         1.8562         0.2946         2.3500       0.000000       0.342703         0.5578       0.000000         0.0000      0.0170335      0.0000000       0.082445       0.099479       0.099479         0.8371         5.7875
       5836.50      4600.9592        56.2777         1.8991         1.8152         0.2916         2.3433       0.000000       0.348434         0.5473       0.000000         0.0000      0.0178384      0.0000000       0.086477       0.104315       0.104315         0.8290         6.8150
       5837.00      4601.2959        55.3319         1.9419         1.7743         0.2882         2.3367       0.000000       0.354355         0.5367       0.000000         0.0000      0.0189553      0.0000000       0.090008       0.108964       0.108964         0.8260         7.9187
       5837.50      4601.6327        54.1027         1.9718         1.8302         0.2848         2.3300       0.000000       0.363076         0.5234       0.000000         0.0000      0.0208499      0.0000000       0.092709       0.113559       0.113559         0.8164         9.1288
       5838.00      4601.9695        52.8734         2.0017         1.8860         0.2813         2.3550       0.999990       0.000000         0.0000       0.000000         0.0000      0.0000000      0.0000000       0.000010       0.000010       0.000010         1.0000         0.0000
       5838.50      4602.3064        51.6442         2.0316         1.9419         0.2647         2.3800       0.999990       0.000000         0.0000       0.000000         0.0000      0.0000000      0.0000000       0.000010       0.000010       0.000010         1.0000         0.0000
       5839.00      4602.6432        53.4880         2.1657         2.1059         0.2443         2.4650       0.999990       0.000000         0.0000       0.000000         0.0000      0.0000000      0.0000000       0.000010       0.000010       0.000010         1.0000         0.0000
       5839.50      4602.9800        55.3319         2.2997         2.2698         0.2391         2.5500       0.999990       0.000000         0.0000       0.000000         0.0000      0.0000000      0.0000000       0.000010       0.000010       0.000010         1.0000         0.0000
       5840.00      4603.3168        58.5905         2.4337         2.4337         0.2340         2.4967       0.999990       0.000000         0.0000       0.000000         0.0000      0.0000000      0.0000000       0.000010       0.000010       0.000010         1.0000         0.0000
       5840.50      4603.6537        61.8490         2.4337         2.4337         0.2288         2.4433       0.999990       0.000000         0.0000       0.000000         0.0000      0.0000000      0.0000000       0.000010       0.000010       0.000010         1.0000         0.0000
       5841.00      4603.9906        65.1076         2.4337         2.4337         0.2543         2.3900       0.999990       0.000000         0.0000       0.000000         0.0000      0.0000000      0.0000000       0.000010       0.000010       0.000010         1.0000         0.0000
       5841.50      4604.3274        58.3759         2.2997         2.2698         0.2688         2.3800       0.000000       0.354036         0.5660       0.000000         0.0000      0.0170391      0.0000000       0.062967       0.080006       0.080006         0.7938         0.2335
       5842.00      4604.6643        51.6442         2.1657         2.1059         0.2772         2.3700       0.000000       0.405635         0.4979       0.000000         0.0000      0.0153165      0.0000000       0.081100       0.096416       0.096416         0.8411         5.1968
       5842.50      4605.0012        56.3731         2.0316         1.9419         0.2857         2.3867       0.000000       0.369410         0.5484       0.000000         0.0000      0.0113230      0.0000000       0.070856       0.082179       0.082179         0.8622         0.2530
       5843.00      4605.3381        61.1019         1.9439         1.8991         0.2941         2.4033       0.000000       0.333654         0.5991       0.000000         0.0000      0.0085620      0.0000000       0.058634       0.067196       0.067196         0.8726         0.1385
       5843.50      4605.6750        63.1207         1.8562         1.8562         0.2698         2.4200       0.000000       0.328868         0.6152       0.000000         0.0000      0.0056834      0.0000000       0.050237       0.055920       0.055920         0.9108         0.7967
       5844.00      4606.0119        65.1394         1.8562         1.8562         0.2524         2.4100       0.000000       0.310478         0.6317       0.000000         0.0000      0.0075732      0.0000000       0.050271       0.057845       0.057845         0.8892         0.0884
