~Version Information Block
VERS .                  2.0:  CWLS LOG ASCII STANDARD - VERSION 2.0
WRAP .                   NO:  One line per depth step
~Well Information Block
#MNEM.UNIT        Data Type   Information
#---------- ----------------  -----------
STRT .FT               0.00:  START DEPTH
STOP .FT           11259.00:  STOP DEPTH
STEP .FT               0.50:  STEP
NULL .              -999.25:  NULL VALUE
COMP .                     :  COMPANY
WELL .                 SJ-6:  WELL
FLD  .                     :  FIELD
LOC  .                     :  LOCATION
CTRY .                     :  COUNTRY
STAT .                     :  STATE
CNTY .                     :  COUNTY
SRVC .                     :  SERVICE COMPANY
DATE .                     :  DATE
API  .                     :  API NUMBER
UWI  .                     :  UNIQUE WELL ID
~Curve Information Block
#MNEM.UNIT         API CODE   Curve Description
#---------- ----------------  -----------------
DEPTH.FT                   :  Gamma Ray
TVDSS.FT                   :  Reference TVD sub-sea log.
GR   .GAPI                 :  Gamma Ray
RT   .OHMM                 :  True Resistivity
RXO  .OHMM                 :  Flushed Zone Resistivity
NPHI .V/V                  :  Neutron Porosity
RHOB .G/C3                 :  Bulk Density
VCALCITE.V/V                  :  Calcite Volume Fraction
VQUARTZ.V/V                  :  Quartz Volume Fraction
VSH  .V/V                  :  Wet Cl/Sh 1 Volume Fraction
VCOAL.V/V                  :  Coal Volume Fraction
VORGSH.V/V                  :  Organic Shale Volume Fraction
VGAS .V/V                  :  X Gas Volume Fraction
VOIL .V/V                  :  X Oil Volume Fraction
VWATER.V/V                  :  X Water Volume Fraction
PHIT .V/V                  :  Total Porosity
PHIE .V/V                  :  Mahakam burial and vsh limited porosity
SWE  .V/V                  :  Effective Water Saturation
PERM .MD                   :  Permeability
~Parameter Information Block
#MNEM.UNIT            Value   Description
#---------- ----------------  -----------
PROJECT.            SEJADI_FE:  
~Other Information Block
# 
~A       DEPTH          TVDSS             GR             RT            RXO           NPHI           RHOB       VCALCITE        VQUARTZ            VSH          VCOAL         VORGSH           VGAS           VOIL         VWATER           PHIT           PHIE            SWE           PERM 
# ...
       9774.00      7390.0852        68.4210         3.8226         3.8226         0.1966         2.5800       0.000000       0.341679         0.6583       0.000000         0.0000      0.0000000      0.0000000       0.000000       0.000000       0.000000         1.0000         0.0000
       9774.50      7390.4391        69.4655         3.8226         3.8226         0.1895         2.5700       0.000000       0.328602         0.6668       0.000000         0.0000      0.0003887      0.0000000       0.004223       0.004612       0.004612         0.9184         0.0041
       9775.00      7390.7931        66.0900         3.8226         3.8226         0.1825         2.5600       0.000000       0.356926         0.6305       0.000000         0.0000      0.0011343      0.0000000       0.011411       0.012545       0.012545         0.9167         0.0046
       9775.50      7391.1471        62.7146         3.9108         3.9108         0.1755         2.5550       0.000000       0.387748         0.5946       0.000000         0.0000      0.0015483      0.0000000       0.016137       0.017686       0.017686         0.9221         0.0151
       9776.00      7391.5010        59.3391         3.9991         3.9991         0.1811         2.5500       0.000000       0.415510         0.5614       0.000000         0.0000      0.0019446      0.0000000       0.021183       0.023127       0.023127         0.9257         0.0381
       9776.50      7391.8550        63.3578         3.9991         3.9991         0.1873         2.5400       0.000000       0.371709         0.6030       0.000000         0.0000      0.0036384      0.0000000       0.021658       0.025296       0.025296         0.8678         0.0519
       9777.00      7392.2089        67.3764         3.9991         3.9991         0.1913         2.5300       0.000000       0.328478         0.6441       0.000000         0.0000      0.0053390      0.0000000       0.022105       0.027444       0.027444         0.8192         0.0687
       9777.50      7392.5629        66.0156         3.9991         3.9991         0.1953         2.5333       0.000000       0.341804         0.6314       0.000000         0.0000      0.0048018      0.0000000       0.022036       0.026838       0.026838         0.8332         0.0636
       9778.00      7392.9168        64.6548         3.9991         3.9991         0.1992         2.5367       0.000000       0.355142         0.6186       0.000000         0.0000      0.0042650      0.0000000       0.021970       0.026235       0.026235         0.8479         0.0589
       9778.50      7393.2708        63.2940         3.9991         3.9991         0.1987         2.5400       0.000000       0.369565         0.6049       0.000000         0.0000      0.0037036      0.0000000       0.021859       0.025562       0.025562         0.8647         0.0538
       9779.00      7393.6247        65.3352         3.8840         3.8840         0.1989         2.5433       0.000000       0.351928         0.6257       0.000000         0.0000      0.0031276      0.0000000       0.019233       0.022361       0.022361         0.8695         0.0340
       9779.50      7393.9787        67.3764         3.7689         3.7689         0.2072         2.5467       0.000000       0.332330         0.6484       0.000000         0.0000      0.0026014      0.0000000       0.016704       0.019305       0.019305         0.8730         0.0205
       9780.00      7394.3326        70.5579         3.6538         3.6538         0.2155         2.5500       0.000000       0.302033         0.6826       0.000000         0.0000      0.0020855      0.0000000       0.013305       0.015391       0.015391         0.8708         0.0094
       9780.50      7394.6866        73.7393         3.4961         3.4224         0.2238         2.5850       0.000000       0.286003         0.7140       0.000000         0.0000      0.0000000      0.0000000       0.000000       0.000000       0.000000         1.0000         0.0000
       9781.00      7395.0405        75.2065         3.3383         3.1910         0.2340         2.6200       0.000000       0.282520         0.7175       0.000000         0.0000      0.0000000      0.0000000       0.000000       0.000000       0.000000         1.0000         0.0000
       9781.50      7395.3944        76.6736         3.1974         3.0532         0.2481         2.6000       0.000000       0.257548         0.7425       0.000000         0.0000      0.0000000      0.0000000       0.000000       0.000000       0.000000         1.0000         0.0000
       9782.00      7395.7484        78.1407         3.0564         2.9155         0.2558         2.5800       0.000000       0.234153         0.7658       0.000000         0.0000      0.0000000      0.0000000       0.000000       0.000000       0.000000         1.0000         0.0000
       9782.50      7396.1023        79.6504         2.9155         2.8315         0.2697         2.5600       0.000000       0.207795         0.7875       0.000000         0.0000      0.0002987      0.0000000       0.004428       0.004727       0.004727         0.9368         0.0045
       9783.00      7396.4562        81.1600         2.9155         2.7476         0.2649         2.5750       0.000000       0.201187         0.7988       0.000000         0.0000      0.0000000      0.0000000       0.000000       0.000000       0.000000         1.0000         0.0000
       9783.50      7396.8102        82.6697         2.9155         2.6637         0.2601         2.5900       0.000000       0.193552         0.8064       0.000000         0.0000      0.0000000      0.0000000       0.000000       0.000000       0.000000         1.0000         0.0000
       9784.00      7397.1641        84.9980         2.5695         2.4950         0.2554         2.5867       0.000000       0.171262         0.8287       0.000000         0.0000      0.0000000      0.0000000       0.000000       0.000000       0.000000         1.0000         0.0000
       9784.50      7397.5180        87.3263         2.2236         2.3263         0.2856         2.5833       0.000000       0.137495         0.8625       0.000000         0.0000      0.0000000      0.0000000       0.000000       0.000000       0.000000         1.0000         0.0000
       9785.00      7397.8719        86.5449         2.2937         2.3621         0.3234         2.5800       0.000000       0.136090         0.8639       0.000000         0.0000      0.0000000      0.0000000       0.000000       0.000000       0.000000         1.0000         0.0000
       9785.50      7398.2259        85.7634         2.3637         2.3979         0.3037         2.5950       0.000000       0.153752         0.8462       0.000000         0.0000      0.0000000      0.0000000       0.000000       0.000000       0.000000         1.0000         0.0000
       9786.00      7398.5798        84.9820         2.4337         2.4337         0.2840         2.6100       0.000000       0.171285         0.8287       0.000000         0.0000      0.0000000      0.0000000       0.000000       0.000000       0.000000         1.0000         0.0000
       9786.50      7398.9337        81.5614         2.4899         2.4899         0.2643         2.6050       0.000000       0.204467         0.7955       0.000000         0.0000      0.0000000      0.0000000       0.000000       0.000000       0.000000         1.0000         0.0000
       9787.00      7399.2876        78.1407         2.5461         2.5461         0.2648         2.6000       0.000000       0.232807         0.7672       0.000000         0.0000      0.0000000      0.0000000       0.000000       0.000000       0.000000         1.0000         0.0000
       9787.50      7399.6415        79.6504         2.5461         2.5087         0.2648         2.6000       0.000000       0.219740         0.7803       0.000000         0.0000      0.0000000      0.0000000       0.000000       0.000000       0.000000         1.0000         0.0000
       9788.00      7399.9954        81.1600         2.5461         2.4712         0.2711         2.6000       0.000000       0.205214         0.7948       0.000000         0.0000      0.0000000      0.0000000       0.000000       0.000000       0.000000         1.0000         0.0000
