~Version Information Block
VERS .                  2.0:  CWLS LOG ASCII STANDARD - VERSION 2.0
WRAP .                   NO:  One line per depth step
~Well Information Block
#MNEM.UNIT        Data Type   Information
#---------- ----------------  -----------
STRT .FT               0.00:  START DEPTH
STOP .FT           11259.00:  STOP DEPTH
STEP .FT               0.50:  STEP
NULL .              -999.25:  NULL VALUE
COMP .                     :  COMPANY
WELL .                 SJ-6:  WELL
FLD  .                     :  FIELD
LOC  .                     :  LOCATION
CTRY .                     :  COUNTRY
STAT .                     :  STATE
CNTY .                     :  COUNTY
SRVC .                     :  SERVICE COMPANY
DATE .                     :  DATE
API  .                     :  API NUMBER
UWI  .                     :  UNIQUE WELL ID
~Curve Information Block
#MNEM.UNIT         API CODE   Curve Description
#---------- ----------------  -----------------
DEPTH.FT                   :  Gamma Ray
TVDSS.FT                   :  Reference TVD sub-sea log.
GR   .GAPI                 :  Gamma Ray
RT   .OHMM                 :  True Resistivity
RXO  .OHMM                 :  Flushed Zone Resistivity
NPHI .V/V                  :  Neutron Porosity
RHOB .G/C3                 :  Bulk Density
VCALCITE.V/V                  :  Calcite Volume Fraction
VQUARTZ.V/V                  :  Quartz Volume Fraction
VSH  .V/V                  :  Wet Cl/Sh 1 Volume Fraction
VCOAL.V/V                  :  Coal Volume Fraction
VORGSH.V/V                  :  Organic Shale Volume Fraction
VGAS .V/V                  :  X Gas Volume Fraction
VOIL .V/V                  :  X Oil Volume Fraction
VWATER.V/V                  :  X Water Volume Fraction
PHIT .V/V                  :  Total Porosity
PHIE .V/V                  :  Mahakam burial and vsh limited porosity
SWE  .V/V                  :  Effective Water Saturation
PERM .MD                   :  Permeability
~Parameter Information Block
#MNEM.UNIT            Value   Description
#---------- ----------------  -----------
PROJECT.            SEJADI_FE:  
~Other Information Block
# 
~A       DEPTH          TVDSS             GR             RT            RXO           NPHI           RHOB       VCALCITE        VQUARTZ            VSH          VCOAL         VORGSH           VGAS           VOIL         VWATER           PHIT           PHIE            SWE           PERM 
# ...
       7976.00      6122.3117        51.0401         3.0073         2.9215         0.2084         2.4800       0.000000       0.508481         0.4384       0.000000         0.0000      0.0018153      0.0000000       0.051299       0.053114       0.053114         0.9658         0.6673
       7976.50      6122.6549        59.0991         2.9155         2.7868         0.2235         2.5000       0.000000       0.444443         0.5236       0.000000         0.0000      0.0012362      0.0000000       0.030728       0.031964       0.031964         0.9613         0.1162
       7977.00      6122.9982        67.1581         2.8315         2.7868         0.2386         2.5033       0.000000       0.371783         0.6082       0.000000         0.0000      0.0016526      0.0000000       0.018357       0.020009       0.020009         0.9174         0.0232
       7977.50      6123.3416        67.8522         2.7476         2.7868         0.2537         2.5067       0.000000       0.363825         0.6186       0.000000         0.0000      0.0013998      0.0000000       0.016166       0.017566       0.017566         0.9295         0.0148
       7978.00      6123.6851        68.5463         2.6637         2.7868         0.2535         2.5100       0.000000       0.359426         0.6257       0.000000         0.0000      0.0011185      0.0000000       0.013783       0.014901       0.014901         0.9485         0.0084
       7978.50      6124.0286        69.2404         2.7047         2.7868         0.2534         2.4900       0.000000       0.343318         0.6320       0.000000         0.0000      0.0031424      0.0000000       0.021538       0.024680       0.024680         0.8913         0.0477
       7979.00      6124.3723        67.8628         2.7457         2.7868         0.2532         2.4700       0.000000       0.345732         0.6176       0.000000         0.0000      0.0059057      0.0000000       0.030733       0.036639       0.036639         0.8530         0.1858
       7979.50      6124.7160        66.4852         2.7868         2.7868         0.2563         2.4500       0.000000       0.347573         0.6041       0.000000         0.0000      0.0091887      0.0000000       0.039142       0.048331       0.048331         0.8192         0.4822
       7980.00      6125.0599        65.1076         2.6333         2.5990         0.2594         2.4633       0.000000       0.364933         0.5910       0.000000         0.0000      0.0057278      0.0000000       0.038326       0.044054       0.044054         0.8704         0.3505
       7980.50      6125.4038        69.3676         2.4798         2.4113         0.2626         2.4767       0.000000       0.332863         0.6348       0.000000         0.0000      0.0032340      0.0000000       0.029112       0.032346       0.032346         0.9000         0.1210
       7981.00      6125.7478        73.6275         2.3263         2.2236         0.2785         2.4900       0.000000       0.298002         0.6815       0.000000         0.0000      0.0012964      0.0000000       0.019186       0.020482       0.020482         0.9367         0.0251
       7981.50      6126.0920        77.8875         2.2921         2.1909         0.2944         2.5025       0.000000       0.262991         0.7284       0.000000         0.0000      0.0004051      0.0000000       0.008186       0.008591       0.008591         0.9528         0.0013
       7982.00      6126.4362        80.1605         2.2578         2.1582         0.3103         2.5150       0.000000       0.245703         0.7543       0.000000         0.0000      0.0000000      0.0000000       0.000000       0.000000       0.000000         1.0000         0.0000
       7982.50      6126.7805        82.4336         2.2236         2.1254         0.3363         2.5275       0.000000       0.227252         0.7727       0.000000         0.0000      0.0000000      0.0000000       0.000000       0.000000       0.000000         1.0000         0.0000
       7983.00      6127.1249        84.7066         2.0738         2.0084         0.3622         2.5400       0.000000       0.208796         0.7912       0.000000         0.0000      0.0000000      0.0000000       0.000000       0.000000       0.000000         1.0000         0.0000
       7983.50      6127.4694        84.7066         1.9240         1.8913         0.3882         2.5200       0.000000       0.189534         0.8105       0.000000         0.0000      0.0000000      0.0000000       0.000000       0.000000       0.000000         1.0000         0.0000
       7984.00      6127.8139        84.7066         1.7743         1.7743         0.3758         2.5000       0.000000       0.180068         0.8154       0.000000         0.0000      0.0000000      0.0000000       0.004538       0.004538       0.004538         1.0000         0.0039
       7984.50      6128.1586        84.7066         1.6766         1.6766         0.3634         2.4800       0.000000       0.174176         0.8111       0.000000         0.0000      0.0000000      0.0000442       0.014636       0.014680       0.014680         0.9970         0.0080
       7985.00      6128.5034        86.2750         1.5788         1.5788         0.3510         2.4900       0.000000       0.163410         0.8269       0.000000         0.0000      0.0000000      0.0000000       0.009660       0.009660       0.009660         1.0000         0.0019
       7985.50      6128.8483        87.8433         1.4811         1.4811         0.3624         2.5000       0.000000       0.147379         0.8469       0.000000         0.0000      0.0000000      0.0000000       0.005698       0.005698       0.005698         1.0000         0.0077
       7986.00      6129.1932        89.4117         1.5527         1.5278         0.3739         2.5000       0.000000       0.133552         0.8636       0.000000         0.0000      0.0000000      0.0000000       0.002802       0.002802       0.002802         1.0000         0.0010
       7986.50      6129.5383        87.0750         1.6243         1.5744         0.3853         2.5000       0.000000       0.152785         0.8426       0.000000         0.0000      0.0000000      0.0000000       0.004593       0.004593       0.004593         1.0000         0.0041
       7987.00      6129.8834        84.7384         1.6960         1.6211         0.3641         2.5000       0.000000       0.178980         0.8147       0.000000         0.0000      0.0000000      0.0000000       0.006356       0.006356       0.006356         1.0000         0.0106
       7987.50      6130.2286        82.4018         1.7360         1.6799         0.3430         2.5000       0.000000       0.204775         0.7868       0.000000         0.0000      0.0000000      0.0000000       0.008463       0.008463       0.008463         1.0000         0.0247
       7988.00      6130.5740        84.7384         1.7761         1.7386         0.3219         2.4900       0.000000       0.188169         0.8034       0.000000         0.0000      0.0000000      0.0000000       0.008393       0.008393       0.008393         1.0000         0.0241
       7988.50      6130.9194        87.0750         1.8161         1.7974         0.3007         2.4800       0.000000       0.168391         0.8216       0.000000         0.0000      0.0003002      0.0000000       0.009754       0.010054       0.010054         0.9701         0.0022
       7989.00      6131.2649        89.4117         1.8562         1.8562         0.3165         2.4700       0.000000       0.138953         0.8480       0.000000         0.0000      0.0009915      0.0000000       0.012038       0.013030       0.013030         0.9282         0.0053
       7989.50      6131.6105        87.8433         1.8028         1.8028         0.3323         2.4800       0.000000       0.154055         0.8362       0.000000         0.0000      0.0003761      0.0000000       0.009399       0.009775       0.009775         0.9635         0.0020
       7990.00      6131.9562        86.2750         1.7494         1.7494         0.3482         2.4900       0.000000       0.169086         0.8243       0.000000         0.0000      0.0000000      0.0000000       0.006627       0.006627       0.006627         1.0000         0.0120
