~Version Information Block
VERS .                  2.0:  CWLS LOG ASCII STANDARD - VERSION 2.0
WRAP .                   NO:  One line per depth step
~Well Information Block
#MNEM.UNIT        Data Type   Information
#---------- ----------------  -----------
STRT .FT               0.00:  START DEPTH
STOP .FT           11259.00:  STOP DEPTH
STEP .FT               0.50:  STEP
NULL .              -999.25:  NULL VALUE
COMP .                     :  COMPANY
WELL .                 SJ-6:  WELL
FLD  .                     :  FIELD
LOC  .                     :  LOCATION
CTRY .                     :  COUNTRY
STAT .                     :  STATE
CNTY .                     :  COUNTY
SRVC .                     :  SERVICE COMPANY
DATE .                     :  DATE
API  .                     :  API NUMBER
UWI  .                     :  UNIQUE WELL ID
~Curve Information Block
#MNEM.UNIT         API CODE   Curve Description
#---------- ----------------  -----------------
DEPTH.FT                   :  Gamma Ray
TVDSS.FT                   :  Reference TVD sub-sea log.
GR   .GAPI                 :  Gamma Ray
RT   .OHMM                 :  True Resistivity
RXO  .OHMM                 :  Flushed Zone Resistivity
NPHI .V/V                  :  Neutron Porosity
RHOB .G/C3                 :  Bulk Density
VCALCITE.V/V                  :  Calcite Volume Fraction
VQUARTZ.V/V                  :  Quartz Volume Fraction
VSH  .V/V                  :  Wet Cl/Sh 1 Volume Fraction
VCOAL.V/V                  :  Coal Volume Fraction
VORGSH.V/V                  :  Organic Shale Volume Fraction
VGAS .V/V                  :  X Gas Volume Fraction
VOIL .V/V                  :  X Oil Volume Fraction
VWATER.V/V                  :  X Water Volume Fraction
PHIT .V/V                  :  Total Porosity
PHIE .V/V                  :  Mahakam burial and vsh limited porosity
SWE  .V/V                  :  Effective Water Saturation
PERM .MD                   :  Permeability
~Parameter Information Block
#MNEM.UNIT            Value   Description
#---------- ----------------  -----------
PROJECT.            SEJADI_FE:  
~Other Information Block
# 
~A       DEPTH          TVDSS             GR             RT            RXO           NPHI           RHOB       VCALCITE        VQUARTZ            VSH          VCOAL         VORGSH           VGAS           VOIL         VWATER           PHIT           PHIE            SWE           PERM 
# ...
       6540.50      5095.0055        85.6551         1.4811         1.4157         0.3831         2.4233       0.000000       0.105504         0.8700       0.000000         0.0000      0.0018551      0.0000000       0.022613       0.024468       0.024468         0.9242         0.0463
       6541.00      5095.3816        91.1814         1.3873         1.3261         0.3944         2.4300       0.000000       0.057159         0.9296       0.000000         0.0000      0.0005330      0.0000000       0.012733       0.013266       0.013266         0.9598         0.0056
       6541.50      5095.7578        96.7077         1.2935         1.2364         0.3860         2.4233       0.000000       0.007017         0.9841       0.000000         0.0000      0.0001649      0.0000000       0.008692       0.008857       0.003906         0.9814         0.0025
       6542.00      5096.1339        91.9390         1.2364         1.1818         0.3954         2.4167       0.000000       0.043377         0.9366       0.000000         0.0000      0.0002647      0.0000000       0.019801       0.020065       0.017929         0.9868         0.0159
       6542.50      5096.5100        87.1704         1.2554         1.2675         0.3856         2.4100       0.000000       0.084599         0.8850       0.000000         0.0000      0.0013524      0.0000000       0.028999       0.030352       0.030352         0.9644         0.0972
       6543.00      5096.8862        82.4018         1.2745         1.3532         0.3367         2.4089       0.000000       0.137646         0.8255       0.000000         0.0000      0.0024036      0.0000000       0.034403       0.036807       0.036807         0.9735         0.1888
       6543.50      5097.2623        78.0147         1.2935         1.4187         0.2974         2.4078       0.000000       0.184866         0.7721       0.000000         0.0000      0.0032887      0.0000000       0.039710       0.042999       0.042999         0.9841         0.3224
       6544.00      5097.6384        73.6275         1.4573         1.4841         0.3135         2.4067       0.000000       0.219392         0.7308       0.000000         0.0000      0.0041416      0.0000000       0.045625       0.049767       0.049767         0.9366         0.5333
       6544.50      5098.0145        69.2404         1.6211         1.5495         0.3296         2.4183       0.000000       0.260164         0.6901       0.000000         0.0000      0.0035072      0.0000000       0.046218       0.049725       0.049725         0.9295         0.5318
       6545.00      5098.3906        73.6275         1.5853         1.5153         0.3457         2.4300       0.000000       0.223460         0.7391       0.000000         0.0000      0.0022031      0.0000000       0.035197       0.037400       0.037400         0.9411         0.1995
       6545.50      5098.7667        78.0147         1.5495         1.4811         0.3670         2.4200       0.000000       0.175139         0.7882       0.000000         0.0000      0.0030371      0.0000000       0.033661       0.036699       0.036699         0.9172         0.1869
       6546.00      5099.1428        82.4018         1.5005         1.4199         0.3882         2.4100       0.000000       0.126686         0.8371       0.000000         0.0000      0.0034894      0.0000000       0.032722       0.036211       0.036211         0.9036         0.1785
       6546.50      5099.5189        83.9489         1.4514         1.3587         0.4094         2.4000       0.000000       0.103201         0.8569       0.000000         0.0000      0.0038581      0.0001606       0.035838       0.039857       0.039857         0.8992         0.2483
       6547.00      5099.8950        85.4961         1.4023         1.2976         0.4069         2.3950       0.000000       0.087613         0.8718       0.000000         0.0000      0.0038162      0.0000000       0.036764       0.040580       0.038861         0.9060         0.2276
       6547.50      5100.2711        87.0433         1.3532         1.2364         0.4043         2.4000       0.000000       0.076704         0.8872       0.000000         0.0000      0.0025326      0.0000000       0.033529       0.036062       0.033749         0.9298         0.1401
       6548.00      5100.6471        89.4541         1.4425         1.3408         0.4017         2.4000       0.000000       0.056420         0.9115       0.000000         0.0000      0.0033654      0.0000000       0.028720       0.032085       0.025854         0.8951         0.0560
       6548.50      5101.0232        84.7914         1.5318         1.4451         0.3863         2.3833       0.000000       0.093763         0.8597       0.000000         0.0000      0.0069546      0.0000000       0.039620       0.046574       0.042928         0.8507         0.3206
       6549.00      5101.3993        80.1288         1.6211         1.5495         0.3708         2.3667       0.000000       0.131236         0.8081       0.000000         0.0000      0.0112253      0.0000000       0.049429       0.060654       0.060562         0.8149         0.1015
       6549.50      5101.7753        69.6378         1.5744         1.4841         0.3553         2.3500       0.000000       0.218978         0.6969       0.000000         0.0000      0.0133557      0.0000000       0.070797       0.084153       0.084153         0.8413         0.2716
       6550.00      5102.1513        59.1468         1.5278         1.4187         0.3398         2.2700       0.000000       0.277533         0.5837       0.000000         0.0000      0.0266855      0.0000000       0.112107       0.138792       0.138792         0.8077        18.2143
       6550.50      5102.5274        47.1299         1.4811         1.3532         0.3575         2.1900       0.000000       0.339504         0.4579       0.000000         0.0000      0.0221048      0.0207745       0.159742       0.202621       0.189815         0.7884        53.5160
       6551.00      5102.9034        35.1129         1.3314         1.2462         0.3752         2.1667       0.000000       0.424289         0.3316       0.000000         0.0000      0.0000000      0.0375577       0.206538       0.244096       0.238969         0.8461       118.2464
       6551.50      5103.2794        27.2924         1.1818         1.1392         0.3929         2.1433       0.000000       0.474363         0.2541       0.000000         0.0000      0.0000000      0.0257760       0.245744       0.271520       0.269615         0.9051       655.5069
       6552.00      5103.6555        19.4719         1.0321         1.0321         0.3733         2.1200       0.000000       0.532254         0.1682       0.000000         0.0000      0.0000000      0.0054421       0.294128       0.299570       0.299570         0.9818       893.7532
       6552.50      5104.0315        18.3910         1.0024         1.0024         0.3538         2.1233       0.000000       0.544619         0.1553       0.000000         0.0000      0.0000000      0.0000000       0.300070       0.300070       0.300070         1.0000       898.1466
       6553.00      5104.4075        17.3101         0.9727         0.9727         0.3342         2.1267       0.000000       0.553139         0.1465       0.000000         0.0000      0.0000000      0.0000000       0.300357       0.300357       0.300357         1.0000       900.6776
       6553.50      5104.7835        24.7491         0.9430         0.9430         0.3504         2.1300       0.000000       0.495130         0.2184       0.000000         0.0000      0.0000000      0.0000000       0.286465       0.286465       0.283831         1.0000       762.5085
       6554.00      5105.1595        32.1882         0.9886         1.0226         0.3666         2.2433       0.000000       0.468389         0.3197       0.000000         0.0000      0.0000000      0.0000000       0.211866       0.211866       0.211866         1.0000        78.1282
       6554.50      5105.5355        48.1684         1.0342         1.1022         0.3828         2.3567       0.000000       0.378793         0.4971       0.000000         0.0000      0.0000000      0.0000000       0.124150       0.124150       0.124150         1.0000        12.4087
