~Version Information Block
VERS .                  2.0:  CWLS LOG ASCII STANDARD - VERSION 2.0
WRAP .                   NO:  One line per depth step
~Well Information Block
#MNEM.UNIT        Data Type   Information
#---------- ----------------  -----------
STRT .FT               0.00:  START DEPTH
STOP .FT           11259.00:  STOP DEPTH
STEP .FT               0.50:  STEP
NULL .              -999.25:  NULL VALUE
COMP .                     :  COMPANY
WELL .                 SJ-6:  WELL
FLD  .                     :  FIELD
LOC  .                     :  LOCATION
CTRY .                     :  COUNTRY
STAT .                     :  STATE
CNTY .                     :  COUNTY
SRVC .                     :  SERVICE COMPANY
DATE .                     :  DATE
API  .                     :  API NUMBER
UWI  .                     :  UNIQUE WELL ID
~Curve Information Block
#MNEM.UNIT         API CODE   Curve Description
#---------- ----------------  -----------------
DEPTH.FT                   :  Gamma Ray
TVDSS.FT                   :  Reference TVD sub-sea log.
GR   .GAPI                 :  Gamma Ray
RT   .OHMM                 :  True Resistivity
RXO  .OHMM                 :  Flushed Zone Resistivity
NPHI .V/V                  :  Neutron Porosity
RHOB .G/C3                 :  Bulk Density
VCALCITE.V/V                  :  Calcite Volume Fraction
VQUARTZ.V/V                  :  Quartz Volume Fraction
VSH  .V/V                  :  Wet Cl/Sh 1 Volume Fraction
VCOAL.V/V                  :  Coal Volume Fraction
VORGSH.V/V                  :  Organic Shale Volume Fraction
VGAS .V/V                  :  X Gas Volume Fraction
VOIL .V/V                  :  X Oil Volume Fraction
VWATER.V/V                  :  X Water Volume Fraction
PHIT .V/V                  :  Total Porosity
PHIE .V/V                  :  Mahakam burial and vsh limited porosity
SWE  .V/V                  :  Effective Water Saturation
PERM .MD                   :  Permeability
~Parameter Information Block
#MNEM.UNIT            Value   Description
#---------- ----------------  -----------
PROJECT.            SEJADI_FE:  
~Other Information Block
# 
~A       DEPTH          TVDSS             GR             RT            RXO           NPHI           RHOB       VCALCITE        VQUARTZ            VSH          VCOAL         VORGSH           VGAS           VOIL         VWATER           PHIT           PHIE            SWE           PERM 
# ...
       7265.50      5629.8225        79.4664         2.2236         2.3263         0.3419         2.4633       0.000000       0.189985         0.8005       0.000000         0.0000      0.0017905      0.0000000       0.007771       0.009561       0.009561         0.8321         0.0018
       7266.00      5630.1941        83.2548         2.0228         2.1162         0.3772         2.4600       0.000000       0.146154         0.8466       0.000000         0.0000      0.0000000      0.0012179       0.006011       0.007229       0.007229         0.8505         0.0155
       7266.50      5630.5657        87.0433         1.8219         1.9061         0.3721         2.5233       0.000000       0.157092         0.8429       0.000000         0.0000      0.0000000      0.0000000       0.000000       0.000000       0.000000         1.0000         0.0000
       7267.00      5630.9372        88.6328         1.6211         1.6960         0.3670         2.5867       0.000000       0.187827         0.8122       0.000000         0.0000      0.0000000      0.0000000       0.000000       0.000000       0.000000         1.0000         0.0000
       7267.50      5631.3088        90.2223         1.6721         1.6243         0.3620         2.6500       0.000000       0.216066         0.7839       0.000000         0.0000      0.0000000      0.0000000       0.000000       0.000000       0.000000         1.0000         0.0000
       7268.00      5631.6804        91.8119         1.7232         1.5527         0.4003         2.5100       0.000000       0.101253         0.8987       0.000000         0.0000      0.0000000      0.0000000       0.000000       0.000000       0.000000         1.0000         0.0000
       7268.50      5632.0519        92.6225         1.7743         1.4811         0.4386         2.3700       0.000000       0.000000         0.0000       0.999990         0.0000      0.0000000      0.0000000       0.000010       0.000010       0.000010         1.0000         0.0000
       7269.00      5632.4235        93.4332         1.8302         1.4811         0.4769         2.2533       0.000000       0.000000         0.0000       0.999990         0.0000      0.0000000      0.0000000       0.000010       0.000010       0.000010         1.0000         0.0000
       7269.50      5632.7951        94.2439         1.8860         1.4811         0.6451         2.1367       0.000000       0.000000         0.0000       0.999990         0.0000      0.0000000      0.0000000       0.000010       0.000010       0.000010         1.0000         0.0000
       7270.00      5633.1666        83.8589         1.9419         1.4811         0.8133         2.0200       0.000000       0.000000         0.0000       0.999990         0.0000      0.0000000      0.0000000       0.000010       0.000010       0.000010         1.0000         0.0000
       7270.50      5633.5381        73.4739         2.6277         2.8324         0.9814         1.7933       0.000000       0.000000         0.0000       0.999990         0.0000      0.0000000      0.0000000       0.000010       0.000010       0.000010         1.0000         0.0000
       7271.00      5633.9095        63.0889         3.3134         4.1838         1.0304         1.5667       0.000000       0.000000         0.0000       0.999990         0.0000      0.0000000      0.0000000       0.000010       0.000010       0.000010         1.0000         0.0000
       7271.50      5634.2809        43.0209         3.9991         7.5083         1.0795         1.3400       0.000000       0.000000         0.0000       0.999990         0.0000      0.0000000      0.0000000       0.000010       0.000010       0.000010         1.0000         0.0000
       7272.00      5634.6523        22.9530         6.7874        10.8328         1.1285         1.3133       0.000000       0.000000         0.0000       0.999990         0.0000      0.0000000      0.0000000       0.000010       0.000010       0.000010         1.0000         0.0000
       7272.50      5635.0236        20.7276         9.5757        14.1573         1.0102         1.2867       0.000000       0.000000         0.0000       0.999990         0.0000      0.0000000      0.0000000       0.000010       0.000010       0.000010         1.0000         0.0000
       7273.00      5635.3949        18.5023        12.3639        11.2667         0.8919         1.2600       0.000000       0.000000         0.0000       0.999990         0.0000      0.0000000      0.0000000       0.000010       0.000010       0.000010         1.0000         0.0000
       7273.50      5635.7662        16.2769         9.4676         8.3761         0.7737         1.5567       0.000000       0.000000         0.0000       0.999990         0.0000      0.0000000      0.0000000       0.000010       0.000010       0.000010         1.0000         0.0000
       7274.00      5636.1374        33.2373         6.5712         5.4855         0.7982         1.8533       0.000000       0.000000         0.0000       0.999990         0.0000      0.0000000      0.0000000       0.000010       0.000010       0.000010         1.0000         0.0000
       7274.50      5636.5085        50.1977         7.2859         6.5805         0.8227         2.1500       0.000000       0.000000         0.0000       0.999990         0.0000      0.0000000      0.0000000       0.000010       0.000010       0.000010         1.0000         0.0000
       7275.00      5636.8797        67.1581         8.0006         7.6755         0.8471         1.8567       0.000000       0.000000         0.0000       0.999990         0.0000      0.0000000      0.0000000       0.000010       0.000010       0.000010         1.0000         0.0000
       7275.50      5637.2508        51.2627         8.7153         8.7705         0.8716         1.5633       0.000000       0.000000         0.0000       0.999990         0.0000      0.0000000      0.0000000       0.000010       0.000010       0.000010         1.0000         0.0000
       7276.00      5637.6218        35.3673         9.4300         9.8655         0.8033         1.2700       0.000000       0.000000         0.0000       0.999990         0.0000      0.0000000      0.0000000       0.000010       0.000010       0.000010         1.0000         0.0000
       7276.50      5637.9929        19.4719         8.9106         8.7674         0.7350         1.3833       0.000000       0.000000         0.0000       0.999990         0.0000      0.0000000      0.0000000       0.000010       0.000010       0.000010         1.0000         0.0000
       7277.00      5638.3639        29.0091         8.3912         7.6693         0.6667         1.4967       0.000000       0.000000         0.0000       0.999990         0.0000      0.0000000      0.0000000       0.000010       0.000010       0.000010         1.0000         0.0000
       7277.50      5638.7348        38.5464         7.8719         6.5712         0.5805         1.6100       0.000000       0.000000         0.0000       0.999990         0.0000      0.0000000      0.0000000       0.000010       0.000010       0.000010         1.0000         0.0000
       7278.00      5639.1057        48.0836         4.9987         4.3483         0.3401         1.8867       0.000000       0.000000         0.0000       0.999990         0.0000      0.0000000      0.0000000       0.000010       0.000010       0.000010         1.0000         0.0000
       7278.50      5639.4766        60.2913         2.1254         2.1254         0.2629         2.1633       0.000000       0.000000         0.0000       0.999990         0.0000      0.0000000      0.0000000       0.000010       0.000010       0.000010         1.0000         0.0000
       7279.00      5639.8474        72.4989         1.9499         1.6960         0.3017         2.4400       0.000000       0.276280         0.6732       0.000000         0.0000      0.0030933      0.0000000       0.047396       0.050490       0.050490         0.9387         0.5605
       7279.50      5640.2182        84.7066         1.7743         1.6025         0.3405         2.4867       0.000000       0.181237         0.8074       0.000000         0.0000      0.0000000      0.0000000       0.011324       0.011324       0.011324         1.0000         0.0033
