~Version Information Block
VERS .                  2.0:  CWLS LOG ASCII STANDARD - VERSION 2.0
WRAP .                   NO:  One line per depth step
~Well Information Block
#MNEM.UNIT        Data Type   Information
#---------- ----------------  -----------
STRT .FT               0.00:  START DEPTH
STOP .FT           11259.00:  STOP DEPTH
STEP .FT               0.50:  STEP
NULL .              -999.25:  NULL VALUE
COMP .                     :  COMPANY
WELL .                 SJ-6:  WELL
FLD  .                     :  FIELD
LOC  .                     :  LOCATION
CTRY .                     :  COUNTRY
STAT .                     :  STATE
CNTY .                     :  COUNTY
SRVC .                     :  SERVICE COMPANY
DATE .                     :  DATE
API  .                     :  API NUMBER
UWI  .                     :  UNIQUE WELL ID
~Curve Information Block
#MNEM.UNIT         API CODE   Curve Description
#---------- ----------------  -----------------
DEPTH.FT                   :  Gamma Ray
TVDSS.FT                   :  Reference TVD sub-sea log.
GR   .GAPI                 :  Gamma Ray
RT   .OHMM                 :  True Resistivity
RXO  .OHMM                 :  Flushed Zone Resistivity
NPHI .V/V                  :  Neutron Porosity
RHOB .G/C3                 :  Bulk Density
VCALCITE.V/V                  :  Calcite Volume Fraction
VQUARTZ.V/V                  :  Quartz Volume Fraction
VSH  .V/V                  :  Wet Cl/Sh 1 Volume Fraction
VCOAL.V/V                  :  Coal Volume Fraction
VORGSH.V/V                  :  Organic Shale Volume Fraction
VGAS .V/V                  :  X Gas Volume Fraction
VOIL .V/V                  :  X Oil Volume Fraction
VWATER.V/V                  :  X Water Volume Fraction
PHIT .V/V                  :  Total Porosity
PHIE .V/V                  :  Mahakam burial and vsh limited porosity
SWE  .V/V                  :  Effective Water Saturation
PERM .MD                   :  Permeability
~Parameter Information Block
#MNEM.UNIT            Value   Description
#---------- ----------------  -----------
PROJECT.            SEJADI_FE:  
~Other Information Block
# 
~A       DEPTH          TVDSS             GR             RT            RXO           NPHI           RHOB       VCALCITE        VQUARTZ            VSH          VCOAL         VORGSH           VGAS           VOIL         VWATER           PHIT           PHIE            SWE           PERM 
# ...
      11209.50      8624.5799        38.2890         3.9991         3.9991         0.1451         2.5150       0.000000       0.585646         0.3476       0.000000         0.0000      0.0000000      0.0000000       0.066762       0.066762       0.066762         1.0000         1.2196
      11210.00      8625.0568        47.8492         3.1910         3.0501         0.1637         2.5250       0.000000       0.469900         0.4769       0.000000         0.0000      0.0000000      0.0000000       0.053171       0.053171       0.053171         1.0000         0.3197
      11210.50      8625.5336        57.4095         2.9889         2.8569         0.1929         2.5250       0.000000       0.350802         0.6057       0.000000         0.0000      0.0025374      0.0000000       0.040951       0.043488       0.043488         0.9417         0.0980
      11211.00      8626.0105        71.5865         2.7868         2.6637         0.1844         2.5250       0.000000       0.172174         0.7970       0.000000         0.0000      0.0045427      0.0000000       0.026329       0.030872       0.030872         0.8529         0.0131
      11211.50      8626.4873        69.4655         2.7252         2.6637         0.2046         2.5300       0.000000       0.195159         0.7743       0.000000         0.0000      0.0037908      0.0000000       0.026757       0.030548       0.030548         0.8759         0.0123
      11212.00      8626.9642        70.5260         2.6637         2.6637         0.2025         2.5400       0.000000       0.187461         0.7881       0.000000         0.0000      0.0026904      0.0000000       0.021734       0.024424       0.024424         0.8950         0.0033
      11212.50      8627.4410        71.5865         2.6049         2.5487         0.1966         2.5400       0.000000       0.175681         0.8008       0.000000         0.0000      0.0023292      0.0000000       0.021218       0.023547       0.023547         0.9011         0.0027
      11213.00      8627.9179        75.9241         2.5461         2.4337         0.1934         2.5400       0.000000       0.121133         0.8589       0.000000         0.0000      0.0021751      0.0000000       0.017779       0.019954       0.019954         0.8910         0.0010
      11213.50      8628.3947        73.7553         2.5461         2.5461         0.2036         2.5350       0.000000       0.142997         0.8325       0.000000         0.0000      0.0029754      0.0000000       0.021554       0.024529       0.024529         0.8850         0.0034
      11214.00      8628.8716        71.5865         2.5461         2.4899         0.2207         2.5450       0.000000       0.170218         0.8082       0.000000         0.0000      0.0018335      0.0000000       0.019724       0.021558       0.021558         0.9149         0.0016
      11214.50      8629.3484        74.8636         2.5461         2.4337         0.2165         2.5450       0.000000       0.129587         0.8517       0.000000         0.0000      0.0018549      0.0000000       0.016883       0.018738       0.018738         0.9010         0.0007
      11215.00      8629.8253        78.1407         2.3849         2.3287         0.2297         2.5500       0.000000       0.085591         0.9006       0.000000         0.0000      0.0011776      0.0000000       0.012648       0.013825       0.013825         0.9148         0.0001
      11215.50      8630.3021        82.6697         2.2236         2.2236         0.2263         2.5400       0.000000       0.023322         0.9612       0.000000         0.0000      0.0015370      0.0000000       0.013946       0.015483       0.008930         0.9052         0.0000
      11216.00      8630.7789        79.2969         2.2236         2.2236         0.2211         2.5500       0.000000       0.073541         0.9137       0.000000         0.0000      0.0008083      0.0000000       0.011914       0.012722       0.012722         0.9397         0.0001
      11216.50      8631.2558        75.9241         2.2750         2.2750         0.2274         2.5650       0.000000       0.122676         0.8699       0.000000         0.0000      0.0001795      0.0000000       0.007294       0.007474       0.007474         0.9771         0.0000
      11217.00      8631.7326        77.0324         2.3263         2.3263         0.2369         2.5650       0.000000       0.105202         0.8880       0.000000         0.0000      0.0002971      0.0000000       0.006519       0.006816       0.006816         0.9573         0.0000
      11217.50      8632.2095        78.1407         2.3800         2.3800         0.2270         2.5700       0.000000       0.097047         0.9001       0.000000         0.0000      0.0001234      0.0000000       0.002679       0.002803       0.002803         0.9565         0.0000
      11218.00      8632.6863        75.9400         2.4337         2.4337         0.2180         2.5700       0.000000       0.128400         0.8672       0.000000         0.0000      0.0001773      0.0000000       0.004174       0.004351       0.004351         0.9601         0.0000
      11218.50      8633.1632        73.7393         2.3263         2.3263         0.2307         2.5600       0.000000       0.146944         0.8409       0.000000         0.0000      0.0004214      0.0000000       0.011737       0.012158       0.012158         0.9667         0.0001
      11219.00      8633.6400        80.3893         2.1790         2.1790         0.2465         2.5500       0.000000       0.050870         0.9366       0.000000         0.0000      0.0008149      0.0000000       0.011759       0.012574       0.012574         0.9373         0.0001
      11219.50      8634.1169        82.6857         2.0316         2.0316         0.2357         2.5650       0.000000       0.032907         0.9651       0.000000         0.0000      0.0000016      0.0000000       0.001989       0.001990       0.001990         0.9997         0.0000
      11220.00      8634.5937        84.9820         1.9868         1.9868      -999.2500         2.5800    -999.250000    -999.250000      -999.2500    -999.250000      -999.2500   -999.2500000   -999.2500000    -999.250000    -999.250000    -999.250000      -999.2500      -999.2500
      11220.50      8635.0706        83.8259         1.9419         1.9419      -999.2500         2.5800    -999.250000    -999.250000      -999.2500    -999.250000      -999.2500   -999.2500000   -999.2500000    -999.250000    -999.250000    -999.250000      -999.2500      -999.2500
      11221.00      8635.5474        82.6697         1.9419         1.8562      -999.2500         2.5700    -999.250000    -999.250000      -999.2500    -999.250000      -999.2500   -999.2500000   -999.2500000    -999.250000    -999.250000    -999.250000      -999.2500      -999.2500
      11221.50      8636.0243        81.5295         1.9868         1.9439      -999.2500         2.5750    -999.250000    -999.250000      -999.2500    -999.250000      -999.2500   -999.2500000   -999.2500000    -999.250000    -999.250000    -999.250000      -999.2500      -999.2500
      11222.00      8636.5011        80.3893         2.0316         2.0316      -999.2500         2.5750    -999.250000    -999.250000      -999.2500    -999.250000      -999.2500   -999.2500000   -999.2500000    -999.250000    -999.250000    -999.250000      -999.2500      -999.2500
      11222.50      8636.9780        80.3893      -999.2500      -999.2500      -999.2500         2.5600    -999.250000    -999.250000      -999.2500    -999.250000      -999.2500   -999.2500000   -999.2500000    -999.250000    -999.250000    -999.250000      -999.2500      -999.2500
      11223.00      8637.4549        79.2650      -999.2500      -999.2500      -999.2500         2.5300    -999.250000    -999.250000      -999.2500    -999.250000      -999.2500   -999.2500000   -999.2500000    -999.250000    -999.250000    -999.250000      -999.2500      -999.2500
      11223.50      8637.9317        78.1407      -999.2500      -999.2500      -999.2500         2.5350    -999.250000    -999.250000      -999.2500    -999.250000      -999.2500   -999.2500000   -999.2500000    -999.250000    -999.250000    -999.250000      -999.2500      -999.2500
