~Version Information Block
VERS .                  2.0:  CWLS LOG ASCII STANDARD - VERSION 2.0
WRAP .                   NO:  One line per depth step
~Well Information Block
#MNEM.UNIT        Data Type   Information
#---------- ----------------  -----------
STRT .FT               0.00:  START DEPTH
STOP .FT           11259.00:  STOP DEPTH
STEP .FT               0.50:  STEP
NULL .              -999.25:  NULL VALUE
COMP .                     :  COMPANY
WELL .                 SJ-6:  WELL
FLD  .                     :  FIELD
LOC  .                     :  LOCATION
CTRY .                     :  COUNTRY
STAT .                     :  STATE
CNTY .                     :  COUNTY
SRVC .                     :  SERVICE COMPANY
DATE .                     :  DATE
API  .                     :  API NUMBER
UWI  .                     :  UNIQUE WELL ID
~Curve Information Block
#MNEM.UNIT         API CODE   Curve Description
#---------- ----------------  -----------------
DEPTH.FT                   :  Gamma Ray
TVDSS.FT                   :  Reference TVD sub-sea log.
GR   .GAPI                 :  Gamma Ray
RT   .OHMM                 :  True Resistivity
RXO  .OHMM                 :  Flushed Zone Resistivity
NPHI .V/V                  :  Neutron Porosity
RHOB .G/C3                 :  Bulk Density
VCALCITE.V/V                  :  Calcite Volume Fraction
VQUARTZ.V/V                  :  Quartz Volume Fraction
VSH  .V/V                  :  Wet Cl/Sh 1 Volume Fraction
VCOAL.V/V                  :  Coal Volume Fraction
VORGSH.V/V                  :  Organic Shale Volume Fraction
VGAS .V/V                  :  X Gas Volume Fraction
VOIL .V/V                  :  X Oil Volume Fraction
VWATER.V/V                  :  X Water Volume Fraction
PHIT .V/V                  :  Total Porosity
PHIE .V/V                  :  Mahakam burial and vsh limited porosity
SWE  .V/V                  :  Effective Water Saturation
PERM .MD                   :  Permeability
~Parameter Information Block
#MNEM.UNIT            Value   Description
#---------- ----------------  -----------
PROJECT.            SEJADI_FE:  
~Other Information Block
# 
~A       DEPTH          TVDSS             GR             RT            RXO           NPHI           RHOB       VCALCITE        VQUARTZ            VSH          VCOAL         VORGSH           VGAS           VOIL         VWATER           PHIT           PHIE            SWE           PERM 
# ...
       6903.00      5362.8622        28.8104         1.6977         1.5853         0.3263         2.1500       0.000000       0.486117         0.2569       0.000000         0.0000      0.0048098      0.0522074       0.199943       0.256960       0.256960         0.7781       151.8138
       6903.50      5363.2268        27.1215         1.7360         1.5674         0.3279         2.1600       0.000000       0.504281         0.2395       0.000000         0.0000      0.0000000      0.0530313       0.203144       0.256175       0.256175         0.7930       150.2234
       6904.00      5363.5914        25.4326         1.7743         1.5495         0.3248         2.1433       0.000000       0.512042         0.2204       0.000000         0.0000      0.0000000      0.0577355       0.209865       0.267601       0.267601         0.7842       641.1992
       6904.50      5363.9560        26.3016         1.7010         1.5267         0.3218         2.1267       0.000000       0.498254         0.2301       0.000000         0.0000      0.0099756      0.0501547       0.211558       0.271688       0.271688         0.7787       670.4504
       6905.00      5364.3205        27.1705         1.6277         1.5039         0.3187         2.1100       0.000000       0.484556         0.2401       0.000000         0.0000      0.0213715      0.0406809       0.213246       0.275299       0.272235         0.7746       674.4264
       6905.50      5364.6851        28.0395         1.5544         1.4811         0.3400         2.1525       0.000000       0.489126         0.2509       0.000000         0.0000      0.0000000      0.0497871       0.210143       0.259930       0.259930         0.8085       157.9397
       6906.00      5365.0497        38.4086         1.4811         1.6187         0.3613         2.1950       0.000000       0.415407         0.3646       0.000000         0.0000      0.0000000      0.0508952       0.169093       0.219988       0.219988         0.8027        88.9298
       6906.50      5365.4143        48.7777         1.6959         1.7564         0.3826         2.2375       0.000000       0.341109         0.4783       0.000000         0.0000      0.0000000      0.0488511       0.131707       0.180558       0.179992         0.7414        44.5697
       6907.00      5365.7789        59.1468         1.9107         1.8940         0.3578         2.2800       0.000000       0.279480         0.5867       0.000000         0.0000      0.0199911      0.0178038       0.096014       0.133809       0.133809         0.7175        16.0601
       6907.50      5366.1436        47.4902         2.1254         2.0316         0.3330         2.2300       0.000000       0.364515         0.4595       0.000000         0.0000      0.0229932      0.0314815       0.121484       0.175958       0.175958         0.6904        41.2245
       6908.00      5366.5082        35.8335         1.8680         1.8055         0.3082         2.1800       0.000000       0.447116         0.3325       0.000000         0.0000      0.0264114      0.0297848       0.164145       0.220342       0.220342         0.7450        89.4231
       6908.50      5366.8728        24.1769         1.6106         1.5794         0.3172         2.1300       0.000000       0.518435         0.2065       0.000000         0.0000      0.0057925      0.0503730       0.218910       0.275076       0.275076         0.7958       695.3479
       6909.00      5367.2375        25.0247         1.3532         1.3532         0.3262         2.1425       0.000000       0.511791         0.2163       0.000000         0.0000      0.0000000      0.0375919       0.234325       0.271917       0.271917         0.8618       672.1104
       6909.50      5367.6021        25.8724         1.2787         1.2787         0.3353         2.1550       0.000000       0.507168         0.2279       0.000000         0.0000      0.0000000      0.0287256       0.236219       0.264944       0.264944         0.8916       622.6487
       6910.00      5367.9668        26.7202         1.2042         1.2042         0.3443         2.1675       0.000000       0.502524         0.2395       0.000000         0.0000      0.0000000      0.0196194       0.238392       0.258012       0.258012         0.9240       153.9630
       6910.50      5368.3314        26.3983         1.1296         1.1296         0.3374         2.1800       0.000000       0.511438         0.2355       0.000000         0.0000      0.0000000      0.0073844       0.245630       0.253014       0.253014         0.9708       143.9374
       6911.00      5368.6961        26.0764         1.1843         1.1652         0.3305         2.2000       0.000000       0.525441         0.2323       0.000000         0.0000      0.0000000      0.0038592       0.238391       0.242250       0.242250         0.9841       123.9295
       6911.50      5369.0608        25.7545         1.2389         1.2008         0.3236         2.2200       0.000000       0.539427         0.2291       0.000000         0.0000      0.0000000      0.0001233       0.231394       0.231518       0.231518         0.9995       106.0288
       6912.00      5369.4255        25.4326         1.2935         1.2364         0.3208         2.2400       0.000000       0.549586         0.2296       0.000000         0.0000      0.0000000      0.0000000       0.220781       0.220781       0.220781         1.0000        90.0385
       6912.50      5369.7902        24.5147         1.2389         1.2008         0.3179         2.2233       0.000000       0.549944         0.2183       0.000000         0.0000      0.0000000      0.0000000       0.231799       0.231799       0.231799         1.0000       106.4734
       6913.00      5370.1549        23.5967         1.1843         1.1652         0.3151         2.2067       0.000000       0.550077         0.2071       0.000000         0.0000      0.0000000      0.0000000       0.242845       0.242845       0.242845         1.0000       124.9804
       6913.50      5370.5196        22.6788         1.1296         1.1296         0.3150         2.1900       0.000000       0.549444         0.1966       0.000000         0.0000      0.0000000      0.0000000       0.253962       0.253962       0.253962         1.0000       145.8026
       6914.00      5370.8843        21.7608         1.2042         1.2042         0.3092         2.1800       0.000000       0.558125         0.1821       0.000000         0.0000      0.0000000      0.0048186       0.254947       0.259766       0.259766         0.9815       157.5968
       6914.50      5371.2490        23.8537         1.2787         1.2787         0.3215         2.1700       0.000000       0.534155         0.2054       0.000000         0.0000      0.0000000      0.0194351       0.240966       0.260401       0.260401         0.9254       158.9271
       6915.00      5371.6138        25.9466         1.3532         1.3532         0.3384         2.1600       0.000000       0.508921         0.2298       0.000000         0.0000      0.0000000      0.0331140       0.228157       0.261271       0.261271         0.8733       597.5825
       6915.50      5371.9785        28.0395         1.3532         1.3532         0.3299         2.1575       0.000000       0.492093         0.2490       0.000000         0.0000      0.0000000      0.0363889       0.222561       0.258950       0.258950         0.8595       155.8981
       6916.00      5372.3433        25.9466         1.3333         1.3143         0.3214         2.1550       0.000000       0.510357         0.2255       0.000000         0.0000      0.0000000      0.0317383       0.232355       0.264093       0.264093         0.8798       616.7800
       6916.50      5372.7080        23.8537         1.3134         1.2753         0.3129         2.1525       0.000000       0.528594         0.2023       0.000000         0.0000      0.0005941      0.0259707       0.242522       0.269087       0.269087         0.9013       651.7341
       6917.00      5373.0728        21.7608         1.2935         1.2364         0.3104         2.1500       0.000000       0.545305         0.1801       0.000000         0.0000      0.0000000      0.0215674       0.253059       0.274627       0.274627         0.9215       692.0119
