~Version Information Block
VERS .                  2.0:  CWLS LOG ASCII STANDARD - VERSION 2.0
WRAP .                   NO:  One line per depth step
~Well Information Block
#MNEM.UNIT        Data Type   Information
#---------- ----------------  -----------
STRT .FT               0.00:  START DEPTH
STOP .FT           11259.00:  STOP DEPTH
STEP .FT               0.50:  STEP
NULL .              -999.25:  NULL VALUE
COMP .                     :  COMPANY
WELL .                 SJ-6:  WELL
FLD  .                     :  FIELD
LOC  .                     :  LOCATION
CTRY .                     :  COUNTRY
STAT .                     :  STATE
CNTY .                     :  COUNTY
SRVC .                     :  SERVICE COMPANY
DATE .                     :  DATE
API  .                     :  API NUMBER
UWI  .                     :  UNIQUE WELL ID
~Curve Information Block
#MNEM.UNIT         API CODE   Curve Description
#---------- ----------------  -----------------
DEPTH.FT                   :  Gamma Ray
TVDSS.FT                   :  Reference TVD sub-sea log.
GR   .GAPI                 :  Gamma Ray
RT   .OHMM                 :  True Resistivity
RXO  .OHMM                 :  Flushed Zone Resistivity
NPHI .V/V                  :  Neutron Porosity
RHOB .G/C3                 :  Bulk Density
VCALCITE.V/V                  :  Calcite Volume Fraction
VQUARTZ.V/V                  :  Quartz Volume Fraction
VSH  .V/V                  :  Wet Cl/Sh 1 Volume Fraction
VCOAL.V/V                  :  Coal Volume Fraction
VORGSH.V/V                  :  Organic Shale Volume Fraction
VGAS .V/V                  :  X Gas Volume Fraction
VOIL .V/V                  :  X Oil Volume Fraction
VWATER.V/V                  :  X Water Volume Fraction
PHIT .V/V                  :  Total Porosity
PHIE .V/V                  :  Mahakam burial and vsh limited porosity
SWE  .V/V                  :  Effective Water Saturation
PERM .MD                   :  Permeability
~Parameter Information Block
#MNEM.UNIT            Value   Description
#---------- ----------------  -----------
PROJECT.            SEJADI_FE:  
~Other Information Block
# 
~A       DEPTH          TVDSS             GR             RT            RXO           NPHI           RHOB       VCALCITE        VQUARTZ            VSH          VCOAL         VORGSH           VGAS           VOIL         VWATER           PHIT           PHIE            SWE           PERM 
# ...
      10136.50      7658.8690        73.8829         3.1910         3.1910         0.2620         2.5200       0.000000       0.245007         0.7251       0.000000         0.0000      0.0051051      0.0000000       0.024788       0.029893       0.029893         0.8360         0.0922
      10137.00      7659.2652        80.3893         3.1910         3.1910         0.2508         2.5300       0.000000       0.191389         0.7889       0.000000         0.0000      0.0035610      0.0000000       0.016146       0.019707       0.019707         0.8271         0.0220
      10137.50      7659.6614        77.4550         3.1910         3.1910         0.2395         2.5400       0.000000       0.226398         0.7572       0.000000         0.0000      0.0023653      0.0000000       0.014004       0.016369       0.016369         0.8622         0.0116
      10138.00      7660.0576        74.5207         3.2647         3.1910         0.2283         2.5500       0.000000       0.261495         0.7256       0.000000         0.0000      0.0013637      0.0000000       0.011567       0.012930       0.012930         0.8945         0.0052
      10138.50      7660.4540        71.5865         3.3383         3.1910         0.2474         2.5600       0.000000       0.289154         0.7007       0.000000         0.0000      0.0007461      0.0000000       0.009430       0.010176       0.010176         0.9267         0.0023
      10139.00      7660.8504        77.1281         3.0625         3.0532         0.2699         2.5633       0.000000       0.233085         0.7621       0.000000         0.0000      0.0003426      0.0000000       0.004442       0.004785       0.004785         0.9284         0.0046
      10139.50      7661.2469        82.6697         2.7868         2.9155         0.2625         2.5667       0.000000       0.184254         0.8157       0.000000         0.0000      0.0000000      0.0000000       0.000000       0.000000       0.000000         1.0000         0.0000
      10140.00      7661.6434        81.9096         2.8394         2.9155         0.2552         2.5700       0.000000       0.194584         0.8054       0.000000         0.0000      0.0000000      0.0000000       0.000000       0.000000       0.000000         1.0000         0.0000
      10140.50      7662.0401        81.1494         2.8921         2.9155         0.2478         2.5550       0.000000       0.196806         0.7974       0.000000         0.0000      0.0004888      0.0000000       0.005259       0.005747       0.005747         0.9212         0.0079
      10141.00      7662.4368        80.3893         2.9448         2.9155         0.2578         2.5400       0.000000       0.194192         0.7910       0.000000         0.0000      0.0018097      0.0000000       0.012970       0.014780       0.014780         0.8786         0.0082
      10141.50      7662.8335        78.1567         2.9974         3.0532         0.2648         2.5600       0.000000       0.223090         0.7712       0.000000         0.0000      0.0004797      0.0000000       0.005225       0.005704       0.005704         0.9259         0.0077
      10142.00      7663.2304        75.9241         3.0501         3.1910         0.2391         2.5800       0.000000       0.259476         0.7405       0.000000         0.0000      0.0000000      0.0000000       0.000000       0.000000       0.000000         1.0000         0.0000
      10142.50      7663.6273        76.6630         3.0052         3.1440         0.2185         2.5767       0.000000       0.256293         0.7437       0.000000         0.0000      0.0000000      0.0000000       0.000000       0.000000       0.000000         1.0000         0.0000
      10143.00      7664.0242        77.4018         2.9603         3.0970         0.2176         2.5733       0.000000       0.248204         0.7518       0.000000         0.0000      0.0000000      0.0000000       0.000000       0.000000       0.000000         1.0000         0.0000
      10143.50      7664.4213        78.1407         2.9155         3.0501         0.2166         2.5700       0.000000       0.240143         0.7599       0.000000         0.0000      0.0000000      0.0000000       0.000000       0.000000       0.000000         1.0000         0.0000
      10144.00      7664.8184        74.8636         2.9828         3.0501         0.2157         2.5550       0.000000       0.263812         0.7265       0.000000         0.0000      0.0006508      0.0000000       0.008988       0.009639       0.009639         0.9481         0.0019
      10144.50      7665.2156        71.5865         3.0501         3.0501         0.2325         2.5400       0.000000       0.282971         0.6962       0.000000         0.0000      0.0019228      0.0000000       0.018881       0.020803       0.020803         0.9148         0.0265
      10145.00      7665.6128        74.8636         3.0052         3.0052         0.2502         2.5533       0.000000       0.254362         0.7341       0.000000         0.0000      0.0008577      0.0000000       0.010650       0.011508       0.011508         0.9288         0.0034
      10145.50      7666.0102        78.1407         2.9603         2.9603         0.2499         2.5667       0.000000       0.230292         0.7682       0.000000         0.0000      0.0000665      0.0000000       0.001452       0.001518       0.001518         0.9567         0.0002
      10146.00      7666.4076        77.4018         2.9155         2.9155         0.2497         2.5800       0.000000       0.242733         0.7573       0.000000         0.0000      0.0000000      0.0000000       0.000000       0.000000       0.000000         1.0000         0.0000
      10146.50      7666.8050        76.6630         2.9155         2.9155         0.2494         2.5700       0.000000       0.245956         0.7533       0.000000         0.0000      0.0000125      0.0000000       0.000705       0.000717       0.000717         1.0000         0.0000
      10147.00      7667.2025        75.9241         2.9155         2.9155         0.2493         2.5600       0.000000       0.247877         0.7451       0.000000         0.0000      0.0003300      0.0000000       0.006668       0.006998       0.006998         0.9550         0.0141
      10147.50      7667.6002        77.0324         2.8315         2.8726         0.2484         2.5600       0.000000       0.237713         0.7562       0.000000         0.0000      0.0002776      0.0000000       0.005836       0.006114       0.006114         0.9636         0.0095
      10148.00      7667.9978        78.1407         2.7476         2.8296         0.2473         2.5600       0.000000       0.227600         0.7672       0.000000         0.0000      0.0002250      0.0000000       0.004994       0.005219       0.005219         0.9731         0.0060
      10148.50      7668.3956        75.9560         2.6637         2.7868         0.2462         2.5600       0.000000       0.248328         0.7448       0.000000         0.0000      0.0001703      0.0000000       0.006731       0.006901       0.006901         1.0000         0.0136
      10149.00      7668.7934        73.7712         2.7896         2.8511         0.2451         2.5450       0.000000       0.261690         0.7214       0.000000         0.0000      0.0010987      0.0000000       0.015799       0.016898       0.016898         0.9506         0.0129
      10149.50      7669.1913        71.5865         2.9155         2.9155         0.2367         2.5300       0.000000       0.277005         0.6966       0.000000         0.0000      0.0025600      0.0000000       0.023840       0.026400       0.026400         0.9118         0.0601
      10150.00      7669.5892        74.8636         2.9155         2.9155         0.2279         2.5333       0.000000       0.250105         0.7280       0.000000         0.0000      0.0023285      0.0000000       0.019531       0.021860       0.021860         0.9032         0.0314
      10150.50      7669.9872        78.1407         2.9155         2.9155         0.2544         2.5367       0.000000       0.214512         0.7673       0.000000         0.0000      0.0021705      0.0000000       0.016005       0.018176       0.018176         0.8868         0.0166
