~Version Information Block
VERS .                  2.0:  CWLS LOG ASCII STANDARD - VERSION 2.0
WRAP .                   NO:  One line per depth step
~Well Information Block
#MNEM.UNIT        Data Type   Information
#---------- ----------------  -----------
STRT .FT               0.00:  START DEPTH
STOP .FT           11259.00:  STOP DEPTH
STEP .FT               0.50:  STEP
NULL .              -999.25:  NULL VALUE
COMP .                     :  COMPANY
WELL .                 SJ-6:  WELL
FLD  .                     :  FIELD
LOC  .                     :  LOCATION
CTRY .                     :  COUNTRY
STAT .                     :  STATE
CNTY .                     :  COUNTY
SRVC .                     :  SERVICE COMPANY
DATE .                     :  DATE
API  .                     :  API NUMBER
UWI  .                     :  UNIQUE WELL ID
~Curve Information Block
#MNEM.UNIT         API CODE   Curve Description
#---------- ----------------  -----------------
DEPTH.FT                   :  Gamma Ray
TVDSS.FT                   :  Reference TVD sub-sea log.
GR   .GAPI                 :  Gamma Ray
RT   .OHMM                 :  True Resistivity
RXO  .OHMM                 :  Flushed Zone Resistivity
NPHI .V/V                  :  Neutron Porosity
RHOB .G/C3                 :  Bulk Density
VCALCITE.V/V                  :  Calcite Volume Fraction
VQUARTZ.V/V                  :  Quartz Volume Fraction
VSH  .V/V                  :  Wet Cl/Sh 1 Volume Fraction
VCOAL.V/V                  :  Coal Volume Fraction
VORGSH.V/V                  :  Organic Shale Volume Fraction
VGAS .V/V                  :  X Gas Volume Fraction
VOIL .V/V                  :  X Oil Volume Fraction
VWATER.V/V                  :  X Water Volume Fraction
PHIT .V/V                  :  Total Porosity
PHIE .V/V                  :  Mahakam burial and vsh limited porosity
SWE  .V/V                  :  Effective Water Saturation
PERM .MD                   :  Permeability
~Parameter Information Block
#MNEM.UNIT            Value   Description
#---------- ----------------  -----------
PROJECT.            SEJADI_FE:  
~Other Information Block
# 
~A       DEPTH          TVDSS             GR             RT            RXO           NPHI           RHOB       VCALCITE        VQUARTZ            VSH          VCOAL         VORGSH           VGAS           VOIL         VWATER           PHIT           PHIE            SWE           PERM 
# ...
       7628.00      5888.6064        12.3931        15.1531        18.6005         0.8873         1.3033       0.000000       0.000000         0.0000       0.999990         0.0000      0.0000000      0.0000000       0.000010       0.000010       0.000010         1.0000         0.0000
       7628.50      5888.9478         9.9346        15.4952        17.7427         0.7708         1.3367       0.000000       0.000000         0.0000       0.999990         0.0000      0.0000000      0.0000000       0.000010       0.000010       0.000010         1.0000         0.0000
       7629.00      5889.2891        22.0734        12.9541        13.8298         0.6543         1.3700       0.000000       0.000000         0.0000       0.999990         0.0000      0.0000000      0.0000000       0.000010       0.000010       0.000010         1.0000         0.0000
       7629.50      5889.6303        34.2122        10.4130         9.9168         0.5379         1.5700       0.000000       0.000000         0.0000       0.999990         0.0000      0.0000000      0.0000000       0.000010       0.000010       0.000010         1.0000         0.0000
       7630.00      5889.9716        46.3510         7.8719         6.0039         0.5179         1.7700       0.000000       0.000000         0.0000       0.999990         0.0000      0.0000000      0.0000000       0.000010       0.000010       0.000010         1.0000         0.0000
       7630.50      5890.3127        50.6163         6.7743         5.4616         0.4980         1.9700       0.000000       0.000000         0.0000       0.999990         0.0000      0.0000000      0.0000000       0.000010       0.000010       0.000010         1.0000         0.0000
       7631.00      5890.6539        54.8815         5.6767         4.9193         0.4781         2.1467       0.000000       0.000000         0.0000       0.999990         0.0000      0.0000000      0.0000000       0.000010       0.000010       0.000010         1.0000         0.0000
       7631.50      5890.9950        59.1468         4.5791         4.3770         0.2999         2.3233       0.000000       0.000000         0.0000       0.999990         0.0000      0.0000000      0.0000000       0.000010       0.000010       0.000010         1.0000         0.0000
       7632.00      5891.3361        66.3236         3.9587         3.8577         0.1755         2.5000       0.000000       0.393349         0.5855       0.000000         0.0000      0.0044261      0.0000000       0.016692       0.021118       0.021118         0.7942         0.0279
       7632.50      5891.6771        73.5004         3.3383         3.3383         0.2345         2.4633       0.000000       0.297979         0.6697       0.000000         0.0000      0.0086157      0.0000000       0.023660       0.032275       0.032275         0.7463         0.1201
       7633.00      5892.0181        74.9628         3.0596         2.9668         0.2937         2.4267       0.000000       0.253508         0.6971       0.000000         0.0000      0.0141897      0.0000000       0.035187       0.049376       0.049376         0.7126         0.5191
       7633.50      5892.3590        76.4251         2.7810         2.5952         0.3527         2.3900       0.000000       0.209219         0.7245       0.000000         0.0000      0.0198543      0.0000000       0.046427       0.066281       0.066281         0.7005         0.1329
       7634.00      5892.6999        77.8875         2.5023         2.2236         0.3354         2.4300       0.000000       0.218047         0.7354       0.000000         0.0000      0.0097324      0.0000000       0.036801       0.046533       0.046533         0.7909         0.4232
       7634.50      5893.0407        80.1605         2.2236         2.2236         0.3182         2.4700       0.000000       0.220928         0.7553       0.000000         0.0000      0.0030661      0.0000000       0.020671       0.023737       0.023737         0.8737         0.0417
       7635.00      5893.3816        82.4336         2.2236         2.2236         0.3009         2.5100       0.000000       0.225334         0.7747       0.000000         0.0000      0.0000000      0.0000000       0.000000       0.000000       0.000000         1.0000         0.0000
       7635.50      5893.7223        84.7066         2.2236         2.2236         0.3014         2.5400       0.000000       0.223785         0.7762       0.000000         0.0000      0.0000000      0.0000000       0.000000       0.000000       0.000000         1.0000         0.0000
       7636.00      5894.0631        85.4855         2.2236         2.2236         0.3019         2.5700       0.000000       0.235162         0.7648       0.000000         0.0000      0.0000000      0.0000000       0.000000       0.000000       0.000000         1.0000         0.0000
       7636.50      5894.4038        86.2644         2.2236         2.2236         0.3024         2.5467       0.000000       0.214113         0.7859       0.000000         0.0000      0.0000000      0.0000000       0.000000       0.000000       0.000000         1.0000         0.0000
       7637.00      5894.7444        87.0433         2.2236         2.2236         0.2985         2.5233       0.000000       0.194153         0.8058       0.000000         0.0000      0.0000000      0.0000000       0.000000       0.000000       0.000000         1.0000         0.0000
       7637.50      5895.0850        87.0433         2.2236         2.2236         0.2946         2.5000       0.000000       0.180931         0.8191       0.000000         0.0000      0.0000000      0.0000000       0.000000       0.000000       0.000000         1.0000         0.0000
       7638.00      5895.4256        87.0433         2.1909         2.1909         0.2907         2.5033       0.000000       0.183907         0.8161       0.000000         0.0000      0.0000000      0.0000000       0.000000       0.000000       0.000000         1.0000         0.0000
       7638.50      5895.7662        87.0433         2.1582         2.1582         0.2969         2.5067       0.000000       0.184432         0.8156       0.000000         0.0000      0.0000000      0.0000000       0.000000       0.000000       0.000000         1.0000         0.0000
       7639.00      5896.1066        85.4961         2.1254         2.1254         0.3030         2.5100       0.000000       0.198318         0.8017       0.000000         0.0000      0.0000000      0.0000000       0.000000       0.000000       0.000000         1.0000         0.0000
       7639.50      5896.4471        83.9489         2.2282         2.2282         0.3092         2.5000       0.000000       0.204553         0.7927       0.000000         0.0000      0.0002011      0.0000000       0.002587       0.002788       0.002788         0.9284         0.0009
       7640.00      5896.7875        82.4018         2.3310         2.3310         0.2944         2.4900       0.000000       0.216778         0.7733       0.000000         0.0000      0.0011001      0.0000000       0.008800       0.009900       0.009900         0.8915         0.0021
       7640.50      5897.1279        82.4018         2.4337         2.4337         0.2796         2.4800       0.000000       0.215421         0.7696       0.000000         0.0000      0.0022475      0.0000000       0.012760       0.015008       0.015008         0.8556         0.0086
       7641.00      5897.4682        82.4018         2.4712         2.5104         0.2649         2.4833       0.000000       0.220670         0.7663       0.000000         0.0000      0.0019914      0.0000000       0.010995       0.012987       0.012987         0.8591         0.0052
       7641.50      5897.8085        80.1605         2.5087         2.5871         0.2664         2.4867       0.000000       0.241862         0.7443       0.000000         0.0000      0.0020981      0.0000000       0.011708       0.013806       0.013806         0.8665         0.0065
       7642.00      5898.1487        77.9193         2.5461         2.6637         0.2679         2.4900       0.000000       0.263047         0.7223       0.000000         0.0000      0.0021841      0.0000000       0.012448       0.014632       0.014632         0.8750         0.0079
