~Version Information Block
VERS .                  2.0:  CWLS LOG ASCII STANDARD - VERSION 2.0
WRAP .                   NO:  One line per depth step
~Well Information Block
#MNEM.UNIT        Data Type   Information
#---------- ----------------  -----------
STRT .FT               0.00:  START DEPTH
STOP .FT           11259.00:  STOP DEPTH
STEP .FT               0.50:  STEP
NULL .              -999.25:  NULL VALUE
COMP .                     :  COMPANY
WELL .                 SJ-6:  WELL
FLD  .                     :  FIELD
LOC  .                     :  LOCATION
CTRY .                     :  COUNTRY
STAT .                     :  STATE
CNTY .                     :  COUNTY
SRVC .                     :  SERVICE COMPANY
DATE .                     :  DATE
API  .                     :  API NUMBER
UWI  .                     :  UNIQUE WELL ID
~Curve Information Block
#MNEM.UNIT         API CODE   Curve Description
#---------- ----------------  -----------------
DEPTH.FT                   :  Gamma Ray
TVDSS.FT                   :  Reference TVD sub-sea log.
GR   .GAPI                 :  Gamma Ray
RT   .OHMM                 :  True Resistivity
RXO  .OHMM                 :  Flushed Zone Resistivity
NPHI .V/V                  :  Neutron Porosity
RHOB .G/C3                 :  Bulk Density
VCALCITE.V/V                  :  Calcite Volume Fraction
VQUARTZ.V/V                  :  Quartz Volume Fraction
VSH  .V/V                  :  Wet Cl/Sh 1 Volume Fraction
VCOAL.V/V                  :  Coal Volume Fraction
VORGSH.V/V                  :  Organic Shale Volume Fraction
VGAS .V/V                  :  X Gas Volume Fraction
VOIL .V/V                  :  X Oil Volume Fraction
VWATER.V/V                  :  X Water Volume Fraction
PHIT .V/V                  :  Total Porosity
PHIE .V/V                  :  Mahakam burial and vsh limited porosity
SWE  .V/V                  :  Effective Water Saturation
PERM .MD                   :  Permeability
~Parameter Information Block
#MNEM.UNIT            Value   Description
#---------- ----------------  -----------
PROJECT.            SEJADI_FE:  
~Other Information Block
# 
~A       DEPTH          TVDSS             GR             RT            RXO           NPHI           RHOB       VCALCITE        VQUARTZ            VSH          VCOAL         VORGSH           VGAS           VOIL         VWATER           PHIT           PHIE            SWE           PERM 
# ...
       8338.50      6377.3605        96.7077         1.6844         1.5885         0.4347         2.4300       0.000000       0.025479         0.9453       0.000000         0.0000      0.0000000      0.0036547       0.025601       0.029256       0.014442         0.8751         0.0075
       8339.00      6377.7130        93.0636         1.6394         1.5348         0.4075         2.4367       0.000000       0.067964         0.9033       0.000000         0.0000      0.0025565      0.0000000       0.026132       0.028689       0.026994         0.9109         0.0649
       8339.50      6378.0654        89.4196         1.5945         1.4811         0.3847         2.4433       0.000000       0.108744         0.8618       0.000000         0.0000      0.0015830      0.0000000       0.027903       0.029486       0.029486         0.9463         0.0880
       8340.00      6378.4179        96.7077         1.5495         1.4811         0.3613         2.4500       0.000000       0.053138         0.9305       0.000000         0.0000      0.0006721      0.0000000       0.015651       0.016323       0.016323         0.9588         0.0115
       8340.50      6378.7704        94.2598         1.5853         1.4811         0.3693         2.4400       0.000000       0.067907         0.9071       0.000000         0.0000      0.0016270      0.0000000       0.023371       0.024998       0.024998         0.9349         0.0498
       8341.00      6379.1229        91.8119         1.6211         1.4811         0.3774         2.4300       0.000000       0.082772         0.8838       0.000000         0.0000      0.0028474      0.0000000       0.030596       0.033444       0.033060         0.9149         0.1304
       8341.50      6379.4754        89.4276         1.6585         1.5153         0.3855         2.4533       0.000000       0.113599         0.8625       0.000000         0.0000      0.0011655      0.0000000       0.022760       0.023925       0.023925         0.9513         0.0429
       8342.00      6379.8278        87.0433         1.6960         1.5495         0.3855         2.4767       0.000000       0.146458         0.8394       0.000000         0.0000      0.0000000      0.0000810       0.014083       0.014164       0.014164         0.9943         0.0071
       8342.50      6380.1803        83.9913         1.8078         1.6803         0.3752         2.5000       0.999990       0.000000         0.0000       0.000000         0.0000      0.0000000      0.0000000       0.000010       0.000010       0.000010         1.0000         0.0000
       8343.00      6380.5328        80.9394         1.9197         1.8111         0.3580         2.6150       0.999990       0.000000         0.0000       0.000000         0.0000      0.0000000      0.0000000       0.000010       0.000010       0.000010         1.0000         0.0000
       8343.50      6380.8852        77.8875         2.0316         1.9419         0.3408         2.7300       0.999990       0.000000         0.0000       0.000000         0.0000      0.0000000      0.0000000       0.000010       0.000010       0.000010         1.0000         0.0000
       8344.00      6381.2377        79.0081         2.0785         1.9868         0.3236         2.6600       0.999990       0.000000         0.0000       0.000000         0.0000      0.0000000      0.0000000       0.000010       0.000010       0.000010         1.0000         0.0000
       8344.50      6381.5902        80.1288         2.1254         2.0316         0.3322         2.5900       0.999990       0.000000         0.0000       0.000000         0.0000      0.0000000      0.0000000       0.000010       0.000010       0.000010         1.0000         0.0000
       8345.00      6381.9426        77.9193         2.2282         2.1298         0.3322         2.5533       0.999990       0.000000         0.0000       0.000000         0.0000      0.0000000      0.0000000       0.000010       0.000010       0.000010         1.0000         0.0000
       8345.50      6382.2951        75.7098         2.3310         2.2281         0.3483         2.5167       0.999990       0.000000         0.0000       0.000000         0.0000      0.0000000      0.0000000       0.000010       0.000010       0.000010         1.0000         0.0000
       8346.00      6382.6475        73.5004         2.4337         2.3263         0.3645         2.4800       0.999990       0.000000         0.0000       0.000000         0.0000      0.0000000      0.0000000       0.000010       0.000010       0.000010         1.0000         0.0000
       8346.50      6383.0000        81.4560         2.3287         2.0913         0.3806         2.4650       0.999990       0.000000         0.0000       0.000000         0.0000      0.0000000      0.0000000       0.000010       0.000010       0.000010         1.0000         0.0000
       8347.00      6383.3524        89.4117         2.2236         1.8562         0.3869         2.4500       0.999990       0.000000         0.0000       0.000000         0.0000      0.0000000      0.0000000       0.000010       0.000010       0.000010         1.0000         0.0000
       8347.50      6383.7048        90.3781         1.9543         1.6885         0.3913         2.4400       0.000000       0.097773         0.8731       0.000000         0.0000      0.0039069      0.0000000       0.025218       0.029125       0.029125         0.8659         0.0843
       8348.00      6384.0573        91.3446         1.6850         1.5209         0.4035         2.4300       0.000000       0.080922         0.8849       0.000000         0.0000      0.0034431      0.0000000       0.030719       0.034162       0.032699         0.8992         0.1256
       8348.50      6384.4097        92.3110         1.4157         1.3532         0.4157         2.4200       0.000000       0.063844         0.8966       0.000000         0.0000      0.0022693      0.0000000       0.037311       0.039580       0.029073         0.9427         0.0838
       8349.00      6384.7621        93.2774         1.3261         1.2414         0.4279         2.4400       0.000000       0.060951         0.9100       0.000000         0.0000      0.0000000      0.0000000       0.029033       0.029033       0.024945         1.0000         0.0495
       8349.50      6385.1146        94.2439         1.2364         1.1296         0.4183         2.4600       0.000000       0.057243         0.9212       0.000000         0.0000      0.0000000      0.0000000       0.021593       0.021593       0.021567         1.0000         0.0300
       8350.00      6385.4670        91.8278         1.2091         1.1296         0.4122         2.4367       0.000000       0.070993         0.8938       0.000000         0.0000      0.0000000      0.0000000       0.035253       0.035253       0.029945         1.0000         0.0928
       8350.50      6385.8194        89.4117         1.1818         1.1296         0.4266         2.4133       0.000000       0.080443         0.8698       0.000000         0.0000      0.0000000      0.0000000       0.049717       0.049717       0.037437         1.0000         0.2002
       8351.00      6386.1718        88.6222         1.2190         1.1470         0.4548         2.3900       0.000000       0.070871         0.8658       0.000000         0.0000      0.0000000      0.0023104       0.061027       0.063337       0.038720         0.9635         0.2248
       8351.50      6386.5243        87.8327         1.2563         1.1644         0.4670         2.3750       0.000000       0.067506         0.8597       0.000000         0.0000      0.0000000      0.0051090       0.067699       0.072808       0.040661         0.9298         0.2660
       8352.00      6386.8767        87.0433         1.2935         1.1818         0.4791         2.3600       0.000000       0.064201         0.8536       0.000000         0.0000      0.0000000      0.0083329       0.073875       0.082208       0.042607         0.8986         0.3124
       8352.50      6387.2291        89.4276         1.4573         1.4015         0.4912         2.3267       0.000000       0.024907         0.8784       0.000000         0.0000      0.0000000      0.0200137       0.076649       0.096662       0.034726         0.7930         0.1545
