~Version Information Block
VERS .                  2.0:  CWLS LOG ASCII STANDARD - VERSION 2.0
WRAP .                   NO:  One line per depth step
~Well Information Block
#MNEM.UNIT        Data Type   Information
#---------- ----------------  -----------
STRT .FT               0.00:  START DEPTH
STOP .FT           11259.00:  STOP DEPTH
STEP .FT               0.50:  STEP
NULL .              -999.25:  NULL VALUE
COMP .                     :  COMPANY
WELL .                 SJ-6:  WELL
FLD  .                     :  FIELD
LOC  .                     :  LOCATION
CTRY .                     :  COUNTRY
STAT .                     :  STATE
CNTY .                     :  COUNTY
SRVC .                     :  SERVICE COMPANY
DATE .                     :  DATE
API  .                     :  API NUMBER
UWI  .                     :  UNIQUE WELL ID
~Curve Information Block
#MNEM.UNIT         API CODE   Curve Description
#---------- ----------------  -----------------
DEPTH.FT                   :  Gamma Ray
TVDSS.FT                   :  Reference TVD sub-sea log.
GR   .GAPI                 :  Gamma Ray
RT   .OHMM                 :  True Resistivity
RXO  .OHMM                 :  Flushed Zone Resistivity
NPHI .V/V                  :  Neutron Porosity
RHOB .G/C3                 :  Bulk Density
VCALCITE.V/V                  :  Calcite Volume Fraction
VQUARTZ.V/V                  :  Quartz Volume Fraction
VSH  .V/V                  :  Wet Cl/Sh 1 Volume Fraction
VCOAL.V/V                  :  Coal Volume Fraction
VORGSH.V/V                  :  Organic Shale Volume Fraction
VGAS .V/V                  :  X Gas Volume Fraction
VOIL .V/V                  :  X Oil Volume Fraction
VWATER.V/V                  :  X Water Volume Fraction
PHIT .V/V                  :  Total Porosity
PHIE .V/V                  :  Mahakam burial and vsh limited porosity
SWE  .V/V                  :  Effective Water Saturation
PERM .MD                   :  Permeability
~Parameter Information Block
#MNEM.UNIT            Value   Description
#---------- ----------------  -----------
PROJECT.            SEJADI_FE:  
~Other Information Block
# 
~A       DEPTH          TVDSS             GR             RT            RXO           NPHI           RHOB       VCALCITE        VQUARTZ            VSH          VCOAL         VORGSH           VGAS           VOIL         VWATER           PHIT           PHIE            SWE           PERM 
# ...
      10847.00      8279.7522        70.5260         2.2327         2.3800         0.2344         2.5800       0.000000       0.188995         0.8050       0.000000         0.0000      0.0000000      0.0000000       0.005995       0.005995       0.005995         1.0000         0.0000
      10847.50      8280.2214        69.4655         2.4337         2.4337         0.2230         2.5600       0.000000       0.204471         0.7800       0.000000         0.0000      0.0003554      0.0000000       0.015187       0.015542       0.015542         0.9782         0.0002
      10848.00      8280.6906        67.3924         2.5487         2.5487         0.2128         2.5400       0.000000       0.223984         0.7484       0.000000         0.0000      0.0018812      0.0000000       0.025755       0.027637       0.027637         0.9352         0.0068
      10848.50      8281.1599        65.3193         2.6637         2.6637         0.2160         2.5550       0.000000       0.257561         0.7210       0.000000         0.0000      0.0008366      0.0000000       0.020562       0.021399       0.021399         0.9616         0.0015
      10849.00      8281.6292        65.3193         2.7252         2.7252         0.2260         2.5700       0.000000       0.262047         0.7243       0.000000         0.0000      0.0000000      0.0002677       0.013343       0.013610       0.013610         0.9803         0.0001
      10849.50      8282.0985        65.3193         2.7868         2.7868         0.2272         2.5550       0.000000       0.253717         0.7243       0.000000         0.0000      0.0000000      0.0014285       0.020544       0.021972       0.021972         0.9350         0.0018
      10850.00      8282.5679        65.3193         2.7252         2.7252         0.2226         2.5400       0.000000       0.247605         0.7230       0.000000         0.0000      0.0024100      0.0000000       0.026938       0.029348       0.029348         0.9188         0.0097
      10850.50      8283.0373        65.3193         2.6637         2.6637         0.2180         2.5450       0.000000       0.251624         0.7216       0.000000         0.0000      0.0016324      0.0000000       0.025124       0.026757       0.026757         0.9402         0.0056
      10851.00      8283.5067        65.3193         2.8569         2.7252         0.2134         2.5500       0.000000       0.255907         0.7203       0.000000         0.0000      0.0016566      0.0000000       0.022122       0.023779       0.023779         0.9303         0.0028
      10851.50      8283.9762        65.3193         3.0501         2.7868         0.2135         2.5300       0.000000       0.245641         0.7204       0.000000         0.0000      0.0042899      0.0000000       0.029630       0.033920       0.033920         0.8735         0.0227
      10852.00      8284.4457        66.3479         3.1205         2.8511         0.2231         2.5100       0.000000       0.219294         0.7376       0.000000         0.0000      0.0076697      0.0000000       0.035437       0.043107       0.043107         0.8221         0.0931
      10852.50      8284.9152        67.3764         3.1910         2.9155         0.2308         2.5200       0.000000       0.208775         0.7540       0.000000         0.0000      0.0066987      0.0000000       0.030506       0.037204       0.037204         0.8199         0.0391
      10853.00      8285.3848        70.5579         3.1205         2.7896         0.2126         2.5150       0.000000       0.171291         0.7918       0.000000         0.0000      0.0070988      0.0000000       0.029840       0.036939       0.036939         0.8078         0.0375
      10853.50      8285.8544        73.7393         3.0501         2.6637         0.1958         2.5150       0.000000       0.135973         0.8298       0.000000         0.0000      0.0066469      0.0000000       0.027582       0.034229       0.034229         0.8058         0.0240
      10854.00      8286.3241        66.5392         3.4363         3.2431         0.1821         2.5050       0.000000       0.228147         0.7278       0.000000         0.0000      0.0098101      0.0000000       0.034200       0.044010       0.044010         0.7771         0.1051
      10854.50      8286.7938        59.3391         3.8226         3.8226         0.1697         2.5100       0.000000       0.327286         0.6261       0.000000         0.0000      0.0098398      0.0000000       0.036765       0.046605       0.046605         0.7983         0.1473
      10855.00      8287.2635        59.3391         4.5329         4.5329         0.1474         2.5200       0.000000       0.340361         0.6193       0.000000         0.0000      0.0102647      0.0000000       0.030055       0.040320       0.040320         0.7571         0.0628
      10855.50      8287.7333        59.3391         5.2433         5.2433         0.1304         2.5300       0.000000       0.351586         0.6139       0.000000         0.0000      0.0099094      0.0000000       0.024611       0.034521       0.034521         0.7255         0.0252
      10856.00      8288.2031        55.7032         5.7622         5.7622         0.1262         2.5000       0.000000       0.384759         0.5641       0.000000         0.0000      0.0169974      0.0000000       0.034170       0.051167       0.051167         0.6851         0.2551
      10856.50      8288.6730        52.0672         6.2811         6.2811         0.1226         2.4700       0.000000       0.417950         0.5146       0.000000         0.0000      0.0247668      0.0000000       0.042655       0.067422       0.067422         0.6538         1.2923
      10857.00      8289.1429        48.4313         6.0100         6.0100         0.1248         2.4500       0.000000       0.453156         0.4666       0.000000         0.0000      0.0277395      0.0000000       0.052525       0.080265       0.080265         0.6764         3.6037
      10857.50      8289.6129        44.7954         5.7388         5.7388         0.1248         2.4300       0.000000       0.488786         0.4178       0.000000         0.0000      0.0299606      0.0000000       0.063500       0.093460       0.093460         0.7027         8.8213
      10858.00      8290.0829        40.7687         5.6122         5.7388         0.1276         2.4250       0.000000       0.536127         0.3635       0.000000         0.0000      0.0280644      0.0000000       0.072310       0.100375       0.100375         0.7479        13.4231
      10858.50      8290.5529        36.7421         5.4855         5.7388         0.1304         2.4200       0.000000       0.583462         0.3087       0.000000         0.0000      0.0250466      0.0000000       0.082823       0.107870       0.107870         0.7992        20.5023
      10859.00      8291.0230        39.1102         5.4855         5.6122         0.1332         2.4450       0.000000       0.565053         0.3409       0.000000         0.0000      0.0202889      0.0000000       0.073759       0.094048       0.094048         0.8048         9.1525
      10859.50      8291.4931        41.4784         5.4855         5.4855         0.1329         2.4700       0.000000       0.547531         0.3724       0.000000         0.0000      0.0158062      0.0000000       0.064240       0.080047       0.080047         0.8134         3.5464
      10860.00      8291.9632        43.9900         5.2433         5.2433         0.1396         2.4600       0.000000       0.508511         0.4092       0.000000         0.0000      0.0192556      0.0000000       0.062990       0.082245       0.082245         0.7785         4.1591
      10860.50      8292.4334        46.5017         4.5791         4.5791         0.1444         2.4500       0.000000       0.469034         0.4453       0.000000         0.0000      0.0201842      0.0000000       0.065492       0.085676       0.085676         0.7807         5.2894
      10861.00      8292.9037        55.5118         4.4781         4.1838         0.1492         2.4800       0.000000       0.367942         0.5687       0.000000         0.0000      0.0163712      0.0000000       0.046996       0.063367       0.063367         0.7416         0.8972
