~Version Information Block
VERS .                  2.0:  CWLS LOG ASCII STANDARD - VERSION 2.0
WRAP .                   NO:  One line per depth step
~Well Information Block
#MNEM.UNIT        Data Type   Information
#---------- ----------------  -----------
STRT .FT               0.00:  START DEPTH
STOP .FT           11259.00:  STOP DEPTH
STEP .FT               0.50:  STEP
NULL .              -999.25:  NULL VALUE
COMP .                     :  COMPANY
WELL .                 SJ-6:  WELL
FLD  .                     :  FIELD
LOC  .                     :  LOCATION
CTRY .                     :  COUNTRY
STAT .                     :  STATE
CNTY .                     :  COUNTY
SRVC .                     :  SERVICE COMPANY
DATE .                     :  DATE
API  .                     :  API NUMBER
UWI  .                     :  UNIQUE WELL ID
~Curve Information Block
#MNEM.UNIT         API CODE   Curve Description
#---------- ----------------  -----------------
DEPTH.FT                   :  Gamma Ray
TVDSS.FT                   :  Reference TVD sub-sea log.
GR   .GAPI                 :  Gamma Ray
RT   .OHMM                 :  True Resistivity
RXO  .OHMM                 :  Flushed Zone Resistivity
NPHI .V/V                  :  Neutron Porosity
RHOB .G/C3                 :  Bulk Density
VCALCITE.V/V                  :  Calcite Volume Fraction
VQUARTZ.V/V                  :  Quartz Volume Fraction
VSH  .V/V                  :  Wet Cl/Sh 1 Volume Fraction
VCOAL.V/V                  :  Coal Volume Fraction
VORGSH.V/V                  :  Organic Shale Volume Fraction
VGAS .V/V                  :  X Gas Volume Fraction
VOIL .V/V                  :  X Oil Volume Fraction
VWATER.V/V                  :  X Water Volume Fraction
PHIT .V/V                  :  Total Porosity
PHIE .V/V                  :  Mahakam burial and vsh limited porosity
SWE  .V/V                  :  Effective Water Saturation
PERM .MD                   :  Permeability
~Parameter Information Block
#MNEM.UNIT            Value   Description
#---------- ----------------  -----------
PROJECT.            SEJADI_FE:  
~Other Information Block
# 
~A       DEPTH          TVDSS             GR             RT            RXO           NPHI           RHOB       VCALCITE        VQUARTZ            VSH          VCOAL         VORGSH           VGAS           VOIL         VWATER           PHIT           PHIE            SWE           PERM 
# ...
       6192.50      4843.9336        55.9624         1.9419         1.9419         0.2654         2.3700       0.000000       0.369689         0.5395       0.000000         0.0000      0.0145664      0.0000000       0.076211       0.090777       0.090777         0.8546         0.3407
       6193.00      4844.2780        55.3319         1.9419         1.9419         0.2612         2.3300       0.000000       0.358193         0.5314       0.000000         0.0000      0.0234161      0.0000000       0.087023       0.110439       0.110439         0.8096         8.2939
       6193.50      4844.6224        52.5900         1.9419         1.9419         0.2731         2.3300       0.000000       0.379352         0.5057       0.000000         0.0000      0.0221174      0.0000000       0.092857       0.114974       0.114974         0.8207         9.5265
       6194.00      4844.9668        49.8480         1.8860         1.8860         0.2850         2.3300       0.000000       0.400172         0.4794       0.000000         0.0000      0.0193776      0.0000000       0.101004       0.120382       0.120382         0.8432        11.1595
       6194.50      4845.3112        51.0560         1.8302         1.8302         0.2969         2.3300       0.000000       0.386789         0.4941       0.000000         0.0000      0.0185657      0.0000000       0.100586       0.119152       0.119152         0.8453        10.7719
       6195.00      4845.6556        52.2641         1.7743         1.7743         0.2786         2.3300       0.000000       0.379706         0.5028       0.000000         0.0000      0.0185547      0.0000000       0.098938       0.117493       0.117493         0.8546        10.2642
       6195.50      4846.0000        53.4721         1.7743         1.7743         0.2621         2.3300       0.000000       0.372757         0.5120       0.000000         0.0000      0.0195645      0.0000000       0.095679       0.115244       0.115244         0.8520         9.6035
       6196.00      4846.3445        54.4020         1.7743         1.7743         0.2719         2.3300       0.000000       0.362651         0.5235       0.000000         0.0000      0.0197069      0.0000000       0.094135       0.113842       0.113842         0.8452         9.2074
       6196.50      4846.6890        55.3319         1.7743         1.8302         0.2816         2.3633       0.999990       0.000000         0.0000       0.000000         0.0000      0.0000000      0.0000000       0.000010       0.000010       0.000010         1.0000         0.0000
       6197.00      4847.0335        59.2740         1.8581         1.8860         0.2914         2.3967       0.999990       0.000000         0.0000       0.000000         0.0000      0.0000000      0.0000000       0.000010       0.000010       0.000010         1.0000         0.0000
       6197.50      4847.3780        63.2160         1.9419         1.9419         0.2811         2.4300       0.999990       0.000000         0.0000       0.000000         0.0000      0.0000000      0.0000000       0.000010       0.000010       0.000010         1.0000         0.0000
       6198.00      4847.7225        67.1581         1.9134         1.9134         0.2821         2.4200       0.999990       0.000000         0.0000       0.000000         0.0000      0.0000000      0.0000000       0.000010       0.000010       0.000010         1.0000         0.0000
       6198.50      4848.0670        67.8522         1.8848         1.8848         0.2740         2.4100       0.999990       0.000000         0.0000       0.000000         0.0000      0.0000000      0.0000000       0.000010       0.000010       0.000010         1.0000         0.0000
       6199.00      4848.4116        68.5463         1.8562         1.8562         0.2659         2.4133       0.999990       0.000000         0.0000       0.000000         0.0000      0.0000000      0.0000000       0.000010       0.000010       0.000010         1.0000         0.0000
       6199.50      4848.7562        69.2404         1.8152         1.8152         0.2577         2.4167       0.999990       0.000000         0.0000       0.000000         0.0000      0.0000000      0.0000000       0.000010       0.000010       0.000010         1.0000         0.0000
       6200.00      4849.1007        69.9451         1.7743         1.7743         0.2766         2.4200       0.000000       0.267528         0.6862       0.000000         0.0000      0.0054728      0.0000000       0.040784       0.046256       0.046256         0.8959         0.4146
       6200.50      4849.4453        70.6498         1.7482         1.7482         0.3014         2.3950       0.000000       0.244037         0.6977       0.000000         0.0000      0.0090698      0.0000000       0.049204       0.058274       0.058274         0.8572         0.0904
       6201.00      4849.7899        71.3545         1.7220         1.7220         0.3195         2.3700       0.000000       0.222241         0.7078       0.000000         0.0000      0.0131004      0.0000000       0.056833       0.069934       0.069934         0.8250         0.1561
       6201.50      4850.1346        71.3545         1.6960         1.6960         0.3364         2.3800       0.000000       0.222796         0.7119       0.000000         0.0000      0.0108514      0.0000000       0.054449       0.065300       0.065300         0.8406         0.1271
       6202.00      4850.4792        71.3545         1.7351         1.7351         0.3400         2.3900       0.000000       0.226720         0.7132       0.000000         0.0000      0.0096350      0.0000000       0.050439       0.060074       0.060074         0.8441         0.0990
       6202.50      4850.8239        70.6498         1.7743         1.7743         0.3399         2.4000       0.000000       0.237695         0.7065       0.000000         0.0000      0.0084516      0.0000000       0.047374       0.055825       0.055825         0.8513         0.7920
       6203.00      4851.1686        69.9451         1.6619         1.6977         0.3494         2.4200       0.000000       0.249884         0.7009       0.000000         0.0000      0.0000000      0.0051923       0.043993       0.049185       0.049185         0.9040         0.5122
       6203.50      4851.5132        69.2404         1.5495         1.6211         0.3588         2.4400       0.000000       0.263447         0.6973       0.000000         0.0000      0.0000000      0.0018964       0.037385       0.039282       0.039282         0.9730         0.2362
       6204.00      4851.8580        78.1418         1.5853         1.5853         0.3683         2.4300       0.000000       0.178665         0.7904       0.000000         0.0000      0.0026123      0.0000000       0.028287       0.030899       0.030899         0.9158         0.1034
       6204.50      4852.2027        87.0433         1.6211         1.5495         0.3692         2.4200       0.000000       0.095256         0.8810       0.000000         0.0000      0.0028604      0.0000000       0.020878       0.023739       0.023739         0.8795         0.0417
       6205.00      4852.5474        85.4961         1.5972         1.5495         0.3701         2.4100       0.000000       0.103967         0.8648       0.000000         0.0000      0.0041018      0.0000000       0.027132       0.031234       0.031234         0.8687         0.1073
       6205.50      4852.8922        83.9489         1.5734         1.5495         0.3709         2.4100       0.000000       0.117363         0.8492       0.000000         0.0000      0.0041899      0.0000000       0.029238       0.033428       0.033428         0.8747         0.1355
       6206.00      4853.2369        82.4018         1.5495         1.5495         0.3650         2.4100       0.000000       0.132357         0.8321       0.000000         0.0000      0.0042875      0.0000000       0.031265       0.035552       0.035552         0.8841         0.1675
       6206.50      4853.5817        79.0399         1.6244         1.5983         0.3594         2.4100       0.000000       0.163440         0.7966       0.000000         0.0000      0.0050259      0.0000000       0.034925       0.039951       0.039951         0.8742         0.2503
