~Version Information Block
VERS .                  2.0:  CWLS LOG ASCII STANDARD - VERSION 2.0
WRAP .                   NO:  One line per depth step
~Well Information Block
#MNEM.UNIT        Data Type   Information
#---------- ----------------  -----------
STRT .FT               0.00:  START DEPTH
STOP .FT           11259.00:  STOP DEPTH
STEP .FT               0.50:  STEP
NULL .              -999.25:  NULL VALUE
COMP .                     :  COMPANY
WELL .                 SJ-6:  WELL
FLD  .                     :  FIELD
LOC  .                     :  LOCATION
CTRY .                     :  COUNTRY
STAT .                     :  STATE
CNTY .                     :  COUNTY
SRVC .                     :  SERVICE COMPANY
DATE .                     :  DATE
API  .                     :  API NUMBER
UWI  .                     :  UNIQUE WELL ID
~Curve Information Block
#MNEM.UNIT         API CODE   Curve Description
#---------- ----------------  -----------------
DEPTH.FT                   :  Gamma Ray
TVDSS.FT                   :  Reference TVD sub-sea log.
GR   .GAPI                 :  Gamma Ray
RT   .OHMM                 :  True Resistivity
RXO  .OHMM                 :  Flushed Zone Resistivity
NPHI .V/V                  :  Neutron Porosity
RHOB .G/C3                 :  Bulk Density
VCALCITE.V/V                  :  Calcite Volume Fraction
VQUARTZ.V/V                  :  Quartz Volume Fraction
VSH  .V/V                  :  Wet Cl/Sh 1 Volume Fraction
VCOAL.V/V                  :  Coal Volume Fraction
VORGSH.V/V                  :  Organic Shale Volume Fraction
VGAS .V/V                  :  X Gas Volume Fraction
VOIL .V/V                  :  X Oil Volume Fraction
VWATER.V/V                  :  X Water Volume Fraction
PHIT .V/V                  :  Total Porosity
PHIE .V/V                  :  Mahakam burial and vsh limited porosity
SWE  .V/V                  :  Effective Water Saturation
PERM .MD                   :  Permeability
~Parameter Information Block
#MNEM.UNIT            Value   Description
#---------- ----------------  -----------
PROJECT.            SEJADI_FE:  
~Other Information Block
# 
~A       DEPTH          TVDSS             GR             RT            RXO           NPHI           RHOB       VCALCITE        VQUARTZ            VSH          VCOAL         VORGSH           VGAS           VOIL         VWATER           PHIT           PHIE            SWE           PERM 
# ...
       8701.00      6632.7213        31.5832         1.8913         1.7494         0.3485         2.1867       0.000000       0.455565         0.2901       0.000000         0.0000      0.0000000      0.0350303       0.219337       0.254367       0.239365         0.8623       118.9217
       8701.50      6633.0730        32.2929         1.7743         1.6960         0.3394         2.2233       0.000000       0.466917         0.2979       0.000000         0.0000      0.0000000      0.0186481       0.216492       0.235140       0.235140         0.9207       111.8503
       8702.00      6633.4247        30.9055         1.7351         1.6227         0.3303         2.2600       0.000000       0.497536         0.2846       0.000000         0.0000      0.0000000      0.0006815       0.217155       0.217837       0.217837         0.9969        85.9721
       8702.50      6633.7764        29.5181         1.6960         1.5495         0.3305         2.2000       0.000000       0.482718         0.2661       0.000000         0.0000      0.0000000      0.0141044       0.237127       0.251231       0.248276         0.9439       134.8683
       8703.00      6634.1281        28.1307         1.4906         1.4096         0.3308         2.1400       0.000000       0.467066         0.2489       0.000000         0.0000      0.0060230      0.0126184       0.265373       0.284014       0.254654         0.9344       147.1748
       8703.50      6634.4799        22.7485         1.2852         1.2696         0.3242         2.1500       0.000000       0.508949         0.2018       0.000000         0.0000      0.0000000      0.0000000       0.289266       0.289266       0.272283         1.0000       674.7806
       8704.00      6634.8316        17.3664         1.0798         1.1296         0.3176         2.1600       0.000000       0.530744         0.1762       0.000000         0.0000      0.0000000      0.0000000       0.293073       0.293073       0.281901         1.0000       747.3491
       8704.50      6635.1833        18.8548         1.1138         1.1470         0.3109         2.1700       0.000000       0.525990         0.1885       0.000000         0.0000      0.0000000      0.0000000       0.285549       0.285549       0.277279         1.0000       711.8632
       8705.00      6635.5350        20.3432         1.1478         1.1644         0.3160         2.1750       0.000000       0.518172         0.2009       0.000000         0.0000      0.0000000      0.0000000       0.280890       0.280890       0.272589         1.0000       677.0095
       8705.50      6635.8868        21.8316         1.1818         1.1818         0.3211         2.1800       0.000000       0.510272         0.2135       0.000000         0.0000      0.0000000      0.0000000       0.276250       0.276250       0.267882         1.0000       643.1856
       8706.00      6636.2385        23.0435         1.3657         1.3657         0.3262         2.1350       0.000000       0.510096         0.1945       0.000000         0.0000      0.0000000      0.0033087       0.292093       0.295401       0.274996         0.9888       694.7544
       8706.50      6636.5902        24.2555         1.5495         1.5495         0.3186         2.0900       0.000000       0.484881         0.2079       0.000000         0.0000      0.0228518      0.0109539       0.273391       0.307196       0.269956         0.8900       657.9502
       8707.00      6636.9420        20.6409         1.4935         1.5044         0.2995         2.0800       0.000000       0.516636         0.1680       0.000000         0.0000      0.0263707      0.0000000       0.289027       0.315397       0.284969         0.9245       771.5391
       8707.50      6637.2937        17.0262         1.4375         1.4593         0.3027         2.0700       0.000000       0.543101         0.1292       0.000000         0.0000      0.0192547      0.0000000       0.308418       0.327673       0.299593         0.9505       893.9560
       8708.00      6637.6454        13.4115         1.3954         1.4157         0.3001         2.1000       0.000000       0.585245         0.0913       0.000000         0.0000      0.0000000      0.0000000       0.323424       0.323424       0.313961         1.0000      1026.0825
       8708.50      6637.9971        12.9570         1.3532         1.3750         0.2975         2.1300       0.000000       0.590087         0.1010       0.000000         0.0000      0.0000000      0.0000000       0.308895       0.308895       0.308895         1.0000       978.1202
       8709.00      6638.3489        12.5025         1.3845         1.3342         0.2949         2.1600       0.000000       0.598002         0.1081       0.000000         0.0000      0.0000000      0.0000000       0.293862       0.293862       0.293862         1.0000       844.5620
       8709.50      6638.7006        13.9138         1.4157         1.2935         0.2966         2.1450       0.000000       0.584482         0.1154       0.000000         0.0000      0.0000000      0.0000000       0.300164       0.300164       0.300164         1.0000       898.9755
       8710.00      6639.0523        15.3251         1.2727         1.2377         0.3167         2.1300       0.000000       0.558514         0.1332       0.000000         0.0000      0.0000000      0.0000000       0.308282       0.308282       0.298065         1.0000       880.6031
       8710.50      6639.4041        18.5784         1.1296         1.1818         0.3368         2.1633       0.000000       0.525077         0.1855       0.000000         0.0000      0.0000000      0.0000000       0.289398       0.289398       0.278331         1.0000       719.8395
       8711.00      6639.7558        21.8316         1.3396         1.2377         0.3569         2.1967       0.000000       0.517124         0.2163       0.000000         0.0000      0.0000000      0.0000000       0.266588       0.266588       0.266588         1.0000       634.0844
       8711.50      6640.1075        26.2967         1.5495         1.2935         0.3398         2.2300       0.000000       0.505042         0.2529       0.000000         0.0000      0.0000000      0.0000000       0.242033       0.242033       0.242033         1.0000       123.5472
       8712.00      6640.4593        30.7619         1.5734         1.4027         0.3362         2.2372       0.000000       0.480812         0.2870       0.000000         0.0000      0.0000000      0.0000000       0.232186       0.232186       0.232186         1.0000       107.0855
       8712.50      6640.8110        35.2271         1.5972         1.5119         0.3399         2.2444       0.000000       0.448105         0.3291       0.000000         0.0000      0.0000000      0.0061061       0.216640       0.222746       0.222746         0.9726        92.8274
       8713.00      6641.1627        39.1740         1.6211         1.6211         0.3437         2.2517       0.000000       0.415361         0.3704       0.000000         0.0000      0.0000000      0.0143120       0.199895       0.214207       0.209657         0.9332        75.3590
       8713.50      6641.5145        43.1209         1.7815         1.7386         0.3475         2.2517       0.000000       0.379722         0.4112       0.000000         0.0000      0.0000000      0.0268596       0.182247       0.209106       0.194780         0.8716        58.4909
       8714.00      6641.8662        47.8838         1.9419         1.8562         0.3180         2.2981       0.000000       0.366309         0.4587       0.000000         0.0000      0.0103743      0.0111471       0.153462       0.174983       0.174983         0.8770        40.4433
       8714.50      6642.2180        52.6467         2.0701         1.9787         0.2925         2.3444       0.000000       0.350825         0.5065       0.000000         0.0000      0.0164053      0.0000000       0.126270       0.142675       0.142675         0.8850        20.0293
       8715.00      6642.5697        57.4095         2.1982         2.1012         0.2937         2.3908       0.000000       0.328461         0.5573       0.000000         0.0000      0.0123983      0.0000000       0.101834       0.114232       0.114232         0.8915         9.3163
