~Version Information Block
VERS .                  2.0:  CWLS LOG ASCII STANDARD - VERSION 2.0
WRAP .                   NO:  One line per depth step
~Well Information Block
#MNEM.UNIT        Data Type   Information
#---------- ----------------  -----------
STRT .FT               0.00:  START DEPTH
STOP .FT           11259.00:  STOP DEPTH
STEP .FT               0.50:  STEP
NULL .              -999.25:  NULL VALUE
COMP .                     :  COMPANY
WELL .                 SJ-6:  WELL
FLD  .                     :  FIELD
LOC  .                     :  LOCATION
CTRY .                     :  COUNTRY
STAT .                     :  STATE
CNTY .                     :  COUNTY
SRVC .                     :  SERVICE COMPANY
DATE .                     :  DATE
API  .                     :  API NUMBER
UWI  .                     :  UNIQUE WELL ID
~Curve Information Block
#MNEM.UNIT         API CODE   Curve Description
#---------- ----------------  -----------------
DEPTH.FT                   :  Gamma Ray
TVDSS.FT                   :  Reference TVD sub-sea log.
GR   .GAPI                 :  Gamma Ray
RT   .OHMM                 :  True Resistivity
RXO  .OHMM                 :  Flushed Zone Resistivity
NPHI .V/V                  :  Neutron Porosity
RHOB .G/C3                 :  Bulk Density
VCALCITE.V/V                  :  Calcite Volume Fraction
VQUARTZ.V/V                  :  Quartz Volume Fraction
VSH  .V/V                  :  Wet Cl/Sh 1 Volume Fraction
VCOAL.V/V                  :  Coal Volume Fraction
VORGSH.V/V                  :  Organic Shale Volume Fraction
VGAS .V/V                  :  X Gas Volume Fraction
VOIL .V/V                  :  X Oil Volume Fraction
VWATER.V/V                  :  X Water Volume Fraction
PHIT .V/V                  :  Total Porosity
PHIE .V/V                  :  Mahakam burial and vsh limited porosity
SWE  .V/V                  :  Effective Water Saturation
PERM .MD                   :  Permeability
~Parameter Information Block
#MNEM.UNIT            Value   Description
#---------- ----------------  -----------
PROJECT.            SEJADI_FE:  
~Other Information Block
# 
~A       DEPTH          TVDSS             GR             RT            RXO           NPHI           RHOB       VCALCITE        VQUARTZ            VSH          VCOAL         VORGSH           VGAS           VOIL         VWATER           PHIT           PHIE            SWE           PERM 
# ...
       9411.50      7133.5487        27.4449         2.5665         2.1210         0.2919         2.2633       0.000000       0.544922         0.2419       0.000000         0.0000      0.0000000      0.0238910       0.189250       0.213141       0.213141         0.8879        79.7585
       9412.00      7133.9027        41.4784         3.1910         2.5461         0.3174         2.3567       0.000000       0.454784         0.3965       0.000000         0.0000      0.0000000      0.0267096       0.122017       0.148727       0.148727         0.8204        23.1086
       9412.50      7134.2566        55.9796         3.1440         2.6263         0.3124         2.4500       0.000000       0.365386         0.5487       0.000000         0.0000      0.0000000      0.0127400       0.073129       0.085869       0.085869         0.8516         0.2885
       9413.00      7134.6105        70.4808         3.0970         2.7065         0.3104         2.5000       0.000000       0.254588         0.6988       0.000000         0.0000      0.0000000      0.0072491       0.039317       0.046566       0.046566         0.8443         0.4242
       9413.50      7134.9645        84.9820         3.0501         2.7868         0.3083         2.5500       0.000000       0.143173         0.8496       0.000000         0.0000      0.0009114      0.0000000       0.006352       0.007263       0.007263         0.8745         0.0158
       9414.00      7135.3184        82.6857         2.9184         2.7252         0.3063         2.5400       0.000000       0.160478         0.8252       0.000000         0.0000      0.0017719      0.0000000       0.012553       0.014324       0.014324         0.8763         0.0073
       9414.50      7135.6724        80.3893         2.7868         2.6637         0.2524         2.5300       0.999990       0.000000         0.0000       0.000000         0.0000      0.0000000      0.0000000       0.000010       0.000010       0.000010         1.0000         0.0000
       9415.00      7136.0263        74.6908         3.1320         2.9938         0.2118         2.5467       0.999990       0.000000         0.0000       0.000000         0.0000      0.0000000      0.0000000       0.000010       0.000010       0.000010         1.0000         0.0000
       9415.50      7136.3803        68.9924         3.4773         3.3238         0.2111         2.5633       0.999990       0.000000         0.0000       0.000000         0.0000      0.0000000      0.0000000       0.000010       0.000010       0.000010         1.0000         0.0000
       9416.00      7136.7343        63.2940         3.8226         3.6538         0.2103         2.5800       0.999990       0.000000         0.0000       0.000000         0.0000      0.0000000      0.0000000       0.000010       0.000010       0.000010         1.0000         0.0000
       9416.50      7137.0883        61.3166         3.5804         3.7382         0.2096         2.5750       0.999990       0.000000         0.0000       0.000000         0.0000      0.0000000      0.0000000       0.000010       0.000010       0.000010         1.0000         0.0000
       9417.00      7137.4423        59.3391         3.3383         3.8226         0.2596         2.5700       0.999990       0.000000         0.0000       0.000000         0.0000      0.0000000      0.0000000       0.000010       0.000010       0.000010         1.0000         0.0000
       9417.50      7137.7963        71.0044         3.2422         3.5202         0.3320         2.5567       0.999990       0.000000         0.0000       0.000000         0.0000      0.0000000      0.0000000       0.000010       0.000010       0.000010         1.0000         0.0000
       9418.00      7138.1503        82.6697         3.1462         3.2178         0.3227         2.5433       0.000000       0.158328         0.8290       0.000000         0.0000      0.0022192      0.0000000       0.010420       0.012639       0.012639         0.8343         0.0048
       9418.50      7138.5043        81.9096         3.0501         2.9155         0.3134         2.5300       0.000000       0.161470         0.8184       0.000000         0.0000      0.0033121      0.0000000       0.016822       0.020135       0.020135         0.8355         0.0237
       9419.00      7138.8583        81.1494         2.9828         2.8511         0.3040         2.5350       0.000000       0.173199         0.8088       0.000000         0.0000      0.0025379      0.0000000       0.015426       0.017963       0.017963         0.8587         0.0160
       9419.50      7139.2124        80.3893         2.9155         2.7868         0.3011         2.5400       0.000000       0.183361         0.8007       0.000000         0.0000      0.0018732      0.0000000       0.014022       0.015895       0.015895         0.8822         0.0105
       9420.00      7139.5664        81.5295         2.9155         2.7457         0.2988         2.5400       0.000000       0.173203         0.8118       0.000000         0.0000      0.0017846      0.0000000       0.013219       0.015003       0.015003         0.8810         0.0086
       9420.50      7139.9204        82.6697         2.9155         2.7047         0.3038         2.5400       0.000000       0.161258         0.8245       0.000000         0.0000      0.0017322      0.0000000       0.012553       0.014285       0.014285         0.8787         0.0073
       9421.00      7140.2745        81.9096         2.9155         2.6637         0.3087         2.5400       0.000000       0.167160         0.8178       0.000000         0.0000      0.0017375      0.0000000       0.013257       0.014995       0.014995         0.8841         0.0086
       9421.50      7140.6285        81.1494         2.7896         2.6049         0.3136         2.5300       0.000000       0.168294         0.8106       0.000000         0.0000      0.0025186      0.0000000       0.018574       0.021092       0.021092         0.8806         0.0278
       9422.00      7140.9826        80.3893         2.6637         2.5461         0.3126         2.5200       0.000000       0.170877         0.8021       0.000000         0.0000      0.0032537      0.0000000       0.023803       0.027057       0.027057         0.8797         0.0654
       9422.50      7141.3367        81.5295         2.6637         2.4899         0.3105         2.5300       0.000000       0.165369         0.8137       0.000000         0.0000      0.0021075      0.0000000       0.018806       0.020913       0.020913         0.8992         0.0270
       9423.00      7141.6908        82.6697         2.6637         2.4337         0.3240         2.5400       0.000000       0.156035         0.8289       0.000000         0.0000      0.0012427      0.0000000       0.013821       0.015064       0.015064         0.9175         0.0087
       9423.50      7142.0448        82.6697         2.6245         2.4337         0.3348         2.5500       0.000000       0.157999         0.8318       0.000000         0.0000      0.0000000      0.0006174       0.009569       0.010186       0.010186         0.9394         0.0023
       9424.00      7142.3989        82.6697         2.5853         2.4337         0.3216         2.5350       0.000000       0.154219         0.8280       0.000000         0.0000      0.0015242      0.0000000       0.016213       0.017737       0.017737         0.9141         0.0153
       9424.50      7142.7530        82.6697         2.5461         2.4337         0.3085         2.5200       0.000000       0.150348         0.8242       0.000000         0.0000      0.0027913      0.0000000       0.022638       0.025430       0.025430         0.8902         0.0529
       9425.00      7143.1072        82.6697         2.4899         2.3287         0.2953         2.5450       0.000000       0.165495         0.8228       0.000000         0.0000      0.0004533      0.0000000       0.011224       0.011678       0.011678         0.9612         0.0036
       9425.50      7143.4613        82.6697         2.4337         2.2236         0.3046         2.5700       0.000000       0.170493         0.8287       0.000000         0.0000      0.0000000      0.0000000       0.000760       0.000760       0.000760         1.0000         0.0000
