~Version Information Block
VERS .                  2.0:  CWLS LOG ASCII STANDARD - VERSION 2.0
WRAP .                   NO:  One line per depth step
~Well Information Block
#MNEM.UNIT        Data Type   Information
#---------- ----------------  -----------
STRT .FT               0.00:  START DEPTH
STOP .FT           11259.00:  STOP DEPTH
STEP .FT               0.50:  STEP
NULL .              -999.25:  NULL VALUE
COMP .                     :  COMPANY
WELL .                 SJ-6:  WELL
FLD  .                     :  FIELD
LOC  .                     :  LOCATION
CTRY .                     :  COUNTRY
STAT .                     :  STATE
CNTY .                     :  COUNTY
SRVC .                     :  SERVICE COMPANY
DATE .                     :  DATE
API  .                     :  API NUMBER
UWI  .                     :  UNIQUE WELL ID
~Curve Information Block
#MNEM.UNIT         API CODE   Curve Description
#---------- ----------------  -----------------
DEPTH.FT                   :  Gamma Ray
TVDSS.FT                   :  Reference TVD sub-sea log.
GR   .GAPI                 :  Gamma Ray
RT   .OHMM                 :  True Resistivity
RXO  .OHMM                 :  Flushed Zone Resistivity
NPHI .V/V                  :  Neutron Porosity
RHOB .G/C3                 :  Bulk Density
VCALCITE.V/V                  :  Calcite Volume Fraction
VQUARTZ.V/V                  :  Quartz Volume Fraction
VSH  .V/V                  :  Wet Cl/Sh 1 Volume Fraction
VCOAL.V/V                  :  Coal Volume Fraction
VORGSH.V/V                  :  Organic Shale Volume Fraction
VGAS .V/V                  :  X Gas Volume Fraction
VOIL .V/V                  :  X Oil Volume Fraction
VWATER.V/V                  :  X Water Volume Fraction
PHIT .V/V                  :  Total Porosity
PHIE .V/V                  :  Mahakam burial and vsh limited porosity
SWE  .V/V                  :  Effective Water Saturation
PERM .MD                   :  Permeability
~Parameter Information Block
#MNEM.UNIT            Value   Description
#---------- ----------------  -----------
PROJECT.            SEJADI_FE:  
~Other Information Block
# 
~A       DEPTH          TVDSS             GR             RT            RXO           NPHI           RHOB       VCALCITE        VQUARTZ            VSH          VCOAL         VORGSH           VGAS           VOIL         VWATER           PHIT           PHIE            SWE           PERM 
# ...
       9063.50      6887.7959        72.7586         2.1878         2.4819         0.2017         2.5000       0.000000       0.259170         0.6993       0.000000         0.0000      0.0038615      0.0000000       0.037653       0.041514       0.041514         0.9911         0.2857
       9064.00      6888.1478        78.1407         2.4337         2.4337         0.1753         2.4900       0.000000       0.210640         0.7474       0.000000         0.0000      0.0055162      0.0000000       0.036423       0.041939       0.041939         0.9001         0.2959
       9064.50      6888.4997        71.8735         2.5032         2.4948         0.1489         2.4433       0.000000       0.253535         0.6766       0.000000         0.0000      0.0137563      0.0000000       0.056069       0.069825       0.069825         0.8536         0.1554
       9065.00      6888.8516        65.6063         2.5726         2.5557         0.1226         2.3967       0.000000       0.296766         0.6067       0.000000         0.0000      0.0239758      0.0000000       0.072603       0.096579       0.096579         0.8209         5.2272
       9065.50      6889.2035        59.3391         2.6421         2.6168         0.0962         2.3500       0.000000       0.340156         0.5373       0.000000         0.0000      0.0355812      0.0000000       0.086971       0.122553       0.122553         0.7975        11.8677
       9066.00      6889.5554        58.3743         2.7115         2.6778         0.0698         2.4200       0.000000       0.385444         0.5241       0.000000         0.0000      0.0178765      0.0000000       0.072559       0.090435       0.090435         0.8874         0.3369
       9066.50      6889.9073        57.4095         2.7809         2.7388         0.0434         2.4900       0.000000       0.430872         0.5127       0.000000         0.0000      0.0031669      0.0000000       0.053252       0.056419       0.056419         1.0000         0.8214
       9067.00      6890.2592        71.1958         2.8504         2.7998         0.0170         2.4933       0.000000       0.314853         0.6432       0.000000         0.0000      0.0059976      0.0000000       0.035917       0.041915       0.041915         0.9155         0.2953
       9067.50      6890.6111        84.9820         2.9198         2.8608        -0.0094         2.4967       0.000000       0.195944         0.7749       0.000000         0.0000      0.0057824      0.0000000       0.023336       0.029119       0.029119         0.8440         0.0843
       9068.00      6890.9631        86.5555         2.9893         2.9218        -0.0020         2.5000       0.000000       0.181270         0.7924       0.000000         0.0000      0.0053714      0.0000000       0.020928       0.026299       0.026299         0.8320         0.0593
       9068.50      6891.3150        88.1289         3.0587         2.9828         0.0076         2.4700       0.000000       0.150515         0.8084       0.000000         0.0000      0.0116109      0.0000000       0.029455       0.041066       0.041066         0.7690         0.2752
       9069.00      6891.6670        89.7024         3.1281         3.0438         0.0173         2.4400       0.000000       0.120514         0.8246       0.000000         0.0000      0.0189221      0.0000000       0.035955       0.054877       0.050838         0.7176         0.5739
       9069.50      6892.0189        84.8180         3.1976         3.1048         0.0269         2.4427       0.000000       0.164778         0.7783       0.000000         0.0000      0.0190121      0.0000000       0.037925       0.056937       0.056937         0.7277         0.8477
       9070.00      6892.3709        79.9336         3.2670         3.1658         0.0366         2.4455       0.000000       0.208983         0.7320       0.000000         0.0000      0.0189223      0.0000000       0.040136       0.059058       0.059058         0.7402         0.0941
       9070.50      6892.7229        75.0493         3.3365         3.2268         0.0463         2.4482       0.000000       0.253128         0.6856       0.000000         0.0000      0.0186259      0.0000000       0.042642       0.061268       0.061268         0.7555         0.1051
       9071.00      6893.0748        70.1649         3.4059         3.2878         0.0560         2.4509       0.000000       0.297211         0.6392       0.000000         0.0000      0.0180802      0.0000000       0.045503       0.063583       0.063583         0.7738         0.1174
       9071.50      6893.4268        65.2805         3.4753         3.3488         0.0656         2.4536       0.000000       0.341232         0.5927       0.000000         0.0000      0.0172388      0.0000000       0.048801       0.066040       0.066040         0.7955         0.1315
       9072.00      6893.7788        60.3962         3.5448         3.4098         0.0753         2.4564       0.000000       0.385174         0.5461       0.000000         0.0000      0.0160410      0.0000000       0.052642       0.068683       0.068683         0.8208         0.1479
       9072.50      6894.1308        55.5118         3.6142         3.4708         0.0849         2.4591       0.000000       0.429056         0.4994       0.000000         0.0000      0.0143993      0.0000000       0.057157       0.071556       0.071556         0.8501         0.1672
       9073.00      6894.4828        66.1166         3.6837         3.5318         0.0946         2.4618       0.000000       0.330951         0.6076       0.000000         0.0000      0.0164406      0.0000000       0.044994       0.061435       0.061435         0.7740         0.1059
       9073.50      6894.8349        76.7214         3.7531         3.5928         0.1043         2.4646       0.000000       0.231859         0.7159       0.000000         0.0000      0.0165935      0.0000000       0.035681       0.052275       0.052275         0.7165         0.6317
       9074.00      6895.1869        87.3263         3.8226         3.6538         0.1139         2.4673       0.000000       0.132029         0.8242       0.000000         0.0000      0.0154512      0.0000000       0.028274       0.043725       0.043725         0.6741         0.3416
       9074.50      6895.5389        85.8304         3.2569         3.1444         0.1236         2.4700       0.000000       0.144031         0.8118       0.000000         0.0000      0.0129873      0.0000000       0.031177       0.044164       0.044164         0.7354         0.3535
       9075.00      6895.8910        84.3346         2.6911         2.6349         0.1333         2.4727       0.000000       0.155771         0.7994       0.000000         0.0000      0.0098623      0.0000000       0.034993       0.044856       0.044856         0.8141         0.3730
       9075.50      6896.2430        82.8388         2.1254         2.1254         0.1429         2.4755       0.000000       0.167058         0.7870       0.000000         0.0000      0.0056451      0.0000000       0.040305       0.045950       0.045950         0.9208         0.4052
       9076.00      6896.5951        81.3429         1.8375         1.8375         0.1526         2.4782       0.000000       0.178664         0.7745       0.000000         0.0000      0.0022257      0.0000000       0.044639       0.046865       0.046865         0.9963         0.4337
       9076.50      6896.9471        79.8471         1.5495         1.5495         0.1623         2.4809       0.000000       0.179952         0.7689       0.000000         0.0000      0.0000000      0.0000000       0.051168       0.051168       0.051168         1.0000         0.5868
       9077.00      6897.2992        78.3512         1.8866         1.7906         0.1719         2.4836       0.000000       0.203899         0.7489       0.000000         0.0000      0.0005170      0.0000000       0.046690       0.047207       0.047207         1.0000         0.4447
       9077.50      6897.6513        76.8554         2.2236         2.0316         0.1816         2.4864       0.000000       0.218059         0.7357       0.000000         0.0000      0.0027525      0.0000000       0.043445       0.046197       0.046197         0.9404         0.4128
