~Version Information Block
VERS .                  2.0:  CWLS LOG ASCII STANDARD - VERSION 2.0
WRAP .                   NO:  One line per depth step
~Well Information Block
#MNEM.UNIT        Data Type   Information
#---------- ----------------  -----------
STRT .FT               0.00:  START DEPTH
STOP .FT           11259.00:  STOP DEPTH
STEP .FT               0.50:  STEP
NULL .              -999.25:  NULL VALUE
COMP .                     :  COMPANY
WELL .                 SJ-6:  WELL
FLD  .                     :  FIELD
LOC  .                     :  LOCATION
CTRY .                     :  COUNTRY
STAT .                     :  STATE
CNTY .                     :  COUNTY
SRVC .                     :  SERVICE COMPANY
DATE .                     :  DATE
API  .                     :  API NUMBER
UWI  .                     :  UNIQUE WELL ID
~Curve Information Block
#MNEM.UNIT         API CODE   Curve Description
#---------- ----------------  -----------------
DEPTH.FT                   :  Gamma Ray
TVDSS.FT                   :  Reference TVD sub-sea log.
GR   .GAPI                 :  Gamma Ray
RT   .OHMM                 :  True Resistivity
RXO  .OHMM                 :  Flushed Zone Resistivity
NPHI .V/V                  :  Neutron Porosity
RHOB .G/C3                 :  Bulk Density
VCALCITE.V/V                  :  Calcite Volume Fraction
VQUARTZ.V/V                  :  Quartz Volume Fraction
VSH  .V/V                  :  Wet Cl/Sh 1 Volume Fraction
VCOAL.V/V                  :  Coal Volume Fraction
VORGSH.V/V                  :  Organic Shale Volume Fraction
VGAS .V/V                  :  X Gas Volume Fraction
VOIL .V/V                  :  X Oil Volume Fraction
VWATER.V/V                  :  X Water Volume Fraction
PHIT .V/V                  :  Total Porosity
PHIE .V/V                  :  Mahakam burial and vsh limited porosity
SWE  .V/V                  :  Effective Water Saturation
PERM .MD                   :  Permeability
~Parameter Information Block
#MNEM.UNIT            Value   Description
#---------- ----------------  -----------
PROJECT.            SEJADI_FE:  
~Other Information Block
# 
~A       DEPTH          TVDSS             GR             RT            RXO           NPHI           RHOB       VCALCITE        VQUARTZ            VSH          VCOAL         VORGSH           VGAS           VOIL         VWATER           PHIT           PHIE            SWE           PERM 
# ...
      10499.00      7962.9409        16.3298         4.1127         4.0415         0.2247         2.2200       0.000000       0.703037         0.0492       0.000000         0.0000      0.0000000      0.0452837       0.202504       0.247788       0.247788         0.8172      2729.9836
      10499.50      7963.3806        15.8275         3.5141         3.4785         0.2194         2.2700       0.000000       0.732217         0.0433       0.000000         0.0000      0.0000000      0.0072322       0.217254       0.224486       0.224486         0.9678      1527.1731
      10500.00      7963.8204        15.3251         2.9155         2.9155         0.2238         2.2661       0.000000       0.720490         0.0502       0.000000         0.0000      0.0000000      0.0000000       0.229271       0.229271       0.229271         1.0000      1728.8795
      10500.50      7964.2603        14.8388         2.9155         2.9155         0.2382         2.2623       0.000000       0.721447         0.0464       0.000000         0.0000      0.0000000      0.0000000       0.232133       0.232133       0.232133         1.0000      1859.7532
      10501.00      7964.7002        14.3524         2.9828         2.9155         0.2366         2.2585       0.000000       0.727516         0.0379       0.000000         0.0000      0.0000000      0.0000000       0.234577       0.234577       0.234577         1.0000      1977.9121
      10501.50      7965.1402        16.3936         3.0501         2.9155         0.2350         2.2546       0.000000       0.710400         0.0556       0.000000         0.0000      0.0000000      0.0012519       0.232716       0.233968       0.233968         0.9946      1947.9204
      10502.00      7965.5802        18.4348         3.1942         3.0532         0.2333         2.2508       0.000000       0.685123         0.0821       0.000000         0.0000      0.0000000      0.0138292       0.218953       0.232782       0.232782         0.9406      1890.5398
      10502.50      7966.0202        17.9006         3.3383         3.1910         0.2412         2.2469       0.000000       0.687679         0.0773       0.000000         0.0000      0.0000000      0.0189749       0.216038       0.235013       0.235013         0.9193      1999.6232
      10503.00      7966.4603        17.3664         3.8577         3.5068         0.2758         2.2431       0.000000       0.681879         0.0813       0.000000         0.0000      0.0000000      0.0338776       0.202959       0.236837       0.236837         0.8570      2092.6599
      10503.50      7966.9005        17.6965         4.3770         3.8226         0.3104         2.2392       0.000000       0.665205         0.0969       0.000000         0.0000      0.0000000      0.0490669       0.188836       0.237903       0.237903         0.7938      2148.6902
      10504.00      7967.3407        18.0266         4.6658         4.1452         0.3450         2.2354       0.000000       0.647986         0.1126       0.000000         0.0000      0.0000000      0.0606995       0.178721       0.239421       0.239421         0.7465      2230.5647
      10504.50      7967.7809        18.3567         4.9546         4.4679         0.3796         2.2315       0.000000       0.630595         0.1283       0.000000         0.0000      0.0000000      0.0714056       0.169661       0.241067       0.241067         0.7038      2322.2798
      10505.00      7968.2212        18.6868         5.2433         4.7906         0.4141         2.2277       0.000000       0.613047         0.1441       0.000000         0.0000      0.0000000      0.0813266       0.161491       0.242818       0.242818         0.6651      2423.2798
      10505.50      7968.6616        19.0169         6.7394         6.7032         0.4487         2.2239       0.000000       0.597466         0.1598       0.000000         0.0000      0.0000000      0.1058215       0.136905       0.242726       0.242726         0.5640      2417.9158
      10506.00      7969.1020        19.3470         8.2354         8.6158         0.4833         2.2200       0.000000       0.580898         0.1756       0.000000         0.0000      0.0000000      0.1234045       0.120114       0.243518       0.243518         0.4943      2464.6807
      10506.50      7969.5424        19.6771         8.7788         8.8872         0.4120         2.2267       0.000000       0.606016         0.1562       0.000000         0.0000      0.0000000      0.1185091       0.119283       0.237792       0.237792         0.5016      2142.7712
      10507.00      7969.9829        20.0072         9.3221         9.1586         0.3408         2.2333       0.000000       0.631036         0.1369       0.000000         0.0000      0.0000000      0.1135311       0.118571       0.232102       0.232102         0.5109      1858.2987
      10507.50      7970.4235        20.3373         9.8655         9.4300         0.2695         2.2400       0.000000       0.655957         0.1176       0.000000         0.0000      0.0000000      0.1083577       0.118098       0.226456       0.226456         0.5215      1607.6984
      10508.00      7970.8640        20.6674         8.6949         8.1523         0.1982         2.2800       0.000000       0.694750         0.1002       0.000000         0.0000      0.0000000      0.0786480       0.126384       0.205032       0.205032         0.6164       896.0771
      10508.50      7971.3047        21.6854         7.5244         6.8747         0.2115         2.3200       0.000000       0.694943         0.1203       0.000000         0.0000      0.0000000      0.0554422       0.129364       0.184806       0.184806         0.7000       486.4562
      10509.00      7971.7454        22.7033         6.5426         5.9777         0.2298         2.2933       0.000000       0.662153         0.1390       0.000000         0.0000      0.0000000      0.0614581       0.137427       0.198885       0.198885         0.6910       749.1915
      10509.50      7972.1861        23.7213         5.5609         5.0808         0.2265         2.2667       0.000000       0.636769         0.1505       0.000000         0.0000      0.0000000      0.0635409       0.149235       0.212776       0.212776         0.7014      1114.4117
      10510.00      7972.6269        24.7393         4.5791         4.1838         0.2232         2.2400       0.000000       0.611041         0.1636       0.000000         0.0000      0.0050551      0.0562526       0.164074       0.225381       0.225381         0.7280      1563.3531
      10510.50      7973.0677        19.0754         3.9587         3.6874         0.2199         2.2400       0.000000       0.679765         0.0853       0.000000         0.0000      0.0000000      0.0376177       0.197299       0.234917       0.234917         0.8399      1994.8180
      10511.00      7973.5086        13.4115         3.3383         3.1910         0.2184         2.2400       0.000000       0.746749         0.0095       0.000000         0.0000      0.0000000      0.0057882       0.237917       0.243706       0.243706         0.9762      2475.8591
      10511.50      7973.9495        15.9232         3.1269         3.0532         0.2170         2.2567       0.000000       0.723823         0.0434       0.000000         0.0000      0.0000000      0.0005775       0.232151       0.232729       0.232729         0.9975      1888.0065
      10512.00      7974.3905        18.4348         2.9155         2.9155         0.2269         2.2733       0.000000       0.693687         0.0845       0.000000         0.0000      0.0000000      0.0000000       0.221817       0.221817       0.221817         1.0000      1423.4373
      10512.50      7974.8315        18.4348         3.0073         3.0564         0.2367         2.2900       0.000000       0.696760         0.0904       0.000000         0.0000      0.0000000      0.0000000       0.212836       0.212836       0.212836         1.0000      1116.2528
      10513.00      7975.2726        18.4348         3.0991         3.1974         0.2465         2.2850       0.000000       0.697039         0.0879       0.000000         0.0000      0.0000000      0.0033857       0.211687       0.215073       0.215073         0.9961      1187.0565
