~Version Information Block
VERS .                  2.0:  CWLS LOG ASCII STANDARD - VERSION 2.0
WRAP .                   NO:  One line per depth step
~Well Information Block
#MNEM.UNIT        Data Type   Information
#---------- ----------------  -----------
STRT .FT            5000.50:  START DEPTH
STOP .FT           14504.00:  STOP DEPTH
STEP .FT               0.50:  STEP
NULL .              -999.25:  NULL VALUE
COMP .                     :  COMPANY
WELL .               STA-18:  WELL
FLD  .                     :  FIELD
LOC  .                     :  LOCATION
CTRY .                     :  COUNTRY
STAT .                     :  STATE
CNTY .                     :  COUNTY
SRVC .                     :  SERVICE COMPANY
DATE .                     :  DATE
API  .                     :  API NUMBER
UWI  .                     :  UNIQUE WELL ID
~Curve Information Block
#MNEM.UNIT         API CODE   Curve Description
#---------- ----------------  -----------------
DEPTH.FT                   :  DEPTH
GR   .GAPI                 :  Gamma Ray
RT   .OHMM                 :  SEDP
RHOB .G/C3                 :  Bulk Density
NPHI .V/V                  :  Neutron porosity
~Parameter Information Block
#MNEM.UNIT            Value   Description
#---------- ----------------  -----------
PROJECT.            SANTAN_FE:  
~Other Information Block
# 
~A       DEPTH             GR             RT           RHOB           NPHI 
# ...
      10083.00        97.1000         2.2700         2.4768       0.275200
      10083.50        91.1500         2.2800         2.4731       0.267900
      10084.00        92.8700         2.2500         2.4814       0.281800
      10084.50        91.5500         2.2700         2.4760       0.288800
      10085.00        83.7100         2.3400         2.4476       0.283500
      10085.50        76.6300         2.4900         2.4129       0.268800
      10086.00        69.6100         2.5600         2.3868       0.274500
      10086.50        82.1400         2.6100         2.3800       0.279800
      10087.00        86.5600         2.7200         2.3769       0.270800
      10087.50        68.8400         2.8600         2.3656       0.250100
      10088.00        62.6200         3.0500         2.3412       0.230800
      10088.50        50.5000         3.3600         2.3046       0.235400
      10089.00        47.9100         3.4900         2.2676       0.232900
      10089.50        50.8600         3.5000         2.2421       0.223500
      10090.00        39.7100         3.5300         2.2348       0.222100
      10090.50        43.9800         3.5500         2.2444       0.208100
      10091.00        50.8600         3.6000         2.2596       0.211700
      10091.50        52.3100         3.6800         2.2713       0.238000
      10092.00        53.6300         3.7800         2.2844       0.240700
      10092.50        52.8100         3.8400         2.2905       0.231000
      10093.00        49.3400         3.7800         2.2834       0.220600
      10093.50        47.6900         3.7300         2.2800       0.226200
      10094.00        44.3000         3.6600         2.2800       0.229100
      10094.50        44.6300         3.5500         2.2861       0.218000
      10095.00        48.6000         3.4900         2.2996       0.223100
      10095.50        52.8700         3.4900         2.3022       0.227400
      10096.00        54.1300         3.5000         2.2934       0.236000
      10096.50        52.4300         3.5400         2.2870       0.241800
      10097.00        53.4700         3.5600         2.2756       0.235300
      10097.50        50.1800         3.5400         2.2604       0.228200
      10098.00        47.7100         3.4900         2.2548       0.225700
      10098.50        49.6500         3.4400         2.2613       0.228900
      10099.00        56.4100         3.3400         2.2805       0.228000
      10099.50        61.4300         3.4500         2.3213       0.230700
      10100.00        61.8500         3.5400         2.3779       0.220500
      10100.50        60.3400         3.5600         2.4379       0.198900
      10101.00        60.6400         3.5500         2.4827       0.194400
      10101.50        73.5500         3.3700         2.5013       0.195700
      10102.00        67.6500         3.0800         2.5052       0.201100
      10102.50        72.8500         2.8900         2.5078       0.227000
      10103.00        75.3000         2.8900         2.5135       0.246100
      10103.50        83.7600         2.9500         2.5057       0.242700
      10104.00        86.7300         2.9700         2.4904       0.246000
      10104.50        89.0500         2.9600         2.4757       0.247800
      10105.00        80.6700         2.9400         2.4665       0.246200
      10105.50        80.3700         2.8800         2.4713       0.238000
      10106.00        82.5000         2.8200         2.4752       0.225400
      10106.50        86.4200         2.7800         2.4717       0.227400
      10107.00        89.9600         2.7300         2.4761       0.232800
      10107.50        94.1400         2.6900         2.4896       0.229600
      10108.00        91.1600         2.6300         2.5013       0.237300
      10108.50        86.8200         2.5400         2.5052       0.247400
      10109.00        90.9200         2.4500         2.5017       0.259700
      10109.50        97.0500         2.3800         2.5000       0.271900
      10110.00       103.6400         2.3300         2.5030       0.270800
      10110.50        99.9700         2.3000         2.5173       0.278400
      10111.00        98.2900         2.2800         2.5378       0.285900
      10111.50       104.1400         2.2400         2.5482       0.287300
      10112.00        96.3200         2.2500         2.5500       0.282000
      10112.50        97.4500         2.3100         2.5409       0.268500
      10113.00       113.7700         2.4200         2.5283       0.263200
      10113.50        96.5700         2.5700         2.5222       0.252100
      10114.00        90.4300         2.7200         2.5165       0.245500
      10114.50        85.2800         2.8300         2.5213       0.236600
      10115.00        85.2300         2.9300         2.5161       0.226300
      10115.50        70.7200         2.9900         2.5001       0.215600
      10116.00        71.1100         3.0100         2.4952       0.206400
      10116.50        68.7000         3.0300         2.4887       0.207600
      10117.00        68.6000         3.0700         2.4818       0.203800
      10117.50        69.6500         3.1100         2.4770       0.191400
      10118.00        66.1800         3.1400         2.4657       0.195600
      10118.50        59.3400         3.1700         2.4535       0.205600
      10119.00        55.8900         3.2000         2.4621       0.204600
      10119.50        58.2800         3.2300         2.4799       0.207100
      10120.00        75.1300         3.2500         2.4787       0.203400
      10120.50        75.2500         3.3000         2.4778       0.192800
      10121.00        68.7300         3.3000         2.4834       0.193500
      10121.50        60.4900         3.3000         2.4787       0.196700
      10122.00        69.3200         3.2700         2.4748       0.189300
      10122.50        69.0600         3.1900         2.4812       0.185700
      10123.00        59.8500         3.0800         2.4882       0.187100
      10123.50        69.1200         3.0100         2.4900       0.193100
      10124.00        76.2400         2.9700         2.4810       0.198200
      10124.50        81.5100         2.9000         2.4653       0.211900
      10125.00        89.8300         2.8600         2.4660       0.221300
      10125.50        87.3900         2.8900         2.4734       0.219700
      10126.00        93.8300         2.9100         2.4688       0.235800
      10126.50        89.4300         2.9100         2.4588       0.243700
      10127.00        88.7500         2.9200         2.4548       0.244800
      10127.50        96.4300         2.8900         2.4612       0.248900
      10128.00        97.4700         2.8400         2.4652       0.254400
      10128.50        90.6200         2.8700         2.4588       0.240300
      10129.00        82.9500         2.8700         2.4578       0.216500
      10129.50        77.7700         2.8300         2.4664       0.211000
      10130.00        77.8700         2.8100         2.4700       0.211800
      10130.50        80.3700         2.8100         2.4640       0.206600
      10131.00        82.0500         2.8200         2.4596       0.200500
      10131.50        81.4400         2.8300         2.4694       0.199900
      10132.00        76.5800         2.8500         2.4752       0.199400
      10132.50        77.0800         2.9000         2.4748       0.193500
      10133.00        68.1700         2.9600         2.4782       0.185500
      10133.50        64.2400         2.9800         2.4830       0.180900
      10134.00        73.4100         2.8900         2.4912       0.184400
      10134.50        86.8100         2.8300         2.4982       0.194700
      10135.00        92.0700         2.8100         2.5000       0.204300
      10135.50        89.7600         2.8100         2.5000       0.208000
      10136.00        87.4100         2.8100         2.5030       0.212500
