~Version Information Block
VERS .                  2.0:  CWLS LOG ASCII STANDARD - VERSION 2.0
WRAP .                   NO:  One line per depth step
~Well Information Block
#MNEM.UNIT        Data Type   Information
#---------- ----------------  -----------
STRT .FT             750.00:  START DEPTH
STOP .FT            8283.50:  STOP DEPTH
STEP .FT               0.50:  STEP
NULL .              -999.25:  NULL VALUE
COMP .                     :  COMPANY
WELL .               STA-20:  WELL
FLD  .                     :  FIELD
LOC  .                     :  LOCATION
CTRY .                     :  COUNTRY
STAT .                     :  STATE
CNTY .                     :  COUNTY
SRVC .                     :  SERVICE COMPANY
DATE .                     :  DATE
API  .                     :  API NUMBER
UWI  .                     :  UNIQUE WELL ID
~Curve Information Block
#MNEM.UNIT         API CODE   Curve Description
#---------- ----------------  -----------------
DEPTH.FT                   :  DEPTH
GR   .GAPI                 :  Gamma Ray
RT   .OHMM                 :  RESDE
RHOB .G/C3                 :  Bulk Density
NPHI .V/V                  :  Thermal Neutron Porosity (Ratio Method) in Selected Lithology
~Parameter Information Block
#MNEM.UNIT            Value   Description
#---------- ----------------  -----------
PROJECT.            SANTAN_FE:  
~Other Information Block
# 
~A       DEPTH             GR             RT           RHOB           NPHI 
        750.00        54.3768      -999.2500      -999.2500       0.622800
        750.50        55.1218      -999.2500      -999.2500       0.642000
        751.00        56.1968      -999.2500      -999.2500       0.642500
        751.50        56.6468      -999.2500      -999.2500       0.630500
        752.00        56.5243      -999.2500      -999.2500       0.579900
        752.50        56.7868      -999.2500      -999.2500       0.551500
        753.00        57.0868      -999.2500      -999.2500       0.561800
        753.50        56.8918      -999.2500      -999.2500       0.613800
        754.00        55.8618      -999.2500      -999.2500       0.666100
        754.50        55.5318      -999.2500      -999.2500       0.672200
        755.00        56.0468      -999.2500      -999.2500       0.642800
        755.50        57.4068      -999.2500      -999.2500       0.601600
        756.00        57.8243      -999.2500      -999.2500       0.577400
        756.50        58.1993      -999.2500      -999.2500       0.568400
        757.00        57.4418      -999.2500      -999.2500       0.565300
        757.50        56.6368      -999.2500      -999.2500       0.547400
        758.00        55.2868      -999.2500      -999.2500       0.523300
        758.50        54.2243      -999.2500      -999.2500       0.511500
        759.00        52.9668      -999.2500      -999.2500       0.516500
        759.50        50.3693      -999.2500      -999.2500       0.540900
        760.00        46.8568      -999.2500      -999.2500       0.578700
        760.50        44.3718      -999.2500      -999.2500       0.607800
        761.00        43.3668      -999.2500      -999.2500       0.610200
        761.50        42.1943      -999.2500      -999.2500       0.593500
        762.00        40.7893      -999.2500      -999.2500       0.592200
        762.50        39.1018      -999.2500      -999.2500       0.608700
        763.00        37.4168      -999.2500      -999.2500       0.618400
        763.50        36.6468      -999.2500      -999.2500       0.611000
        764.00        37.0593      -999.2500      -999.2500       0.611500
        764.50        39.5093      -999.2500      -999.2500       0.599500
        765.00        43.5418      -999.2500      -999.2500       0.571300
        765.50        46.9818      -999.2500      -999.2500       0.538600
        766.00        47.4343      -999.2500      -999.2500       0.532900
        766.50        46.0768      -999.2500      -999.2500       0.548900
        767.00        43.9093      -999.2500      -999.2500       0.565000
        767.50        41.8768      -999.2500      -999.2500       0.562600
        768.00        39.5168      -999.2500      -999.2500       0.552500
        768.50        37.6693      -999.2500      -999.2500       0.553100
        769.00        37.1818      -999.2500      -999.2500       0.582900
        769.50        36.8543      -999.2500      -999.2500       0.614400
        770.00        36.3243      -999.2500      -999.2500       0.625900
        770.50        35.6243      -999.2500      -999.2500       0.614700
        771.00        36.5268      -999.2500      -999.2500       0.588800
        771.50        38.1668      -999.2500      -999.2500       0.573000
        772.00        38.8068      -999.2500      -999.2500       0.585700
        772.50        36.5268      -999.2500      -999.2500       0.620000
        773.00        33.3618      -999.2500      -999.2500       0.654500
        773.50        32.1893      -999.2500      -999.2500       0.662500
        774.00        32.7068      -999.2500      -999.2500       0.633500
        774.50        33.6693      -999.2500      -999.2500       0.588700
        775.00        34.3293      -999.2500      -999.2500       0.562000
        775.50        34.3418      -999.2500      -999.2500       0.560300
        776.00        33.7368      -999.2500      -999.2500       0.569400
        776.50        33.4068      -999.2500      -999.2500       0.576000
        777.00        33.6918      -999.2500      -999.2500       0.577300
        777.50        34.9643      -999.2500      -999.2500       0.576000
        778.00        35.8268      -999.2500      -999.2500       0.585700
        778.50        36.0743      -999.2500      -999.2500       0.602700
        779.00        37.1193      -999.2500      -999.2500       0.612800
        779.50        40.0493      -999.2500      -999.2500       0.608400
        780.00        44.0343      -999.2500      -999.2500       0.591900
        780.50        48.3368      -999.2500      -999.2500       0.575200
        781.00        52.1718      -999.2500      -999.2500       0.573200
        781.50        55.2618      -999.2500      -999.2500       0.596100
        782.00        57.8093      -999.2500      -999.2500       0.631300
        782.50        58.4543      -999.2500      -999.2500       0.652900
        783.00        57.4693      -999.2500      -999.2500       0.657500
        783.50        57.7543      -999.2500      -999.2500       0.658300
        784.00        59.9543      -999.2500      -999.2500       0.663100
        784.50        62.6143      -999.2500      -999.2500       0.675200
        785.00        62.8143      -999.2500      -999.2500       0.683100
        785.50        60.9118      -999.2500      -999.2500       0.677500
        786.00        58.1818      -999.2500      -999.2500       0.662400
        786.50        55.5643      -999.2500      -999.2500       0.653700
        787.00        53.6168      -999.2500      -999.2500       0.651600
        787.50        53.0743      -999.2500      -999.2500       0.655600
        788.00        53.7343      -999.2500      -999.2500       0.665000
        788.50        55.4068      -999.2500      -999.2500       0.673100
        789.00        57.6918      -999.2500      -999.2500       0.675500
        789.50        59.5218      -999.2500      -999.2500       0.668600
        790.00        59.6368      -999.2500      -999.2500       0.646100
        790.50        58.3243      -999.2500      -999.2500       0.612500
        791.00        58.0393      -999.2500      -999.2500       0.568400
        791.50        58.6118      -999.2500      -999.2500       0.537200
        792.00        58.9543      -999.2500      -999.2500       0.541500
        792.50        58.0068      -999.2500      -999.2500       0.571900
        793.00        56.6018      -999.2500      -999.2500       0.603900
        793.50        56.7993      -999.2500      -999.2500       0.606900
        794.00        58.2568      -999.2500      -999.2500       0.600200
        794.50        59.6618      -999.2500      -999.2500       0.588400
        795.00        59.9243      -999.2500      -999.2500       0.597600
        795.50        59.8118      -999.2500      -999.2500       0.617200
        796.00        58.4093      -999.2500      -999.2500       0.635700
        796.50        57.1743      -999.2500      -999.2500       0.628600
        797.00        56.8868      -999.2500      -999.2500       0.605500
        797.50        58.0618      -999.2500      -999.2500       0.594800
        798.00        59.4368      -999.2500      -999.2500       0.606000
        798.50        59.8943      -999.2500      -999.2500       0.619300
        799.00        59.4943      -999.2500      -999.2500       0.614300
        799.50        58.4561      -999.2500      -999.2500       0.607500
        800.00        56.6511      -999.2500      -999.2500       0.615800
        800.50        54.4736      -999.2500      -999.2500       0.629900
        801.00        52.9311      -999.2500      -999.2500       0.621000
        801.50        52.1861      -999.2500      -999.2500       0.602400
        802.00        52.2986      -999.2500      -999.2500       0.595200
        802.50        52.2111      -999.2500      -999.2500       0.599500
        803.00        52.1261      -999.2500      -999.2500       0.600800
