~Version Information Block
VERS .                  2.0:  CWLS LOG ASCII STANDARD - VERSION 2.0
WRAP .                   NO:  One line per depth step
~Well Information Block
#MNEM.UNIT        Data Type   Information
#---------- ----------------  -----------
STRT .FT             728.00:  START DEPTH
STOP .FT           10480.50:  STOP DEPTH
STEP .FT               0.50:  STEP
NULL .              -999.25:  NULL VALUE
COMP .                     :  COMPANY
WELL .               STA-21:  WELL
FLD  .                     :  FIELD
LOC  .                     :  LOCATION
CTRY .                     :  COUNTRY
STAT .                     :  STATE
CNTY .                     :  COUNTY
SRVC .                     :  SERVICE COMPANY
DATE .                     :  DATE
API  .                     :  API NUMBER
UWI  .                     :  UNIQUE WELL ID
~Curve Information Block
#MNEM.UNIT         API CODE   Curve Description
#---------- ----------------  -----------------
DEPTH.FT                   :  DEPTH
GR   .GAPI                 :  Gamma Ray
RT   .OHMM                 :  RESDE
RHOB .G/C3                 :  Bulk Density
NPHI .V/V                  :  Thermal Neutron Porosity (Ratio Method) in Selected Lithology
~Parameter Information Block
#MNEM.UNIT            Value   Description
#---------- ----------------  -----------
PROJECT.            SANTAN_FE:  
~Other Information Block
# 
~A       DEPTH             GR             RT           RHOB           NPHI 
# ...
       3991.50        28.1900         4.1078         2.3741         0.2567
       3992.00        26.8100         4.3246         2.3811         0.2681
       3992.50        27.1000         4.1506         2.3608         0.2925
       3993.00        27.8000         3.7091         2.2885         0.3106
       3993.50        29.1100         3.4766         2.2717         0.3086
       3994.00        30.1600         3.4675         2.2784         0.2922
       3994.50        31.5600         3.6309         2.3054         0.2792
       3995.00        32.3400         4.1271         2.3392         0.2630
       3995.50        33.1100         4.7987         2.3575         0.2414
       3996.00        33.5000         4.9487         2.3449         0.2200
       3996.50        36.0600         4.8331         2.3056         0.2311
       3997.00        38.6400         4.4171         2.2763         0.2778
       3997.50        39.8100         4.3577         2.2921         0.3039
       3998.00        38.5500         4.5194         2.3658         0.2867
       3998.50        37.1600         5.0311         2.4276         0.2350
       3999.00        36.8900         5.2479         2.4539         0.2192
       3999.50        36.9000         5.2909         2.4395         0.2317
       4000.00        36.9100         5.0964         2.3988         0.2583
       4000.50        36.9300         4.6657         2.3705         0.2706
       4001.00        37.8600         4.3669         2.3640         0.2720
       4001.50        39.1700         4.2332         2.3693         0.2706
       4002.00        41.1800         4.1955         2.3879         0.2742
       4002.50        42.2800         4.2331         2.4048         0.2817
       4003.00        42.8800         4.1843         2.4064         0.2892
       4003.50        43.0200         4.0075         2.3835         0.2983
       4004.00        43.1600         3.7281         2.3796         0.3150
       4004.50        42.8600         3.4478         2.3755         0.3375
       4005.00        41.4800         3.2125         2.3387         0.3568
       4005.50        39.3600         3.2487         2.2605         0.3602
       4006.00        37.3700         3.5181         2.1969         0.3555
       4006.50        35.3100         3.7289         2.2123         0.3785
       4007.00        33.7300         3.7477         2.2073         0.4108
       4007.50        31.8500         3.5575         2.2537         0.3890
       4008.00        31.0300         3.2437         2.2954         0.3712
       4008.50        30.3600         2.9362         2.3220         0.3473
       4009.00        30.0700         2.6542         2.3215         0.3445
       4009.50        29.7700         2.3853         2.3056         0.3670
       4010.00        29.8400         2.2244         2.2905         0.4028
       4010.50        30.8900         2.2008         2.2973         0.4198
       4011.00        31.9400         2.2345         2.3061         0.4176
       4011.50        32.8200         2.2550         2.2899         0.4152
       4012.00        33.2800         2.2408         2.2387         0.4040
       4012.50        33.7500         2.2190         2.2142         0.4025
       4013.00        33.4700         2.2432         2.2270         0.3943
       4013.50        31.9400         2.3589         2.2607         0.4003
       4014.00        30.4200         2.5229         2.2827         0.4174
       4014.50        29.5500         2.5948         2.2815         0.4457
       4015.00        29.5200         2.5264         2.2641         0.4737
       4015.50        29.2200         2.3957         2.2679         0.4954
       4016.00        29.1300         2.2376         2.2531         0.5116
       4016.50        29.0400         2.0970         2.2127         0.5276
       4017.00        28.9600         2.0119         2.1578         0.5391
       4017.50        28.6900         1.9329         2.1166         0.5387
       4018.00        28.9900         1.8479         2.0995         0.5232
       4018.50        29.9700         1.7656         2.1008         0.4990
       4019.00        30.9400         1.6960         2.1133         0.4840
       4019.50        32.1700         1.6648         2.1253         0.4871
       4020.00        33.8700         1.6584         2.1275         0.4942
       4020.50        35.5700         1.6543         2.1139         0.4849
       4021.00        36.6500         1.6314         2.0956         0.4575
       4021.50        37.5300         1.5937         2.0988         0.4241
       4022.00        38.4100         1.5667         2.1478         0.4005
       4022.50        39.5900         1.5735         2.2046         0.3825
       4023.00        42.0100         1.6023         2.2316         0.3805
       4023.50        44.4200         1.6369         2.2382         0.3665
       4024.00        46.6400         1.6669         2.2400         0.3569
       4024.50        47.1200         1.6643         2.2370         0.3477
       4025.00        47.6000         1.6382         2.2220         0.3550
       4025.50        48.1300         1.5895         2.1928         0.3790
       4026.00        48.5000         1.5377         2.1597         0.4217
       4026.50        49.4900         1.4948         2.1377         0.4607
       4027.00        50.1100         1.4601         2.1325         0.4714
       4027.50        51.4800         1.4370         2.1384         0.4643
       4028.00        52.7600         1.4404         2.1505         0.4586
       4028.50        54.0400         1.4624         2.1638         0.4651
       4029.00        55.1500         1.5077         2.1747         0.4747
       4029.50        56.7900         1.5989         2.1875         0.4809
       4030.00        58.4200         1.6896         2.1833         0.4858
       4030.50        61.7700         1.7467         2.1266         0.4937
       4031.00        65.6300         1.8310         2.0227         0.4960
       4031.50        69.5000         1.9346         1.9565         0.4771
       4032.00        72.2500         2.0083         1.9629         0.4405
       4032.50        73.4000         2.0961         2.0228         0.4079
       4033.00        74.5600         2.1936         2.1014         0.3939
       4033.50        74.8200         2.2185         2.1652         0.3925
       4034.00        74.8900         2.1293         2.2038         0.3954
       4034.50        74.9600         1.9931         2.2265         0.3982
       4035.00        73.8700         1.8863         2.2415         0.3930
       4035.50        72.3200         1.7582         2.2489         0.3744
       4036.00        68.2800         1.6430         2.2479         0.3332
       4036.50        66.3400         1.5982         2.2475         0.2990
       4037.00        66.7100         1.5722         2.2548         0.2943
       4037.50        70.1300         1.5446         2.2660         0.3071
       4038.00        71.6400         1.5250         2.2610         0.3288
       4038.50        71.8200         1.5278         2.2465         0.3555
       4039.00        71.4400         1.5411         2.2430         0.3802
       4039.50        72.8900         1.5419         2.2480         0.3915
       4040.00        74.5200         1.5298         2.2500         0.3871
       4040.50        76.1500         1.5240         2.2509         0.3826
       4041.00        77.2300         1.5341         2.2567         0.3869
       4041.50        77.8400         1.5538         2.2661         0.4108
       4042.00        77.8000         1.5621         2.2732         0.4411
       4042.50        77.6300         1.5471         2.2784         0.4653
       4043.00        77.4600         1.5347         2.2856         0.4762
       4043.50        76.6400         1.5551         2.2900         0.4684
       4044.00        75.0200         1.5960         2.2887         0.4446
       4044.50        73.4200         1.6383         2.2736         0.4179
