~Version Information Block
VERS .                  2.0:  CWLS LOG ASCII STANDARD - VERSION 2.0
WRAP .                   NO:  One line per depth step
~Well Information Block
#MNEM.UNIT        Data Type   Information
#---------- ----------------  -----------
STRT .FT            6114.50:  START DEPTH
STOP .FT           14965.50:  STOP DEPTH
STEP .FT               0.50:  STEP
NULL .              -999.25:  NULL VALUE
COMP .                     :  COMPANY
WELL .               STA-36:  WELL
FLD  .                     :  FIELD
LOC  .                     :  LOCATION
CTRY .                     :  COUNTRY
STAT .                     :  STATE
CNTY .                     :  COUNTY
SRVC .                     :  SERVICE COMPANY
DATE .                     :  DATE
API  .                     :  API NUMBER
UWI  .                     :  UNIQUE WELL ID
~Curve Information Block
#MNEM.UNIT         API CODE   Curve Description
#---------- ----------------  -----------------
DEPTH.FT                   :  Depth
GR   .GAPI                 :  Gamma Ray
RT   .OHMM                 :  True Resistivity
RHOB .G/C3                 :  Bulk Density
NPHI .V/V                  :  Neutron Porosity
~Parameter Information Block
#MNEM.UNIT            Value   Description
#---------- ----------------  -----------
PROJECT.            SANTAN_FE:  
~Other Information Block
# 
~A       DEPTH             GR             RT           RHOB           NPHI 
# ...
       8468.50        57.6760         1.6431         2.2950       0.306500
       8469.00        55.6520         1.6299         2.2951       0.304700
       8469.50        53.7685         1.6166         2.2975       0.303700
       8470.00        54.9798         1.6008         2.3000       0.303600
       8470.50        58.0402         1.5739         2.3089       0.304700
       8471.00        57.3416         1.5478         2.3223       0.313400
       8471.50        59.4624         1.5162         2.3317       0.317500
       8472.00        63.7894         1.4745         2.3340       0.308800
       8472.50        63.6064         1.4363         2.3279       0.301000
       8473.00        62.3264         1.3637         2.3219       0.298500
       8473.50        66.2477         1.2824         2.3311       0.289100
       8474.00        67.1817         1.1830         2.3618       0.276400
       8474.50        69.0650         1.1181         2.3962       0.276100
       8475.00        71.0031         1.0967         2.4149       0.287500
       8475.50        70.2506         1.1097         2.4206       0.296400
       8476.00        69.2287         1.1415         2.4192       0.292400
       8476.50        72.4424         1.1724         2.4152       0.282400
       8477.00        76.7198         1.2243         2.4109       0.274300
       8477.50        77.5904         1.2889         2.4076       0.272300
       8478.00        78.6743         1.3325         2.4078       0.279200
       8478.50        81.7852         1.3358         2.4069       0.291600
       8479.00        86.8820         1.2946         2.3991       0.303100
       8479.50        91.6716         1.1952         2.3930       0.309800
       8480.00        94.3499         1.0937         2.3978       0.313700
       8480.50        95.0210         1.0058         2.4065       0.327800
       8481.00        95.1798         0.9530         2.4135       0.354000
       8481.50        89.5148         0.9577         2.4219       0.370200
       8482.00        85.4997         0.9511         2.4303       0.373000
       8482.50        90.3013         0.9389         2.4284       0.379000
       8483.00        93.1074         0.9356         2.4238       0.389700
       8483.50        94.6853         0.9336         2.4255       0.404300
       8484.00        96.4733         0.9482         2.4238       0.410300
       8484.50        93.2443         0.9783         2.4119       0.393000
       8485.00        95.2875         1.0579         2.3972       0.378900
       8485.50        97.1991         1.0725         2.3917       0.385800
       8486.00        92.0454         0.9766         2.3935       0.391700
       8486.50        93.3139         0.9486         2.3951       0.385300
       8487.00        95.9561         0.9329         2.3959       0.386400
       8487.50        93.5328         0.9216         2.3977       0.399700
       8488.00        94.0872         0.9074         2.3957       0.405700
       8488.50        92.2256         0.8830         2.3918       0.408000
       8489.00        91.7803         0.8465         2.3920       0.421600
       8489.50        92.5227         0.8067         2.3947       0.431900
       8490.00        91.4191         0.7774         2.3947       0.432400
       8490.50        86.8063         0.7574         2.3936       0.433700
       8491.00        91.9327         0.7363         2.3952       0.424000
       8491.50        88.6542         0.7439         2.3964       0.397000
       8492.00        83.2738         0.7594         2.3926       0.353100
       8492.50        71.4387         0.7869         2.3962       0.302000
       8493.00        58.7299         1.6863         2.4271       0.269100
       8493.50        54.5312         2.2509         2.4653       0.268900
       8494.00        56.7456         1.9649         2.4729       0.299600
       8494.50        67.2700         1.4103         2.4434       0.336500
       8495.00        77.3531         1.1490         2.3927       0.357800
       8495.50        84.2731         1.0534         2.3338       0.376800
       8496.00        94.5770         1.0136         2.2836       0.397100
       8496.50        94.0304         0.9685         2.2502       0.404200
       8497.00        97.0942         0.9292         2.2333       0.407400
       8497.50       100.7744         0.8795         2.2246       0.411100
       8498.00       101.5498         0.8686         2.2188       0.404400
       8498.50       102.5427         0.8718         2.2155       0.401400
       8499.00       106.0339         0.8730         2.2138       0.409900
       8499.50       101.5534         0.8312         2.2141       0.418400
       8500.00       101.0049         0.8302         2.2161       0.419400
       8500.50       101.0323         0.8401         2.2173       0.412800
       8501.00       100.8489         0.8536         2.2154       0.411800
       8501.50        97.8266         0.8652         2.2141       0.414000
       8502.00        92.1739         0.9063         2.2190       0.397700
       8502.50        87.0101         0.9684         2.2283       0.374400
       8503.00        83.0228         0.9800         2.2366       0.372200
       8503.50        80.0510         0.8983         2.2477       0.381700
       8504.00        74.6821         0.8645         2.2737       0.368600
       8504.50        69.0164         0.9307         2.3166       0.333100
       8505.00        65.1127         1.0240         2.3541       0.307300
       8505.50        65.3040         1.2507         2.3592       0.288700
       8506.00        60.1117         1.3703         2.3494       0.274300
       8506.50        63.8800         1.1863         2.3433       0.284700
       8507.00        65.0886         0.9949         2.3290       0.331100
       8507.50        70.9194         0.9014         2.2999       0.350400
       8508.00        72.3697         0.8837         2.2686       0.354600
       8508.50        71.8317         0.9052         2.2493       0.357400
       8509.00        69.3095         0.9084         2.2451       0.363400
       8509.50        69.9179         0.8619         2.2467       0.373335
       8510.00        72.0189         0.7654         2.2454       0.382386
       8510.50        71.9760         0.6539         2.2393       0.391747
       8511.00        76.9669         0.5632         2.2295       0.402482
       8511.50        81.8805         0.4962         2.2154       0.416327
       8512.00        82.8569         0.4240         2.2002       0.423796
       8512.50        83.3738         0.4925         2.1949       0.419778
       8513.00        76.4970         0.6397         2.2289       0.399423
       8513.50        66.0076         1.1514         2.3321       0.361039
       8514.00        57.1460         2.0458         2.4693       0.309939
       8514.50        65.1613         1.4344         2.5457       0.286956
       8515.00        80.4279         0.8217         2.5034       0.299184
       8515.50        80.8928         0.7681         2.3958       0.348618
       8516.00        78.7574         0.9296         2.3330       0.393112
       8516.50        67.6348         0.9940         2.3190       0.386586
       8517.00        63.8853         1.0738         2.3090       0.366475
       8517.50        69.3462         1.0349         2.3018       0.344112
       8518.00        67.9131         0.9837         2.2998       0.322917
       8518.50        62.0497         1.0831         2.3034       0.316903
       8519.00        63.6888         1.1625         2.3075       0.319912
       8519.50        64.7342         1.2046         2.3101       0.317988
       8520.00        61.5923         1.2143         2.3124       0.311579
       8520.50        62.3934         1.2019         2.3104       0.308312
       8521.00        62.6250         1.1703         2.3052       0.308210
       8521.50        63.6332         1.1330         2.3017       0.312289
