~Version Information Block
VERS .                  2.0:  CWLS LOG ASCII STANDARD - VERSION 2.0
WRAP .                   NO:  One line per depth step
~Well Information Block
#MNEM.UNIT        Data Type   Information
#---------- ----------------  -----------
STRT .FT             224.00:  START DEPTH
STOP .FT            7977.50:  STOP DEPTH
STEP .FT               0.50:  STEP
NULL .              -999.25:  NULL VALUE
COMP .                     :  COMPANY
WELL .               STA-22:  WELL
FLD  .                     :  FIELD
LOC  .                     :  LOCATION
CTRY .                     :  COUNTRY
STAT .                     :  STATE
CNTY .                     :  COUNTY
SRVC .                     :  SERVICE COMPANY
DATE .                     :  DATE
API  .                     :  API NUMBER
UWI  .                     :  UNIQUE WELL ID
~Curve Information Block
#MNEM.UNIT         API CODE   Curve Description
#---------- ----------------  -----------------
DEPTH.FT                   :  DEPTH
GR   .GAPI                 :  Gamma Ray
RT   .OHMM                 :  RESDE
RHOB .G/C3                 :  Bulk Density
NPHI .V/V                  :  Thermal Neutron Porosity (Ratio Method) in Selected Lithology
~Parameter Information Block
#MNEM.UNIT            Value   Description
#---------- ----------------  -----------
PROJECT.            SANTAN_FE:  
~Other Information Block
# 
~A       DEPTH             GR             RT           RHOB           NPHI 
# ...
       4825.00        82.5800         1.4521         2.2791       0.437600
       4825.50        85.5500         1.4029         2.2800       0.455600
       4826.00        89.0600         1.3476         2.2617       0.412800
       4826.50        90.7000         1.3187         2.2416       0.377400
       4827.00        92.5300         1.2901         2.2215       0.362600
       4827.50        93.3300         1.2997         2.2292       0.406400
       4828.00        93.0000         1.2628         2.2393       0.434600
       4828.50        91.8900         1.2511         2.2307       0.485500
       4829.00        90.1700         1.2500         2.2393       0.499200
       4829.50        88.9400         1.2500         2.2400       0.530200
       4830.00        88.5100         1.2656         2.2494       0.501900
       4830.50        88.9000         1.2552         2.2500       0.528000
       4831.00        89.8200         1.2570         2.2594       0.517100
       4831.50        87.8800         1.2866         2.2411       0.510400
       4832.00        83.6200         1.4194         2.2495       0.451200
       4832.50        76.8500         1.5314         2.2405       0.438200
       4833.00        69.9500         1.5987         2.2305       0.447200
       4833.50        63.5300         1.6351         2.2109       0.392100
       4834.00        56.2800         1.6495         2.2004       0.356400
       4834.50        51.1100         1.6508         2.2096       0.335900
       4835.00        49.1500         1.6307         2.2100       0.344400
       4835.50        51.2800         1.6058         2.1907       0.356900
       4836.00        54.2100         1.5611         2.1900       0.366900
       4836.50        58.1300         1.5202         2.1900       0.383900
       4837.00        61.3800         1.5050         2.1997       0.369100
       4837.50        64.6900         1.4950         2.2000       0.374000
       4838.00        66.2200         1.4900         2.2196       0.393600
       4838.50        68.0100         1.4796         2.2102       0.413500
       4839.00        69.2400         1.4595         2.1903       0.386200
       4839.50        70.0200         1.4500         2.1900       0.350100
       4840.00        70.0400         1.4392         2.1900       0.373300
       4840.50        70.7800         1.4300         2.1999       0.422900
       4841.00        71.3900         1.4300         2.2000       0.459600
       4841.50        72.4100         1.4187         2.2000       0.398400
       4842.00        73.5200         1.4157         2.1900       0.353700
       4842.50        76.1000         1.4258         2.1899       0.382300
       4843.00        78.3300         1.4359         2.1699       0.457200
       4843.50        79.9700         1.4400         2.1602       0.508900
       4844.00        79.4700         1.4400         2.1808       0.526000
       4844.50        79.0800         1.4461         2.2499       0.511400
       4845.00        79.1700         1.4562         2.2402       0.493500
       4845.50        80.7700         1.4725         2.2498       0.472400
       4846.00        83.0700         1.4800         2.2409       0.490100
       4846.50        85.3700         1.4800         2.2795       0.509800
       4847.00        88.1000         1.4864         2.2597       0.502000
       4847.50        89.0800         1.4965         2.2497       0.429900
       4848.00        90.2200         1.4868         2.2400       0.387000
       4848.50        90.0000         1.4800         2.2393       0.426300
       4849.00        91.0000         1.4665         2.2200       0.496800
       4849.50        91.8000         1.4464         2.2200       0.558300
       4850.00        94.1300         1.4331         2.2213       0.580500
       4850.50        96.5900         1.4230         2.2487       0.588800
       4851.00        98.3500         1.4130         2.2214       0.549600
       4851.50        98.7700         1.4100         2.2500       0.493300
       4852.00        98.7900         1.4460         2.2505       0.477400
       4852.50        99.4000         1.4527         2.2578       0.522800
       4853.00       100.0200         1.4794         2.2212       0.554700
       4853.50       101.2200         1.4529         2.2388       0.549300
       4854.00       102.1100         1.4400         2.2200       0.540100
       4854.50       103.6600         1.4551         2.2160       0.536900
       4855.00       104.9900         1.4600         2.1607       0.568200
       4855.50       102.9600         1.4214         2.1721       0.554100
       4856.00        99.2800         1.4334         2.2059       0.513200
       4856.50        93.9400         1.4243         2.2808       0.485800
       4857.00        90.6800         1.4200         2.2884       0.468400
       4857.50        84.5100         1.5002         2.2675       0.460800
       4858.00        80.4100         1.6171         2.2392       0.445300
       4858.50        78.3900         1.6890         2.2309       0.454600
       4859.00        80.9700         1.7412         2.2391       0.456600
       4859.50        83.6000         1.6918         2.2318       0.472600
       4860.00        85.2000         1.5375         2.2500       0.516700
       4860.50        86.2800         1.5100         2.2490       0.548600
       4861.00        87.5500         1.5100         2.2410       0.537400
       4861.50        89.1200         1.5014         2.2490       0.501400
       4862.00        90.5100         1.5000         2.2421       0.464500
       4862.50        90.8100         1.5088         2.2589       0.453100
       4863.00        90.8900         1.5277         2.2478       0.442400
       4863.50        90.9700         1.5300         2.2323       0.463600
       4864.00        90.4200         1.5749         2.2488       0.488000
       4864.50        89.9900         1.6162         2.2424       0.473200
       4865.00        87.8300         1.6200         2.2552       0.455000
       4865.50        86.3000         1.6108         2.2175       0.424500
       4866.00        84.3200         1.5822         2.2000       0.430400
       4866.50        84.0300         1.5426         2.2000       0.462400
       4867.00        84.2800         1.5400         2.2013       0.468000
       4867.50        86.0600         1.5305         2.2060       0.460000
       4868.00        87.8700         1.4917         2.1814       0.462300
       4868.50        89.5000         1.4804         2.1914       0.476900
       4869.00        91.5400         1.4703         2.2043       0.475900
       4869.50        93.4800         1.4700         2.2271       0.455700
       4870.00        95.6100         1.4700         2.2100       0.439900
       4870.50        95.6700         1.4899         2.2100       0.451000
       4871.00        95.4300         1.4600         2.2130       0.471100
       4871.50        94.4400         1.4502         2.2300       0.470700
       4872.00        93.7000         1.4698         2.2300       0.484400
       4872.50        93.1800         1.4600         2.2300       0.493600
       4873.00        93.2300         1.4600         2.2316       0.524700
       4873.50        93.2700         1.4604         2.2383       0.533500
       4874.00        92.2100         1.4723         2.2283       0.510700
       4874.50        91.7400         1.5200         2.2183       0.507900
       4875.00        93.9000         1.5206         2.2117       0.527900
       4875.50        97.5100         1.5293         2.2235       0.578200
       4876.00       100.1600         1.5200         2.2400       0.551100
       4876.50        99.8000         1.5208         2.2382       0.523500
       4877.00       100.6300         1.5291         2.2300       0.512300
       4877.50       100.5600         1.5190         2.2281       0.517800
       4878.00        99.2100         1.5100         2.2181       0.509600
