~Version Information Block
VERS .                  2.0:  CWLS LOG ASCII STANDARD - VERSION 2.0
WRAP .                   NO:  One line per depth step
~Well Information Block
#MNEM.UNIT        Data Type   Information
#---------- ----------------  -----------
STRT .FT            3742.00:  START DEPTH
STOP .FT            8440.00:  STOP DEPTH
STEP .FT               0.50:  STEP
NULL .              -999.25:  NULL VALUE
COMP .                     :  COMPANY
WELL .                STA-2:  WELL
FLD  .                     :  FIELD
LOC  .                     :  LOCATION
CTRY .                     :  COUNTRY
STAT .                     :  STATE
CNTY .                     :  COUNTY
SRVC .                     :  SERVICE COMPANY
DATE .                     :  DATE
API  .                     :  API NUMBER
UWI  .                     :  UNIQUE WELL ID
~Curve Information Block
#MNEM.UNIT         API CODE   Curve Description
#---------- ----------------  -----------------
DEPTH.FT                   :  DEPTH
GR   .GAPI                 :  Gamma Ray
RT   .OHMM                 :  Deep resistivity
RHOB .G/C3                 :  Bulk Density
NPHI .V/V                  :  Neutron porosity
DT   .US/F                 :  Sonic
~Parameter Information Block
#MNEM.UNIT            Value   Description
#---------- ----------------  -----------
PROJECT.            SANTAN_FE:  
~Other Information Block
# 
~A       DEPTH             GR             RT           RHOB           NPHI             DT 
# ...
       8058.50        94.5800         3.1400         2.4900       0.230000        89.3000
       8059.00        97.0200         3.1800         2.4800       0.240000        91.1000
       8059.50        97.4200         2.8500         2.4800       0.250000        92.6500
       8060.00        96.6300         2.8300         2.4600       0.250000        93.5500
       8060.50        95.3600         2.7900         2.4700       0.250000        94.1000
       8061.00        96.5100         2.6300         2.4700       0.260000        93.2000
       8061.50        98.2600         2.9400         2.4800       0.260000        92.1500
       8062.00        98.8600         2.8800         2.4900       0.230000        89.2000
       8062.50        90.6400         3.5700         2.5200       0.210000        87.7000
       8063.00        83.8400         3.6400         2.5300       0.190000        86.1500
       8063.50        78.1900         3.3900         2.5100       0.210000        84.3000
       8064.00        81.5700         3.8200         2.4800       0.220000        85.1000
       8064.50        78.6800         3.9300         2.4600       0.230000        86.2500
       8065.00        74.1200         3.8900         2.4100       0.230000        87.7000
       8065.50        62.3400         3.5500         2.3500       0.220000        88.6500
       8066.00        57.5400         3.0900         2.3000       0.220000        89.1000
       8066.50        53.3900         2.9200         2.3100       0.210000        88.5000
       8067.00        56.9900         2.9800         2.3300       0.210000        87.7500
       8067.50        53.9000         3.2500         2.3400       0.210000        87.4000
       8068.00        50.8300         2.6700         2.3400       0.210000        87.0000
       8068.50        51.4800         2.3200         2.3400       0.210000        87.4000
       8069.00        53.6100         2.3800         2.3600       0.220000        87.2000
       8069.50        60.4400         2.5400         2.3700       0.220000        87.5000
       8070.00        64.5700         2.4200         2.3900       0.230000        88.2500
       8070.50        74.3500         2.6100         2.4100       0.230000        89.0500
       8071.00        80.2100         2.8700         2.4400       0.230000        88.2500
       8071.50        83.1700         3.0500         2.4500       0.230000        88.1500
       8072.00        78.1700         2.5200         2.4400       0.240000        87.5500
       8072.50        64.7800         1.8700         2.3800       0.230000        88.3000
       8073.00        51.9700         1.4400         2.3000       0.220000        87.9000
       8073.50        42.6400         1.3600         2.2600       0.220000        88.5000
       8074.00        43.5200         1.6900         2.2700       0.230000        88.6000
       8074.50        48.0600         1.8500         2.3000       0.240000        88.2000
       8075.00        59.3300         2.3800         2.3500       0.230000        87.7000
       8075.50        69.1600         2.6900         2.4200       0.240000        87.2500
       8076.00        76.3000         3.3500         2.4700       0.240000        88.1000
       8076.50        79.2000         3.2400         2.4900       0.240000        88.8000
       8077.00        83.4800         2.8400         2.4900       0.250000        89.0500
       8077.50        88.7900         2.8500         2.4900       0.250000        89.0000
       8078.00        86.9100         2.4600         2.4900       0.240000        88.3000
       8078.50        85.9100         2.3500         2.4800       0.230000        88.0000
       8079.00        86.1300         2.3100         2.4700       0.230000        89.6000
       8079.50        89.8900         2.1500         2.4800       0.250000        92.1500
       8080.00        96.7300         1.9200         2.4900       0.280000        93.6000
       8080.50        94.4600         1.6500         2.5000       0.270000        90.6000
       8081.00        86.4100         3.9600         2.5100       0.230000        85.5000
       8081.50        75.0500         4.8400         2.5000       0.180000        81.9000
       8082.00        70.4000         3.6800         2.4900       0.180000        80.1000
       8082.50        75.0900         3.8900         2.5000       0.200000        80.8000
       8083.00        80.6000         2.9900         2.5000       0.200000        83.4000
       8083.50        81.9100         2.9400         2.5100       0.210000        84.6000
       8084.00        83.0000         2.8700         2.5100       0.230000        85.5000
       8084.50        81.3800         2.4900         2.5300       0.240000        86.0000
       8085.00        89.9700         2.2800         2.5500       0.250000        87.8000
       8085.50       100.8600         2.2000         2.5500       0.250000        89.7000
       8086.00       112.0900         2.3000         2.5400       0.260000        91.4500
       8086.50       116.2900         2.1300         2.5200       0.270000        93.3500
       8087.00       115.9700         1.9300         2.5400       0.280000        94.0500
       8087.50       115.9100         2.0200         2.5400       0.280000        95.2000
       8088.00       116.2200         1.8400         2.5400       0.290000        96.2000
       8088.50       114.3100         1.9600         2.5300       0.290000        95.4000
       8089.00       109.8400         2.0300         2.5300       0.270000        93.1000
       8089.50        95.3700         2.5000         2.5300       0.230000        88.2000
       8090.00        84.0800         3.1800         2.5200       0.180000        81.7000
       8090.50        68.1600         5.2900         2.5200       0.160000        78.4500
       8091.00        62.6100         6.4600         2.4900       0.150000        78.1500
       8091.50        61.6000         3.4600         2.4500       0.170000        79.1000
       8092.00        65.8500         3.0700         2.4400       0.180000        82.9000
       8092.50        73.7700         3.0400         2.4600       0.200000        84.8000
       8093.00        78.1600         3.2400         2.4800       0.210000        85.4000
       8093.50        83.4300         3.2000         2.4900       0.220000        85.9500
       8094.00        84.0500         2.7600         2.4800       0.230000        86.6500
       8094.50        85.7100         2.7900         2.4800       0.220000        87.3000
       8095.00        86.5000         2.7100         2.5000       0.230000        88.0000
       8095.50        87.5800         2.5800         2.5200       0.220000        88.7000
       8096.00        91.5000         2.6400         2.5200       0.250000        88.9000
       8096.50        95.7500         2.5800         2.5200       0.250000        89.5000
       8097.00       101.1800         2.5800         2.5200       0.260000        90.7500
       8097.50       102.5000         2.5100         2.5300       0.260000        90.7500
       8098.00       100.0300         2.3300         2.5200       0.240000        88.8500
       8098.50        95.0600         2.9600         2.5000       0.220000        87.9000
       8099.00        84.6200         3.0100         2.4800       0.200000        85.4000
       8099.50        80.4800         3.4400         2.4800       0.190000        84.1500
       8100.00        79.2800         3.7100         2.4700       0.190000        83.7500
       8100.50        84.5900         3.6100         2.4800       0.200000        83.2500
       8101.00        85.4600         3.3800         2.4900       0.200000        84.3000
       8101.50        89.4400         3.3600         2.5200       0.210000        84.7000
       8102.00        91.0900         3.3200         2.5400       0.210000        85.1500
       8102.50        93.2900         3.1800         2.5400       0.210000        84.2500
