~Version Information Block
VERS .                  2.0:  CWLS LOG ASCII STANDARD - VERSION 2.0
WRAP .                   NO:  One line per depth step
~Well Information Block
#MNEM.UNIT        Data Type   Information
#---------- ----------------  -----------
STRT .FT            3742.00:  START DEPTH
STOP .FT            8440.00:  STOP DEPTH
STEP .FT               0.50:  STEP
NULL .              -999.25:  NULL VALUE
COMP .                     :  COMPANY
WELL .                STA-2:  WELL
FLD  .                     :  FIELD
LOC  .                     :  LOCATION
CTRY .                     :  COUNTRY
STAT .                     :  STATE
CNTY .                     :  COUNTY
SRVC .                     :  SERVICE COMPANY
DATE .                     :  DATE
API  .                     :  API NUMBER
UWI  .                     :  UNIQUE WELL ID
~Curve Information Block
#MNEM.UNIT         API CODE   Curve Description
#---------- ----------------  -----------------
DEPTH.FT                   :  DEPTH
GR   .GAPI                 :  Gamma Ray
RT   .OHMM                 :  Deep resistivity
RHOB .G/C3                 :  Bulk Density
NPHI .V/V                  :  Neutron porosity
DT   .US/F                 :  Sonic
~Parameter Information Block
#MNEM.UNIT            Value   Description
#---------- ----------------  -----------
PROJECT.            SANTAN_FE:  
~Other Information Block
# 
~A       DEPTH             GR             RT           RHOB           NPHI             DT 
# ...
       4009.00        66.8057      -999.2500      -999.2500       0.530000      -999.2500
       4009.50        65.2477      -999.2500      -999.2500       0.540000      -999.2500
       4010.00        62.4997      -999.2500      -999.2500       0.530000      -999.2500
       4010.50        61.0417      -999.2500      -999.2500       0.510000      -999.2500
       4011.00        60.1737      -999.2500      -999.2500       0.490000      -999.2500
       4011.50        57.9557      -999.2500      -999.2500       0.460000      -999.2500
       4012.00        56.1877      -999.2500      -999.2500       0.430000      -999.2500
       4012.50        58.6297      -999.2500      -999.2500       0.470000      -999.2500
       4013.00        63.6217      -999.2500      -999.2500       0.500000      -999.2500
       4013.50        72.9837      -999.2500      -999.2500       0.550000      -999.2500
       4014.00        77.4457      -999.2500      -999.2500       0.510000      -999.2500
       4014.50        78.3377      -999.2500      -999.2500       0.470000      -999.2500
       4015.00        71.1297      -999.2500      -999.2500       0.400000      -999.2500
       4015.50        68.5117      -999.2500      -999.2500       0.380000      -999.2500
       4016.00        67.7837      -999.2500      -999.2500       0.390000      -999.2500
       4016.50        69.7557      -999.2500      -999.2500       0.450000       135.1500
       4017.00        67.4477      -999.2500      -999.2500       0.490000       165.7000
       4017.50        67.8097      -999.2500      -999.2500       0.500000       163.3000
       4018.00        70.6717      -999.2500      -999.2500       0.460000       170.7000
       4018.50        71.2838      -999.2500      -999.2500       0.460000       174.6000
       4019.00        69.8858      -999.2500      -999.2500       0.460000       177.4500
       4019.50        68.8278      -999.2500      -999.2500       0.450000       180.2500
       4020.00        68.0798         1.4500      -999.2500       0.400000       175.8000
       4020.50        68.3518         1.6800         2.1600       0.390000       168.6000
       4021.00        63.4438         1.2300         2.1700       0.400000       162.5500
       4021.50        63.2158         1.6100         2.1600       0.410000       168.2000
       4022.00        61.8878         1.4600         2.1400       0.430000       170.6000
       4022.50        64.8800         1.3200         2.1300       0.440000       165.4000
       4023.00        67.7100         1.5500         2.1300       0.480000       160.9000
       4023.50        71.6300         1.6800         2.1400       0.460000       160.6500
       4024.00        72.3000         1.7000         2.0800       0.430000       161.1500
       4024.50        71.2700         1.3200         2.0100       0.420000       159.0000
       4025.00        67.8400         1.4300         2.0200       0.460000       158.3000
       4025.50        69.8500         1.7300         2.0900       0.490000       136.7000
       4026.00        74.2400         1.6000         2.1700       0.460000       138.1000
       4026.50        78.6300         1.4600         2.2000       0.400000       134.8000
       4027.00        76.9800         1.3700         2.1500       0.420000       136.7000
       4027.50        74.7100         1.3300         2.0900       0.430000       139.1000
       4028.00        73.8800         1.2000         2.0600       0.450000       139.3500
       4028.50        76.8400         1.1900         2.0700       0.470000       139.0000
       4029.00        78.7900         1.5100         2.1200       0.490000       137.0500
       4029.50        85.0700         1.6400         2.2000       0.500000       135.4500
       4030.00        84.8000         1.2500         2.2600       0.490000       137.2500
       4030.50        91.4800         1.5100         2.2700       0.460000       136.0000
       4031.00        92.5800         1.3000         2.2500       0.450000       136.8000
       4031.50        94.1800         1.1500         2.2500       0.440000       137.7500
       4032.00        94.1800         1.1200         2.2500       0.470000       138.3000
       4032.50        91.8500         1.1400         2.2500       0.460000       137.0000
       4033.00        92.7800         1.2800         2.2600       0.450000       135.3000
       4033.50        90.9400         1.2500         2.2700       0.430000       131.9000
       4034.00        88.9700         1.3100         2.2800       0.430000       129.3000
       4034.50        89.4000         1.4700         2.2900       0.430000       128.5500
       4035.00        85.3900         1.3200         2.2900       0.440000       127.7500
       4035.50        80.8500         1.1800         2.2900       0.430000       126.1000
       4036.00        75.3700         1.5200         2.2800       0.420000       125.4000
       4036.50        71.4900         1.8700         2.2800       0.400000       122.9500
       4037.00        69.3100         1.6600         2.2700       0.410000       119.4000
       4037.50        68.1100         1.7200         2.2600       0.400000       118.6000
       4038.00        69.8700         1.4800         2.2400       0.410000       118.5000
       4038.50        78.7700         1.7100         2.2600       0.420000       119.7500
       4039.00        82.2200         2.0100         2.2700       0.410000       126.4500
       4039.50        86.4400         1.6700         2.2900       0.400000       126.6000
       4040.00        84.3700         1.4100         2.2800       0.370000       126.6000
       4040.50        86.6400         1.4500         2.2800       0.360000       127.1000
       4041.00        86.9400         1.4500         2.2700       0.360000       127.0500
       4041.50        88.8400         1.3800         2.2800       0.360000       126.8000
       4042.00        88.6200         1.4800         2.2800       0.390000       123.3000
       4042.50        80.7500         1.9200         2.2600       0.380000       116.3000
       4043.00        70.9900         1.4500         2.2500       0.400000       111.7500
       4043.50        60.8000         1.7000         2.2400       0.370000       103.3000
       4044.00        54.7500         2.5500         2.3000       0.280000        97.8000
       4044.50        48.0900         2.4200         2.4200       0.170000        85.4500
       4045.00        41.6100         2.7400         2.6000       0.100000        71.0500
       4045.50        37.5000         7.0800         2.7100       0.100000        63.0500
       4046.00        34.8400         9.8900         2.7400       0.120000        59.0000
       4046.50        37.4500         6.9300         2.6700       0.170000        67.1000
       4047.00        41.0600         9.5700         2.5400       0.230000        76.3500
       4047.50        49.9400         7.4100         2.3500       0.300000        84.0500
       4048.00        57.7700         3.1400         2.2500       0.330000       102.5000
       4048.50        72.1300         2.0700         2.2300       0.340000       114.8000
       4049.00        82.1300         2.0500         2.2600       0.360000       117.1000
       4049.50        87.8600         1.6400         2.2900       0.370000       119.7500
       4050.00        88.1500         1.4700         2.3000       0.360000       120.0500
       4050.50        84.1300         1.6400         2.3100       0.340000       119.8000
       4051.00        79.2800         1.8100         2.2900       0.320000       117.1000
       4051.50        65.8700         2.3800         2.2700       0.330000       115.1500
       4052.00        61.1400         1.8000         2.2700       0.340000       116.4000
       4052.50        65.4400         2.3400         2.2700       0.340000       119.6000
       4053.00        77.0700         2.1600         2.2800       0.360000       122.0500
