~Version Information Block
VERS .                  2.0:  CWLS LOG ASCII STANDARD - VERSION 2.0
WRAP .                   NO:  One line per depth step
~Well Information Block
#MNEM.UNIT        Data Type   Information
#---------- ----------------  -----------
STRT .FT             728.00:  START DEPTH
STOP .FT           10480.50:  STOP DEPTH
STEP .FT               0.50:  STEP
NULL .              -999.25:  NULL VALUE
COMP .                     :  COMPANY
WELL .               STA-21:  WELL
FLD  .                     :  FIELD
LOC  .                     :  LOCATION
CTRY .                     :  COUNTRY
STAT .                     :  STATE
CNTY .                     :  COUNTY
SRVC .                     :  SERVICE COMPANY
DATE .                     :  DATE
API  .                     :  API NUMBER
UWI  .                     :  UNIQUE WELL ID
~Curve Information Block
#MNEM.UNIT         API CODE   Curve Description
#---------- ----------------  -----------------
DEPTH.FT                   :  DEPTH
GR   .GAPI                 :  Gamma Ray
RT   .OHMM                 :  RESDE
RHOB .G/C3                 :  Bulk Density
NPHI .V/V                  :  Thermal Neutron Porosity (Ratio Method) in Selected Lithology
~Parameter Information Block
#MNEM.UNIT            Value   Description
#---------- ----------------  -----------
PROJECT.            SANTAN_FE:  
~Other Information Block
# 
~A       DEPTH             GR             RT           RHOB           NPHI 
# ...
       9769.50        82.8400         1.4400         2.5400         0.3300
       9770.00        84.6800         1.4200         2.5400         0.3200
       9770.50        86.1800         1.4000         2.5200         0.3200
       9771.00        87.8600         1.3900         2.5100         0.3300
       9771.50        86.1900         1.3600         2.5200         0.3200
       9772.00        86.6000         1.3500         2.5200         0.3200
       9772.50        88.5300         1.3500         2.5100         0.3200
       9773.00        89.4500         1.3300         2.5000         0.3300
       9773.50        87.5300         1.4300         2.5000         0.3100
       9774.00        78.8400         1.8800         2.5200         0.2900
       9774.50        65.5300         2.6200         2.5100         0.2500
       9775.00        53.6400         3.1000         2.5500         0.2200
       9775.50        47.5200         3.0600         2.5100         0.2000
       9776.00        48.1900         2.9000         2.5100         0.2000
       9776.50        51.3700         2.8000         2.4500         0.2000
       9777.00        55.3900         2.7900         2.4700         0.2100
       9777.50        58.2400         2.9000         2.4900         0.2100
       9778.00        58.8300         2.8400         2.5000         0.2200
       9778.50        58.4100         2.7500         2.5000         0.2200
       9779.00        57.4800         2.7100         2.5100         0.2200
       9779.50        63.2600         2.6100         2.5100         0.2200
       9780.00        72.2100         2.3600         2.5100         0.2400
       9780.50        81.8400         2.0400         2.5200         0.2600
       9781.00        83.9300         1.7100         2.5300         0.2800
       9781.50        82.2600         1.7000         2.5200         0.2800
       9782.00        78.8300         1.8000         2.5100         0.2800
       9782.50        74.3100         1.9000         2.5000         0.2600
       9783.00        70.6300         2.1300         2.5100         0.2500
       9783.50        67.6100         2.2600         2.5100         0.2400
       9784.00        65.7700         2.4000         2.5300         0.2300
       9784.50        61.8400         2.5800         2.5000         0.2300
       9785.00        55.6500         2.6000         2.4900         0.2200
       9785.50        51.1200         2.7100         2.4600         0.2200
       9786.00        49.5300         2.6600         2.4800         0.2300
       9786.50        50.7000         2.6100         2.4700         0.2300
       9787.00        49.8700         2.6400         2.5100         0.2200
       9787.50        47.3600         2.7600         2.5100         0.2200
       9788.00        48.8600         3.1200         2.5200         0.2100
       9788.50        56.5600         3.0900         2.5100         0.2000
       9789.00        63.3400         2.5300         2.5300         0.2000
       9789.50        63.6000         2.3500         2.5100         0.2200
       9790.00        58.4100         2.4900         2.5100         0.2200
       9790.50        57.0700         2.7200         2.4900         0.2300
       9791.00        59.6600         2.5600         2.5000         0.2200
       9791.50        65.0200         2.3800         2.5000         0.2400
       9792.00        69.0300         2.1900         2.5000         0.2400
       9792.50        72.2100         2.0400         2.5100         0.2500
       9793.00        76.3900         1.8200         2.5300         0.2600
       9793.50        78.4900         1.8000         2.5500         0.2700
       9794.00        75.5700         2.0200         2.5500         0.2700
       9794.50        65.7000         2.2400         2.5200         0.2500
       9795.00        54.7300         2.7200         2.4600         0.2200
       9795.50        47.3700         2.8900         2.4100         0.1900
       9796.00        44.1000         3.3300         2.4100         0.1800
       9796.50        43.5100         4.2300         2.4300         0.1700
       9797.00        43.9300         4.2800         2.4300         0.1700
       9797.50        43.9200         4.4100         2.4000         0.1700
       9798.00        43.4200         4.3800         2.4000         0.1800
       9798.50        42.8400         3.9300         2.4000         0.1900
       9799.00        42.4200         3.7400         2.4000         0.1900
       9799.50        43.2600         3.4300         2.4100         0.2100
       9800.00        45.5100         3.2000         2.4200         0.2000
       9800.50        51.2000         2.7300         2.4400         0.2100
       9801.00        55.6300         2.7100         2.4400         0.2200
       9801.50        64.1700         2.5300         2.4500         0.2400
       9802.00        68.7000         2.2700         2.4500         0.2600
       9802.50        70.8000         2.1900         2.4700         0.2700
       9803.00        69.1300         2.4000         2.4900         0.2700
       9803.50        69.8800         2.4100         2.4900         0.2500
       9804.00        69.5400         2.3400         2.5000         0.2400
       9804.50        65.6100         2.3500         2.4800         0.2300
       9805.00        60.9200         2.4100         2.4900         0.2300
       9805.50        59.9900         2.4500         2.4900         0.2300
       9806.00        60.5000         2.5100         2.5000         0.2300
       9806.50        59.1600         2.5200         2.4700         0.2200
       9807.00        57.3200         2.5000         2.4600         0.2200
       9807.50        54.7300         2.5100         2.4400         0.2200
       9808.00        52.5500         2.4500         2.4400         0.2200
       9808.50        51.4600         2.4000         2.4300         0.2200
       9809.00        52.0500         2.4100         2.4000         0.2200
       9809.50        52.4700         2.3500         2.4000         0.2100
       9810.00        51.7900         2.3000         2.4000         0.2100
       9810.50        50.2000         2.3300         2.4100         0.2200
       9811.00        49.6200         2.3100         2.4000         0.2200
       9811.50        50.8700         2.3200         2.4300         0.2200
       9812.00        52.1300         2.3800         2.4700         0.2200
       9812.50        52.5500         2.4400         2.4900         0.2300
       9813.00        51.7100         2.4100         2.4700         0.2200
       9813.50        51.8700         2.3500         2.4400         0.2200
       9814.00        54.3000         2.3100         2.4400         0.2200
       9814.50        57.4000         2.3800         2.4600         0.2300
       9815.00        63.0100         2.3200         2.5000         0.2300
       9815.50        69.7800         2.1800         2.5100         0.2500
       9816.00        76.3900         1.8600         2.5200         0.2600
       9816.50        80.8300         1.5500         2.5300         0.2800
       9817.00        82.6700         1.5000         2.5600         0.2900
       9817.50        81.6700         1.5300         2.5600         0.3000
       9818.00        79.4100         1.6100         2.5500         0.3000
       9818.50        72.8000         1.7800         2.5400         0.2800
       9819.00        64.8500         2.2400         2.5300         0.2700
       9819.50        56.9800         2.4200         2.5100         0.2500
       9820.00        53.3000         2.3500         2.4800         0.2300
       9820.50        54.1400         2.3900         2.4700         0.2200
       9821.00        55.8100         2.4500         2.4800         0.2200
       9821.50        58.6600         2.4700         2.5000         0.2300
       9822.00        61.7500         2.3800         2.5100         0.2400
       9822.50        65.8500         2.3000         2.5300         0.2400
