~Version Information Block
VERS .                  2.0:  CWLS LOG ASCII STANDARD - VERSION 2.0
WRAP .                   NO:  One line per depth step
~Well Information Block
#MNEM.UNIT        Data Type   Information
#---------- ----------------  -----------
STRT .FT             224.00:  START DEPTH
STOP .FT            7977.50:  STOP DEPTH
STEP .FT               0.50:  STEP
NULL .              -999.25:  NULL VALUE
COMP .                     :  COMPANY
WELL .               STA-22:  WELL
FLD  .                     :  FIELD
LOC  .                     :  LOCATION
CTRY .                     :  COUNTRY
STAT .                     :  STATE
CNTY .                     :  COUNTY
SRVC .                     :  SERVICE COMPANY
DATE .                     :  DATE
API  .                     :  API NUMBER
UWI  .                     :  UNIQUE WELL ID
~Curve Information Block
#MNEM.UNIT         API CODE   Curve Description
#---------- ----------------  -----------------
DEPTH.FT                   :  DEPTH
GR   .GAPI                 :  Gamma Ray
RT   .OHMM                 :  RESDE
RHOB .G/C3                 :  Bulk Density
NPHI .V/V                  :  Thermal Neutron Porosity (Ratio Method) in Selected Lithology
~Parameter Information Block
#MNEM.UNIT            Value   Description
#---------- ----------------  -----------
PROJECT.            SANTAN_FE:  
~Other Information Block
# 
~A       DEPTH             GR             RT           RHOB           NPHI 
# ...
        759.00        71.6100         0.8123      -999.2500    -999.250000
        759.50        72.6000         0.8200      -999.2500    -999.250000
        760.00        73.1200         0.8200      -999.2500    -999.250000
        760.50        72.7500         0.8200      -999.2500    -999.250000
        761.00        71.7700         0.8200      -999.2500    -999.250000
        761.50        70.7700         0.8200      -999.2500    -999.250000
        762.00        70.3100         0.8269      -999.2500    -999.250000
        762.50        70.4600         0.8500      -999.2500    -999.250000
        763.00        71.3200         0.8500      -999.2500    -999.250000
        763.50        73.2400         0.8523      -999.2500    -999.250000
        764.00        76.3700         0.8600      -999.2500    -999.250000
        764.50        79.5500         0.8600      -999.2500    -999.250000
        765.00        80.6000         0.8669      -999.2500    -999.250000
        765.50        80.4200         0.8900      -999.2500    -999.250000
        766.00        78.6400         0.9013      -999.2500    -999.250000
        766.50        76.3500         0.9535      -999.2500    -999.250000
        767.00        71.3800         1.0134      -999.2500    -999.250000
        767.50        64.8900         1.0689      -999.2500    -999.250000
        768.00        58.2900         1.1000      -999.2500    -999.250000
        768.50        53.7100         1.0934      -999.2500    -999.250000
        769.00        50.7000         1.0765      -999.2500    -999.250000
        769.50        48.1000         1.1000      -999.2500    -999.250000
        770.00        45.7500         1.0957      -999.2500    -999.250000
        770.50        44.8100         1.0821      -999.2500    -999.250000
        771.00        45.8700         1.1048      -999.2500    -999.250000
        771.50        47.3800         1.1663      -999.2500    -999.250000
        772.00        48.8100         1.1983      -999.2500    -999.250000
        772.50        49.2700         1.2279      -999.2500    -999.250000
        773.00        50.8100         1.2241      -999.2500    -999.250000
        773.50        52.3900         1.2339      -999.2500    -999.250000
        774.00        53.0900         1.1978      -999.2500    -999.250000
        774.50        52.2300         1.1400      -999.2500    -999.250000
        775.00        50.7100         1.1239      -999.2500    -999.250000
        775.50        50.0700         1.2200      -999.2500    -999.250000
        776.00        49.7600         1.2180      -999.2500    -999.250000
        776.50        48.8100         1.2081      -999.2500    -999.250000
        777.00        46.5000         1.2077      -999.2500    -999.250000
        777.50        43.5500         1.2458      -999.2500    -999.250000
        778.00        41.1900         1.2795      -999.2500    -999.250000
        778.50        40.1700         1.3219      -999.2500    -999.250000
        779.00        39.8400         1.3300      -999.2500    -999.250000
        779.50        38.5400         1.3356      -999.2500    -999.250000
        780.00        36.1000         1.3748      -999.2500    -999.250000
        780.50        33.1000         1.4492      -999.2500    -999.250000
        781.00        31.3400         1.4936      -999.2500    -999.250000
        781.50        30.1300         1.5100      -999.2500    -999.250000
        782.00        28.8700         1.5172      -999.2500    -999.250000
        782.50        27.6100         1.5536      -999.2500    -999.250000
        783.00        26.1200         1.5700      -999.2500    -999.250000
        783.50        25.3000         1.5595      -999.2500    -999.250000
        784.00        24.0300         1.5048      -999.2500    -999.250000
        784.50        23.6200         1.4800      -999.2500    -999.250000
        785.00        23.7900         1.4698      -999.2500    -999.250000
        785.50        25.6300         1.3998      -999.2500    -999.250000
        786.00        28.6900         1.3000      -999.2500    -999.250000
        786.50        33.1200         1.3033      -999.2500    -999.250000
        787.00        38.1400         1.3102      -999.2500    -999.250000
        787.50        43.5800         1.2567      -999.2500    -999.250000
        788.00        48.8700         1.2368      -999.2500    -999.250000
        788.50        53.0300         1.1976      -999.2500    -999.250000
        789.00        56.5500         1.0483      -999.2500    -999.250000
        789.50        59.9500         0.8690      -999.2500    -999.250000
        790.00        64.2800         0.8084      -999.2500    -999.250000
        790.50        68.9300         0.7985      -999.2500    -999.250000
        791.00        71.7200         0.7869      -999.2500    -999.250000
        791.50        71.6700         0.7700      -999.2500    -999.250000
        792.00        69.5500         0.7685      -999.2500    -999.250000
        792.50        69.0800         0.7615      -999.2500    -999.250000
        793.00        70.6400         0.7685      -999.2500    -999.250000
        793.50        73.6600         0.7644      -999.2500    -999.250000
        794.00        74.4600         0.7914      -999.2500    -999.250000
        794.50        72.8300         0.8114      -999.2500    -999.250000
        795.00        70.4600         0.9011      -999.2500    -999.250000
        795.50        68.1800         1.0453      -999.2500    -999.250000
        796.00        67.8900         1.1303      -999.2500    -999.250000
        796.50        67.6100         1.0550      -999.2500    -999.250000
        797.00        67.9200         0.9506      -999.2500    -999.250000
        797.50        67.4900         0.8900      -999.2500    -999.250000
        798.00        67.0500         0.8821      -999.2500    -999.250000
        798.50        67.6900         0.8300      -999.2500    -999.250000
        799.00        68.7000         0.8210      -999.2500    -999.250000
        799.50        71.1900         0.7574      -999.2500    -999.250000
        800.00        72.6600         0.7400      -999.2500    -999.250000
        800.50        74.4600         0.7400      -999.2500    -999.250000
        801.00        74.7800         0.7400      -999.2500    -999.250000
        801.50        75.8200         0.7376      -999.2500    -999.250000
        802.00        76.9900         0.7200      -999.2500    -999.250000
        802.50        78.1600         0.7212      -999.2500    -999.250000
        803.00        78.3500         0.7300      -999.2500    -999.250000
        803.50        78.0900         0.7312      -999.2500    -999.250000
        804.00        77.2100         0.7400      -999.2500    -999.250000
        804.50        76.3400         0.7400      -999.2500    -999.250000
        805.00        75.4700         0.7433      -999.2500    -999.250000
        805.50        76.1300         0.7700      -999.2500    -999.250000
        806.00        76.7600         0.7678      -999.2500    -999.250000
        806.50        77.3900         0.7500      -999.2500    -999.250000
        807.00        76.0400         0.7500      -999.2500    -999.250000
        807.50        75.1500         0.7521      -999.2500    -999.250000
        808.00        74.2500         0.7700      -999.2500    -999.250000
        808.50        74.4500         0.7700      -999.2500    -999.250000
        809.00        73.9600         0.7700      -999.2500    -999.250000
        809.50        73.4800         0.7680      -999.2500    -999.250000
        810.00        72.2000         0.7500      -999.2500    -999.250000
        810.50        71.2000         0.7529      -999.2500    -999.250000
        811.00        70.2100         0.7791      -999.2500    -999.250000
        811.50        70.0800         0.7700      -999.2500    -999.250000
        812.00        70.6000         0.7700      -999.2500    -999.250000
