~Version Information Block
VERS .                  2.0:  CWLS LOG ASCII STANDARD - VERSION 2.0
WRAP .                   NO:  One line per depth step
~Well Information Block
#MNEM.UNIT        Data Type   Information
#---------- ----------------  -----------
STRT .FT            4880.50:  START DEPTH
STOP .FT           10428.00:  STOP DEPTH
STEP .FT               0.50:  STEP
NULL .              -999.25:  NULL VALUE
COMP .                     :  COMPANY
WELL .                STA-3:  WELL
FLD  .                     :  FIELD
LOC  .                     :  LOCATION
CTRY .                     :  COUNTRY
STAT .                     :  STATE
CNTY .                     :  COUNTY
SRVC .                     :  SERVICE COMPANY
DATE .                     :  DATE
API  .                     :  API NUMBER
UWI  .                     :  UNIQUE WELL ID
~Curve Information Block
#MNEM.UNIT         API CODE   Curve Description
#---------- ----------------  -----------------
DEPTH.FT                   :  DEPTH
GR   .GAPI                 :  Gamma Ray
RT   .OHMM                 :  Deep resistivity
RHOB .G/C3                 :  Bulk Density
NPHI .V/V                  :  Neutron porosity
DT   .US/F                 :  Sonic
~Parameter Information Block
#MNEM.UNIT            Value   Description
#---------- ----------------  -----------
PROJECT.            SANTAN_FE:  
~Other Information Block
# 
~A       DEPTH             GR             RT           RHOB           NPHI             DT 
# ...
       9286.00        81.1395         3.7732         2.5029       0.198900        81.0000
       9286.50        79.1197         3.6677         2.5267       0.193500        80.2000
       9287.00        76.0622         3.8670         2.5182       0.196900        80.2000
       9287.50        77.4448         4.2104         2.5043       0.192300        80.4000
       9288.00        77.1669         4.0001         2.4597       0.200200        81.0000
       9288.50        76.7276         3.9742         2.4450       0.204100        81.0000
       9289.00        67.3037         4.1090         2.4627       0.197400        78.5000
       9289.50        62.1245         5.6400         2.4966       0.171200        75.9500
       9290.00        54.2803         6.0848         2.5237       0.147900        74.3500
       9290.50        53.9957         6.1149         2.5164       0.147900        75.3000
       9291.00        58.7524         5.3075         2.5098       0.161400        77.6500
       9291.50        62.8629         4.2089         2.4979       0.179200        78.5500
       9292.00        68.7867         3.8864         2.5103       0.182400        78.9500
       9292.50        70.6440         4.5731         2.5060       0.179900        77.8000
       9293.00        75.3104         4.4633         2.5295       0.177300        77.3000
       9293.50        80.5096         4.2071         2.5506       0.170400        77.1500
       9294.00        88.1536         3.5544         2.5653       0.187200        78.5500
       9294.50        99.3031         3.1365         2.5623       0.193500        80.7000
       9295.00       103.9592         2.9850         2.5561       0.222100        82.3000
       9295.50       108.3311         2.8085         2.5556       0.224000        82.5000
       9296.00       112.6700         3.1928         2.5710       0.229900        82.0500
       9296.50       113.0310         3.5322         2.5901       0.215000        81.3500
       9297.00       107.7972         3.4847         2.5833       0.210300        80.3000
       9297.50       100.1723         3.5517         2.5679       0.205600        79.6000
       9298.00        98.2874         3.9360         2.5527       0.207600        78.9000
       9298.50        98.9678         3.7855         2.5561       0.201100        78.8500
       9299.00        96.9918         4.0492         2.5638       0.195200        77.9000
       9299.50        95.0841         4.0005         2.5612       0.187600        77.9000
       9300.00        95.3606         3.9573         2.5721       0.189000        78.7000
       9300.50        93.5763         3.7943         2.5510       0.200300        79.4000
       9301.00        95.7088         3.2643         2.5455       0.216200        80.5000
       9301.50        98.8112         2.9599         2.5210       0.221600        81.2000
       9302.00        95.8361         3.7880         2.5443       0.218300        79.9000
       9302.50        88.3969         4.7491         2.5476       0.205800        79.1000
       9303.00        74.6367         4.7181         2.5316       0.194200        78.2000
       9303.50        72.7124         4.3233         2.4824       0.177700        78.4500
       9304.00        67.5806         4.2884         2.4741       0.170700        78.2500
       9304.50        66.6740         4.0752         2.4956       0.175500        77.0000
       9305.00        61.2020         4.5600         2.5163       0.176900        75.6000
       9305.50        59.9857         7.5062         2.5384       0.156300        73.8000
       9306.00        55.9838         7.6241         2.5309       0.131500        72.5500
       9306.50        57.8615         6.4227         2.5263       0.121200        72.3000
       9307.00        59.8207         6.5957         2.5175       0.127800        73.6000
       9307.50        63.9222         5.5387         2.5155       0.149000        76.3000
       9308.00        64.9614         4.3205         2.4979       0.170100        77.4500
       9308.50        63.2678         4.1688         2.4925       0.180900        78.8000
       9309.00        62.8809         4.2551         2.5006       0.176400        78.5000
       9309.50        67.2676         4.3227         2.5099       0.169600        78.3000
       9310.00        71.2493         3.8626         2.5311       0.177800        78.3000
       9310.50        73.2393         3.9837         2.5319       0.181500        77.8500
       9311.00        76.7470         4.4412         2.5315       0.179500        77.3500
       9311.50        79.6709         4.9488         2.5476       0.162200        76.4000
       9312.00        82.7222         4.7663         2.5651       0.159700        76.3000
       9312.50        83.1771         4.1400         2.5571       0.162800        76.9000
       9313.00        80.6662         3.7366         2.5482       0.176300        77.4000
       9313.50        78.9792         4.4122         2.5412       0.172400        76.4000
       9314.00        74.4862         5.5918         2.5459       0.169200        77.1500
       9314.50        76.8913         4.1262         2.5326       0.167200        78.0500
       9315.00        81.5866         3.7117         2.5286       0.175400        79.8000
       9315.50        85.2708         3.3788         2.5317       0.190000        80.5000
       9316.00        85.0841         3.8730         2.5313       0.187000        79.4000
       9316.50        79.8177         4.6680         2.5153       0.183400        77.9000
       9317.00        77.7109         4.0968         2.5135       0.169500        76.6000
       9317.50        77.9491         4.3418         2.5321       0.170800        76.8500
       9318.00        83.5087         4.3573         2.5436       0.176000        77.7000
       9318.50        88.1796         4.0361         2.5420       0.182800        77.7000
       9319.00        92.0850         4.0033         2.5373       0.187500        77.4000
       9319.50        87.4441         4.5728         2.5412       0.178900        78.5500
       9320.00        85.4238         4.5122         2.5334       0.181700        80.0000
       9320.50        85.7908         4.0112         2.5333       0.198300        82.7000
       9321.00        95.9218         3.3204         2.5394       0.220900        84.1000
       9321.50        98.1910         3.1523         2.5459       0.223100        82.9000
       9322.00        94.1194         3.4502         2.5559       0.207700        80.2500
       9322.50        89.3077         4.1382         2.5597       0.195500        78.0000
       9323.00        85.5199         3.9092         2.5679       0.190400        76.0500
       9323.50        83.8054         4.0848         2.5911       0.186000        74.0500
       9324.00        70.1580         7.1392         2.6083       0.171800        70.4000
       9324.50        61.7772         8.0651         2.6268       0.145100        67.8000
       9325.00        57.7677        12.6662         2.6064       0.127800        67.0500
       9325.50        61.0056         9.8018         2.5716       0.129200        67.7500
       9326.00        64.5061         5.5441         2.5620       0.138000        68.9000
       9326.50        64.1499         6.8534         2.5751       0.136400        71.0000
       9327.00        69.4368         7.7488         2.5984       0.134400        72.6000
       9327.50        70.7675         6.7391         2.6082       0.141300        74.6000
       9328.00        78.7371         4.3801         2.5845       0.169300        75.5000
       9328.50        83.9164         4.0048         2.5749       0.175400        76.2000
       9329.00        85.7929         4.1721         2.5551       0.179700        76.9000
       9329.50        89.6999         4.7451         2.5577       0.166600        77.3000
       9330.00        96.2565         3.7555         2.5670       0.175200        80.0000
