~Version Information Block
VERS .                  2.0:  CWLS LOG ASCII STANDARD - VERSION 2.0
WRAP .                   NO:  One line per depth step
~Well Information Block
#MNEM.UNIT        Data Type   Information
#---------- ----------------  -----------
STRT .FT            6091.50:  START DEPTH
STOP .FT           14295.50:  STOP DEPTH
STEP .FT               0.50:  STEP
NULL .              -999.25:  NULL VALUE
COMP .                     :  COMPANY
WELL .               STA-35:  WELL
FLD  .                     :  FIELD
LOC  .                     :  LOCATION
CTRY .                     :  COUNTRY
STAT .                     :  STATE
CNTY .                     :  COUNTY
SRVC .                     :  SERVICE COMPANY
DATE .                     :  DATE
API  .                     :  API NUMBER
UWI  .                     :  UNIQUE WELL ID
~Curve Information Block
#MNEM.UNIT         API CODE   Curve Description
#---------- ----------------  -----------------
DEPTH.FT                   :  Depth
GR   .GAPI                 :  Gamma Ray
RT   .OHMM                 :  True Resistivity
RHOB .G/C3                 :  Bulk Density
NPHI .V/V                  :  Neutron Porosity
~Parameter Information Block
#MNEM.UNIT            Value   Description
#---------- ----------------  -----------
PROJECT.            SANTAN_FE:  
~Other Information Block
# 
~A       DEPTH             GR             RT           RHOB           NPHI 
       6091.50        74.1070         1.1510         2.2088       0.447500
       6092.00        75.7368         1.1589         2.2906       0.439400
       6092.50        78.4745         1.2389         2.3380       0.437700
       6093.00        78.7122         1.2871         2.3681       0.435900
       6093.50        76.8125         1.2633         2.3722       0.428300
       6094.00        73.1292         1.5584         2.3529       0.414200
       6094.50        76.3218         1.8400         2.3455       0.403700
       6095.00        77.7739         1.5898         2.3551       0.397400
       6095.50        73.5793         1.4757         2.3647       0.388700
       6096.00        68.6146         1.4948         2.3702       0.385600
       6096.50        66.8257         1.7047         2.3716       0.399200
       6097.00        60.4710         1.8443         2.3697       0.414900
       6097.50        65.3844         1.8048         2.3704       0.414100
       6098.00        68.4950         1.6069         2.3672       0.404600
       6098.50        75.3342         1.5165         2.3606       0.401934
       6099.00        77.2901         1.5354         2.3630       0.402369
       6099.50        74.9067         1.8466         2.3733       0.395877
       6100.00        70.5208         2.0565         2.3796       0.383661
       6100.50        67.1619         2.1725         2.3747       0.363231
       6101.00        60.4030         2.4603         2.3764       0.326316
       6101.50        52.0186         3.5194         2.4140       0.278337
       6102.00        46.3275         4.7054         2.4714       0.242098
       6102.50        45.3031         4.8318         2.4879       0.244552
       6103.00        49.2941         4.6429         2.4412       0.281877
       6103.50        54.0572         3.7081         2.3830       0.328411
       6104.00        59.3284         2.9754         2.3537       0.364734
       6104.50        60.4001         2.5773         2.3495       0.388763
       6105.00        64.7713         2.3161         2.3506       0.407157
       6105.50        67.9853         2.1539         2.3486       0.414810
       6106.00        72.1338         1.9786         2.3489       0.413898
       6106.50        74.9469         1.8263         2.3535       0.412342
       6107.00        76.7266         1.7210         2.3574       0.409054
       6107.50        75.0969         1.7028         2.3570       0.407785
       6108.00        79.1982         1.7653         2.3586       0.414196
       6108.50        78.3729         1.7255         2.3625       0.426963
       6109.00        76.2765         1.7221         2.3651       0.436200
       6109.50        73.9302         1.7638         2.3677       0.432700
       6110.00        69.9755         1.7712         2.3636       0.428900
       6110.50        75.1470         1.7355         2.3484       0.429000
       6111.00        77.4697         1.7008         2.3353       0.421100
       6111.50        79.0999         1.6793         2.3345       0.415400
       6112.00        75.5013         1.6818         2.3435       0.425300
       6112.50        80.0363         1.5849         2.3553       0.438100
       6113.00        81.8365         1.5315         2.3600       0.435900
       6113.50        82.0090         1.5466         2.3588       0.425200
       6114.00        85.5774         1.5507         2.3610       0.417500
       6114.50        83.8936         1.5671         2.3678       0.420300
       6115.00        83.1870         1.5823         2.3781       0.428100
       6115.50        80.8170         1.6761         2.3876       0.422200
       6116.00        77.0671         1.8639         2.3923       0.398800
       6116.50        64.0409         1.9953         2.3946       0.359300
       6117.00        56.2332         2.1435         2.4067       0.303600
       6117.50        44.3752         2.5388         2.4327       0.260200
       6118.00        39.9686         3.0607         2.4471       0.246900
       6118.50        40.0189         3.2983         2.4222       0.259300
       6119.00        38.5380         2.9357         2.3656       0.282900
       6119.50        40.3692         2.5540         2.3128       0.303300
       6120.00        42.5102         2.1943         2.2796       0.307500
       6120.50        45.3207         1.9864         2.2618       0.300000
       6121.00        43.5842         1.9217         2.2468       0.302900
       6121.50        44.4694         1.8513         2.2319       0.320800
       6122.00        44.3653         1.7896         2.2264       0.339600
       6122.50        48.7364         1.7736         2.2302       0.348500
       6123.00        50.6158         1.7912         2.2397       0.352900
       6123.50        54.0332         1.7848         2.2490       0.351400
       6124.00        54.5895         1.7215         2.2463       0.346700
       6124.50        53.6702         1.6840         2.2287       0.353500
       6125.00        54.8831         1.6573         2.2088       0.369500
       6125.50        53.9398         1.6294         2.1975       0.378500
       6126.00        54.3569         1.6107         2.1980       0.385500
       6126.50        55.4724         1.5988         2.2078       0.389900
       6127.00        54.8263         1.6138         2.2206       0.386300
       6127.50        57.6707         1.5950         2.2315       0.388700
       6128.00        60.9970         1.5679         2.2405       0.404500
       6128.50        61.5799         1.5391         2.2494       0.413400
       6129.00        62.6988         1.5267         2.2562       0.406400
       6129.50        66.1607         1.5151         2.2605       0.403900
       6130.00        69.9935         1.5128         2.2657       0.412300
       6130.50        71.6145         1.5063         2.2748       0.416400
       6131.00        69.9277         1.5181         2.2858       0.415900
       6131.50        67.2084         1.5501         2.2935       0.414700
       6132.00        64.7128         1.5416         2.2955       0.402900
       6132.50        63.3266         1.5228         2.2872       0.387300
       6133.00        62.4882         1.5312         2.2653       0.385000
       6133.50        61.4576         1.6140         2.2339       0.398600
       6134.00        56.1854         1.6688         2.1956       0.410100
       6134.50        53.1478         1.7235         2.1580       0.407900
       6135.00        48.7033         1.7795         2.1359       0.400100
       6135.50        44.4294         1.8345         2.1375       0.389600
       6136.00        47.6891         1.8078         2.1603       0.375600
       6136.50        51.7037         1.7221         2.1893       0.365600
       6137.00        59.9308         1.6732         2.2170       0.363000
       6137.50        61.6609         1.6728         2.2407       0.363800
       6138.00        56.7549         1.6972         2.2513       0.362600
       6138.50        57.3435         1.7222         2.2467       0.358700
       6139.00        53.8580         1.6797         2.2306       0.355700
       6139.50        54.1786         1.6377         2.2092       0.353800
       6140.00        49.5737         1.6661         2.1970       0.354000
       6140.50        46.0846         1.7134         2.1958       0.357900
       6141.00        48.8502         1.7673         2.1991       0.363000
       6141.50        50.5554         1.6845         2.2046       0.372800
       6142.00        46.5604         1.6848         2.2034       0.378300
       6142.50        44.0288         1.7469         2.1907       0.370200
       6143.00        44.1898         1.7366         2.1820       0.360700
       6143.50        51.6725         1.7040         2.1850       0.366200
       6144.00        59.4758         1.6509         2.1952       0.383700
       6144.50        69.7151         1.6373         2.2164       0.401900
