~Version Information Block
VERS .                  2.0:  CWLS LOG ASCII STANDARD - VERSION 2.0
WRAP .                   NO:  One line per depth step
~Well Information Block
#MNEM.UNIT        Data Type   Information
#---------- ----------------  -----------
STRT .FT             728.00:  START DEPTH
STOP .FT           10480.50:  STOP DEPTH
STEP .FT               0.50:  STEP
NULL .              -999.25:  NULL VALUE
COMP .                     :  COMPANY
WELL .               STA-21:  WELL
FLD  .                     :  FIELD
LOC  .                     :  LOCATION
CTRY .                     :  COUNTRY
STAT .                     :  STATE
CNTY .                     :  COUNTY
SRVC .                     :  SERVICE COMPANY
DATE .                     :  DATE
API  .                     :  API NUMBER
UWI  .                     :  UNIQUE WELL ID
~Curve Information Block
#MNEM.UNIT         API CODE   Curve Description
#---------- ----------------  -----------------
DEPTH.FT                   :  DEPTH
GR   .GAPI                 :  Gamma Ray
RT   .OHMM                 :  RESDE
RHOB .G/C3                 :  Bulk Density
NPHI .V/V                  :  Thermal Neutron Porosity (Ratio Method) in Selected Lithology
~Parameter Information Block
#MNEM.UNIT            Value   Description
#---------- ----------------  -----------
PROJECT.            SANTAN_FE:  
~Other Information Block
# 
~A       DEPTH             GR             RT           RHOB           NPHI 
# ...
      10411.50        83.2600         1.8400         2.5500         0.3100
      10412.00        84.5100         1.8200         2.5500         0.3100
      10412.50        88.7000         1.8400         2.5500         0.3000
      10413.00        86.1900         1.7900         2.5400         0.3000
      10413.50        82.4200         1.7400         2.5400         0.3000
      10414.00        70.7100         1.8400         2.5600         0.2900
      10414.50        57.3200         2.3500         2.5900         0.2300
      10415.00        43.9300         3.3200         2.6100         0.1900
      10415.50        40.5800         4.0500         2.5800         0.1600
      10416.00        43.9300         4.3000         2.5400         0.1500
      10416.50        50.2100         3.5200         2.5000         0.1700
      10417.00        55.6400         3.1900         2.5100         0.1900
      10417.50        59.8300         3.0800         2.5100         0.2200
      10418.00        63.5900         3.0800         2.5300         0.2200
      10418.50        66.9400         2.9000         2.5300         0.2400
      10419.00        69.4500         2.5600         2.5400         0.2400
      10419.50        70.7100         2.2000         2.5200         0.2500
      10420.00        73.6300         2.1600         2.5300         0.2600
      10420.50        77.4000         2.0500         2.5300         0.2600
      10421.00        80.3300         2.0400         2.5400         0.2700
      10421.50        77.8200         2.0900         2.5500         0.2900
      10422.00        74.8900         2.0600         2.5400         0.2800
      10422.50        73.2200         2.0700         2.5600         0.2700
      10423.00        71.5400         2.2000         2.5500         0.2500
      10423.50        63.5900         2.7300         2.5100         0.2300
      10424.00        57.3200         3.4300         2.4800         0.2000
      10424.50        53.5500         3.5000         2.5000         0.1800
      10425.00        54.3900         3.4000         2.5300         0.1800
      10425.50        52.7200         3.5500         2.5300         0.1900
      10426.00        50.5400         3.7500         2.5000         0.1800
      10426.50        49.6100         3.7400         2.4800         0.1800
      10427.00        48.7700         3.5900         2.4800         0.1800
      10427.50        47.4900         3.4700         2.4800         0.1800
      10428.00        46.5900         3.3900         2.4900         0.1800
      10428.50        47.3900         3.3700         2.5000         0.1800
      10429.00        49.6000         3.3700         2.5000         0.1900
      10429.50        52.1000         3.3000         2.5000         0.1900
      10430.00        52.3000         3.2600         2.4800         0.1900
      10430.50        50.6900         3.1900         2.4600         0.1900
      10431.00        47.9200         3.2200         2.4600         0.1900
      10431.50        46.0900         3.2400         2.4600         0.1800
      10432.00        46.9400         3.2400         2.4700         0.1800
      10432.50        49.5300         3.2900         2.4800         0.1800
      10433.00        53.2000         3.2900         2.4900         0.1800
      10433.50        56.3700         3.2800         2.5000         0.1900
      10434.00        58.4800         3.0700         2.5100         0.2000
      10434.50        59.0000         3.0000         2.5200         0.2100
      10435.00        58.9200         3.0400         2.5300         0.2100
      10435.50        59.7100         3.0500         2.5300         0.2100
      10436.00        62.2200         2.9900         2.5200         0.2100
      10436.50        64.9100         2.8000         2.5200         0.2100
      10437.00        66.7100         2.7500         2.4800         0.2200
      10437.50        62.7800         2.7300         2.4100         0.2300
      10438.00        55.4500         2.8000         2.3700         0.2200
      10438.50        49.2100         3.1000         2.3800         0.2200
      10439.00        48.3600         3.4700         2.4100         0.2100
      10439.50        49.5800         3.3700         2.4100         0.2100
      10440.00        47.2500         3.2400         2.4000         0.2100
      10440.50        43.6500         3.4700         2.3700         0.2200
      10441.00        38.6800         3.9000         2.3500         0.2100
      10441.50        35.7600         4.2400         2.3100         0.2100
      10442.00        33.8800         4.5600         2.3000         0.2000
      10442.50        33.4600         4.6000         2.3000         0.2100
      10443.00        36.3700         4.5600         2.3300         0.2100
      10443.50        39.5100         4.3500         2.3500         0.2100
      10444.00        43.2600         3.9900         2.4000         0.2000
      10444.50        44.5400         3.6300         2.4400         0.2000
      10445.00        44.9600         3.4800         2.4700      -999.2500
      10445.50        45.9100         3.4900         2.4600      -999.2500
      10446.00        45.8300         3.3900         2.4300      -999.2500
      10446.50        43.5600         3.5800         2.3800      -999.2500
      10447.00        39.5100         4.2000         2.3200      -999.2500
      10447.50        37.7700         4.5700         2.3200      -999.2500
      10448.00        37.3800         4.4000      -999.2500      -999.2500
      10448.50        37.0700         4.2600      -999.2500      -999.2500
      10449.00        39.1700         4.5600      -999.2500      -999.2500
      10449.50        42.9600         4.1400      -999.2500      -999.2500
      10450.00        47.5600         3.2200      -999.2500      -999.2500
      10450.50        48.7900         3.2700      -999.2500      -999.2500
      10451.00        51.9900         3.3300      -999.2500      -999.2500
      10451.50        53.6700         3.0200      -999.2500      -999.2500
      10452.00        53.2500         2.9800      -999.2500      -999.2500
      10452.50        50.2000         3.0900      -999.2500      -999.2500
      10453.00        47.7100         3.1700      -999.2500      -999.2500
      10453.50        46.3900         3.3700      -999.2500      -999.2500
      10454.00        45.2500         3.4900      -999.2500      -999.2500
      10454.50        47.9800         3.4000      -999.2500      -999.2500
      10455.00        52.9200         3.1600      -999.2500      -999.2500
      10455.50        57.9200         2.7700      -999.2500      -999.2500
      10456.00        61.2400         2.6500      -999.2500      -999.2500
      10456.50        64.0700         2.5500      -999.2500      -999.2500
      10457.00        64.4400         2.4400      -999.2500      -999.2500
      10457.50        62.2200         2.5200      -999.2500      -999.2500
      10458.00        59.4600         2.6900      -999.2500      -999.2500
      10458.50        59.2400         2.6300      -999.2500      -999.2500
      10459.00        58.5100         2.4900      -999.2500      -999.2500
      10459.50        53.8200         2.6200      -999.2500      -999.2500
      10460.00        49.4900         3.0000      -999.2500      -999.2500
      10460.50        50.3900         2.9000      -999.2500      -999.2500
      10461.00        50.8000         2.8000      -999.2500      -999.2500
      10461.50        46.3700         3.1900      -999.2500      -999.2500
      10462.00        40.8400         3.5800      -999.2500      -999.2500
      10462.50        40.7700         3.4100      -999.2500      -999.2500
      10463.00        48.7900         2.8900      -999.2500      -999.2500
      10463.50        57.3100         2.6900      -999.2500      -999.2500
      10464.00        66.8700         2.2000      -999.2500      -999.2500
      10464.50        72.3200         2.1500      -999.2500      -999.2500
