~Version Information Block
VERS .                  2.0:  CWLS LOG ASCII STANDARD - VERSION 2.0
WRAP .                   NO:  One line per depth step
~Well Information Block
#MNEM.UNIT        Data Type   Information
#---------- ----------------  -----------
STRT .FT            3742.00:  START DEPTH
STOP .FT            8440.00:  STOP DEPTH
STEP .FT               0.50:  STEP
NULL .              -999.25:  NULL VALUE
COMP .                     :  COMPANY
WELL .                STA-2:  WELL
FLD  .                     :  FIELD
LOC  .                     :  LOCATION
CTRY .                     :  COUNTRY
STAT .                     :  STATE
CNTY .                     :  COUNTY
SRVC .                     :  SERVICE COMPANY
DATE .                     :  DATE
API  .                     :  API NUMBER
UWI  .                     :  UNIQUE WELL ID
~Curve Information Block
#MNEM.UNIT         API CODE   Curve Description
#---------- ----------------  -----------------
DEPTH.FT                   :  DEPTH
GR   .GAPI                 :  Gamma Ray
RT   .OHMM                 :  Deep resistivity
RHOB .G/C3                 :  Bulk Density
NPHI .V/V                  :  Neutron porosity
DT   .US/F                 :  Sonic
~Parameter Information Block
#MNEM.UNIT            Value   Description
#---------- ----------------  -----------
PROJECT.            SANTAN_FE:  
~Other Information Block
# 
~A       DEPTH             GR             RT           RHOB           NPHI             DT 
# ...
       5433.00        92.6300         1.4300         2.2500       0.370000       115.0500
       5433.50        91.2700         1.4500         2.2600       0.360000       114.6500
       5434.00        94.5800         1.3900         2.2500       0.370000       114.8500
       5434.50        95.7500         1.4300         2.2400       0.360000       114.9000
       5435.00        92.5300         1.4000         2.2500       0.360000       114.8500
       5435.50        90.3900         1.4300         2.2500       0.360000       115.1000
       5436.00        90.9200         1.4200         2.2400       0.370000       115.2000
       5436.50        92.3300         1.3800         2.2500       0.370000       114.8000
       5437.00        88.8900         1.4400         2.2500       0.380000       114.9000
       5437.50        85.2900         1.4600         2.2400       0.380000       114.1000
       5438.00        80.7700         1.5100         2.2400       0.370000       113.8000
       5438.50        82.7800         1.3900         2.2400       0.380000       114.2000
       5439.00        86.5200         1.4600         2.2400       0.370000       114.4000
       5439.50        91.5000         1.3600         2.2400       0.370000       115.7000
       5440.00        92.6000         1.3500         2.2500       0.360000       117.6000
       5440.50        91.8800         1.3200         2.2500       0.380000       117.6500
       5441.00        87.8600         1.3500         2.2500       0.380000       117.5000
       5441.50        87.5900         1.3500         2.2500       0.380000       117.4000
       5442.00        90.8900         1.3500         2.2600       0.380000       117.5000
       5442.50        93.4000         1.3800         2.2700       0.370000       118.1500
       5443.00        93.9000         1.1900         2.2700       0.390000       119.2000
       5443.50        90.1600         1.2700         2.2700       0.380000       120.0000
       5444.00        89.2000         1.2900         2.2700       0.390000       120.2000
       5444.50        87.1600         1.3400         2.2800       0.360000       121.0500
       5445.00        87.1800         1.2500         2.2900       0.360000       121.6000
       5445.50        88.3800         1.2400         2.3000       0.360000       121.8500
       5446.00        87.2000         1.2500         2.2900       0.380000       123.3500
       5446.50        87.4600         1.3200         2.2900       0.390000       123.9000
       5447.00        87.7200         1.1100         2.3000       0.370000       124.1000
       5447.50        94.2800         1.2100         2.2900       0.380000       124.5000
       5448.00        91.3400         1.2300         2.2900       0.400000       124.9000
       5448.50        90.4400         1.2800         2.2700       0.420000       124.6000
       5449.00        85.0600         1.2900         2.2700       0.430000       125.5000
       5449.50        90.4100         1.0900         2.2600       0.420000       126.5000
       5450.00        91.8700         0.9800         2.2600       0.410000       127.0000
       5450.50        98.5400         1.0000         2.2600       0.400000       126.4000
       5451.00       104.2500         1.1100         2.2700       0.400000       125.9500
       5451.50       109.3300         1.1500         2.2700       0.410000       125.1000
       5452.00       106.0200         1.0700         2.2800       0.410000       125.5000
       5452.50       100.1100         1.0500         2.2800       0.410000       125.5000
       5453.00       100.3500         1.0600         2.2800       0.390000       125.1500
       5453.50       100.9500         1.0600         2.2900       0.390000       125.6000
       5454.00       103.7500         1.0500         2.2700       0.400000       125.9000
       5454.50       100.9500         1.0400         2.2800       0.420000       126.6000
       5455.00        95.3400         1.0100         2.2900       0.420000       126.2000
       5455.50        91.9000         0.9700         2.2800       0.400000       125.8000
       5456.00        88.7400         1.0300         2.2700       0.390000       123.0500
       5456.50        91.3000         1.0300         2.2800       0.390000       121.5000
       5457.00        91.2000         1.0900         2.2900       0.400000       118.6500
       5457.50        90.4800         1.1000         2.2900       0.400000       116.8500
       5458.00        89.3600         1.1000         2.2900       0.410000       115.0000
       5458.50        82.9900         1.4300         2.3200       0.380000       104.5000
       5459.00        70.8600         1.7000         2.4000       0.320000        94.0500
       5459.50        58.1800         1.3900         2.5500       0.260000        75.9500
       5460.00        54.1500         1.7600         2.5400       0.260000        74.0500
       5460.50        59.7400         1.0500         2.3700       0.290000        75.9000
       5461.00        69.2300         1.3600         2.2800       0.320000        91.3000
       5461.50        70.2100         1.4100         2.2500       0.350000       103.6000
       5462.00        69.2800         1.9300         2.2400       0.360000       106.3500
       5462.50        67.1700         1.7500         2.2500       0.370000        93.7000
       5463.00        65.1300         1.4900         2.3000       0.300000        81.4000
       5463.50        65.3700         1.6900         2.4100       0.230000        69.5000
       5464.00        59.0200         2.1400         2.5400       0.160000        69.4000
       5464.50        53.0900         2.0600         2.6500       0.140000        59.6500
       5465.00        44.4600         2.3200         2.6900       0.130000        57.8000
       5465.50        41.9700         2.8100         2.7000       0.130000        59.1000
       5466.00        45.0100         1.6500         2.7000       0.130000        62.6000
       5466.50        52.9100         2.0000         2.6200       0.150000        69.5000
       5467.00        61.5600         2.0900         2.5100       0.200000        77.1500
       5467.50        70.9300         0.9700         2.4000       0.260000        87.4000
       5468.00        76.9400         0.9300         2.3100       0.300000        98.5000
       5468.50        80.4400         0.9000         2.2700       0.330000       104.1000
       5469.00        77.6300         1.0500         2.2600       0.330000       109.4000
       5469.50        80.3800         1.0900         2.2700       0.330000       110.3000
       5470.00        81.8700         1.0700         2.2500       0.350000       111.9000
       5470.50        85.6900         1.1600         2.2500       0.350000       113.6000
       5471.00        83.6600         1.2200         2.2800       0.360000       109.7500
       5471.50        80.6500         1.3700         2.3200       0.340000       111.5000
       5472.00        84.2100         1.2800         2.3200       0.360000       113.1000
       5472.50        88.9500         1.0800         2.3200       0.380000       117.5000
       5473.00        96.4500         1.0200         2.3100       0.390000       123.0000
       5473.50        98.4500         1.0100         2.2900       0.380000       123.8500
       5474.00        96.5200         1.0000         2.2900       0.380000       125.0000
       5474.50        95.0300         1.0200         2.2800       0.380000       125.2000
       5475.00        92.5900         1.0000         2.2900       0.370000       124.7000
       5475.50        92.6900         1.0300         2.2900       0.370000       122.8000
       5476.00        95.2500         1.0700         2.3000       0.390000       121.7000
       5476.50        99.9900         1.1000         2.3100       0.370000       121.0000
       5477.00       100.8700         1.0900         2.3200       0.370000       121.0000
