~Version Information Block
VERS .                  2.0:  CWLS LOG ASCII STANDARD - VERSION 2.0
WRAP .                   NO:  One line per depth step
~Well Information Block
#MNEM.UNIT        Data Type   Information
#---------- ----------------  -----------
STRT .FT            3811.50:  START DEPTH
STOP .FT            9515.50:  STOP DEPTH
STEP .FT               0.50:  STEP
NULL .              -999.25:  NULL VALUE
COMP .                     :  COMPANY
WELL .                STA-6:  WELL
FLD  .                     :  FIELD
LOC  .                     :  LOCATION
CTRY .                     :  COUNTRY
STAT .                     :  STATE
CNTY .                     :  COUNTY
SRVC .                     :  SERVICE COMPANY
DATE .                     :  DATE
API  .                     :  API NUMBER
UWI  .                     :  UNIQUE WELL ID
~Curve Information Block
#MNEM.UNIT         API CODE   Curve Description
#---------- ----------------  -----------------
DEPTH.FT                   :  DEPTH
GR   .GAPI                 :  Gamma Ray
RT   .OHMM                 :  Deep resistivity
RHOB .G/C3                 :  Bulk Density
NPHI .V/V                  :  Neutron porosity
DT   .US/F                 :  Sonic
~Parameter Information Block
#MNEM.UNIT            Value   Description
#---------- ----------------  -----------
PROJECT.            SANTAN_FE:  
~Other Information Block
# 
~A       DEPTH             GR             RT           RHOB           NPHI             DT 
# ...
       9062.50        79.2700         3.2700         2.4400       0.200000        83.8000
       9063.00        77.5300         3.3100         2.4400       0.200000        83.8000
       9063.50        79.2700         3.2600         2.4400       0.200000        83.4000
       9064.00        78.9600         3.2900         2.4400       0.200000        82.9000
       9064.50        82.2200         3.3700         2.4400       0.200000        82.6000
       9065.00        82.2600         3.3100         2.4600       0.210000        82.4000
       9065.50        87.8100         3.2800         2.4700       0.220000        82.7500
       9066.00        94.9800         3.0300         2.5000       0.240000        84.7500
       9066.50       103.8500         2.5900         2.4900       0.230000        86.1000
       9067.00       108.1400         2.4500         2.4800       0.240000        85.9000
       9067.50       103.8900         2.6600         2.4900       0.220000        86.9000
       9068.00        97.6800         3.0800         2.5000       0.220000        84.7500
       9068.50        87.2000         3.1400         2.4900       0.210000        83.9000
       9069.00        83.3600         3.0500         2.4700       0.200000        84.9500
       9069.50        84.1600         2.9600         2.4600       0.220000        84.9000
       9070.00        88.2100         2.9600         2.4500       0.230000        85.0000
       9070.50        90.5700         2.9100         2.4400       0.230000        84.3500
       9071.00        89.7100         3.0000         2.4500       0.220000        84.3500
       9071.50        86.1000         2.9100         2.4300       0.230000        85.2000
       9072.00        85.5100         2.6900         2.4100       0.230000        85.8000
       9072.50        81.8200         2.4700         2.3800       0.230000        85.7000
       9073.00        79.9200         2.5900         2.3600       0.220000        85.8000
       9073.50        72.6000         2.7100         2.3700       0.220000        85.3500
       9074.00        66.8100         2.6500         2.3800       0.220000        85.0000
       9074.50        64.5200         2.9400         2.3900       0.210000        83.5000
       9075.00        65.6500         3.7000         2.3900       0.200000        83.5000
       9075.50        69.5800         3.7400         2.4100       0.210000        85.2000
       9076.00        68.2300         3.0400         2.4000       0.220000        85.3500
       9076.50        63.7600         2.3600         2.3500       0.230000        87.7500
       9077.00        64.1500         2.0000         2.2900       0.240000        89.2000
       9077.50        63.8600         2.0000         2.2700       0.240000        88.7000
       9078.00        66.3600         1.9900         2.3000       0.230000        88.0500
       9078.50        67.5800         2.1700         2.3600       0.220000        88.6500
       9079.00        82.6100         2.5400         2.4300       0.210000        88.6500
       9079.50        99.4800         2.4000         2.5000       0.230000        88.5000
       9080.00       119.9400         2.2300         2.5300       0.260000        91.9000
       9080.50       126.0000         2.0800         2.5500       0.270000        88.7000
       9081.00       129.0500         1.9400         2.5900       0.270000        88.6500
       9081.50       120.0700         2.1900         2.5800       0.240000        86.8000
       9082.00       114.2400         2.4800         2.5500       0.240000        84.6000
       9082.50       103.1600         2.7000         2.5100       0.240000        88.3000
       9083.00        94.6800         2.7100         2.4800       0.230000        90.4000
       9083.50        85.5700         2.6000         2.4500       0.220000        90.1500
       9084.00        89.8500         2.5400         2.4600       0.220000        89.6500
       9084.50        97.1400         2.7800         2.4800       0.210000        88.2000
       9085.00       107.5000         2.7400         2.5100       0.220000        86.5500
       9085.50       110.8600         2.7000         2.5300       0.240000        86.4500
       9086.00       110.6900         2.4900         2.5400       0.270000        89.7000
       9086.50       107.8900         2.2500         2.5200       0.260000        88.6000
       9087.00        98.9500         2.4400         2.5000       0.230000        86.9000
       9087.50        88.8400         3.2400         2.4800       0.200000        86.1000
       9088.00        78.6100         3.5800         2.4400       0.200000        84.3000
       9088.50        74.3100         3.3400         2.4400       0.200000        83.8500
       9089.00        74.4600         3.3300         2.4400       0.200000        85.3000
       9089.50        80.8100         3.4300         2.4500       0.200000        85.4000
       9090.00        87.0200         3.4400         2.4400       0.200000        85.3500
       9090.50        92.9800         3.4100         2.4500       0.210000        85.0000
       9091.00        91.0900         3.2300         2.4400       0.210000        83.9000
       9091.50        93.9800         3.1100         2.4700       0.220000        84.1000
       9092.00        93.8400         3.0500         2.4800       0.230000        85.2000
       9092.50        94.8700         2.7700         2.4800       0.240000        87.3000
       9093.00        90.8800         2.7200         2.4400       0.230000        86.3000
       9093.50        84.8700         3.4200         2.3700       0.210000        86.5000
       9094.00        79.0800         3.5600         2.3300       0.220000        88.5000
       9094.50        83.5900         3.0400         2.3500       0.230000        89.4500
       9095.00        93.0100         3.0500         2.4200       0.240000        89.4000
       9095.50       103.3400         3.1400         2.4700       0.220000        89.3500
       9096.00       103.3500         3.4100         2.4800       0.210000        85.7000
       9096.50       103.1000         3.4500         2.4900       0.200000        83.0500
       9097.00       106.1900         3.4300         2.4800       0.200000        83.1000
       9097.50       107.0200         3.3600         2.4800       0.210000        83.9000
       9098.00       108.2500         3.2600         2.4700       0.230000        84.6000
       9098.50       104.5300         3.2000         2.4800       0.230000        85.7000
       9099.00       109.7100         3.0700         2.4900       0.240000        87.4000
       9099.50       108.0200         2.9000         2.4900       0.250000        89.2000
       9100.00       111.7100         2.5100         2.5000       0.270000        89.7500
       9100.50       107.1700         2.5500         2.4900       0.250000        88.7000
       9101.00       104.2900         2.9200         2.5000       0.230000        87.2000
       9101.50       101.4500         3.1200         2.5200       0.210000        85.9000
       9102.00        98.5700         3.0400         2.5200       0.210000        84.3000
       9102.50        95.0000         3.1000         2.5100       0.210000        84.0500
       9103.00        88.4500         3.2300         2.5000       0.210000        83.7000
       9103.50        87.1000         3.2800         2.4900       0.200000        83.4000
       9104.00        88.1400         3.4900         2.4900       0.200000        82.2000
       9104.50        86.4800         3.5500         2.4900       0.190000        81.9500
       9105.00        81.9300         3.5000         2.4900       0.180000        81.6000
       9105.50        78.6700         3.3900         2.4900       0.190000        81.9000
       9106.00        72.6100         3.4000         2.4900       0.180000        82.9000
       9106.50        71.2300         3.4100         2.4600       0.190000        83.6000
