~Version Information Block
VERS .                  2.0:  CWLS LOG ASCII STANDARD - VERSION 2.0
WRAP .                   NO:  One line per depth step
~Well Information Block
#MNEM.UNIT        Data Type   Information
#---------- ----------------  -----------
STRT .FT            3811.50:  START DEPTH
STOP .FT            9515.50:  STOP DEPTH
STEP .FT               0.50:  STEP
NULL .              -999.25:  NULL VALUE
COMP .                     :  COMPANY
WELL .                STA-6:  WELL
FLD  .                     :  FIELD
LOC  .                     :  LOCATION
CTRY .                     :  COUNTRY
STAT .                     :  STATE
CNTY .                     :  COUNTY
SRVC .                     :  SERVICE COMPANY
DATE .                     :  DATE
API  .                     :  API NUMBER
UWI  .                     :  UNIQUE WELL ID
~Curve Information Block
#MNEM.UNIT         API CODE   Curve Description
#---------- ----------------  -----------------
DEPTH.FT                   :  DEPTH
GR   .GAPI                 :  Gamma Ray
RT   .OHMM                 :  Deep resistivity
RHOB .G/C3                 :  Bulk Density
NPHI .V/V                  :  Neutron porosity
DT   .US/F                 :  Sonic
~Parameter Information Block
#MNEM.UNIT            Value   Description
#---------- ----------------  -----------
PROJECT.            SANTAN_FE:  
~Other Information Block
# 
~A       DEPTH             GR             RT           RHOB           NPHI             DT 
# ...
       7282.50        99.8300         0.9800         2.3400       0.390000       117.2500
       7283.00        96.4900         0.9900         2.3300       0.390000       115.0000
       7283.50        96.8200         0.9900         2.3200       0.400000       113.8000
       7284.00       100.7600         0.9800         2.3000       0.360000       114.8000
       7284.50        98.3500         1.0400         2.3000       0.350000       114.4000
       7285.00        89.8100         1.0700         2.2900       0.310000       113.9500
       7285.50        82.7300         1.1300         2.2900       0.320000       113.4000
       7286.00        83.6300         1.2200         2.2700       0.310000       110.4500
       7286.50        84.1400         1.2000         2.2900       0.350000       108.4000
       7287.00        86.8400         1.1200         2.3100       0.360000       108.1000
       7287.50        88.7100         1.0500         2.3300       0.370000       109.2000
       7288.00        93.4400         1.0700         2.3100       0.350000       110.6500
       7288.50        93.9700         1.1000         2.3000       0.330000       110.1000
       7289.00        88.5900         1.0800         2.2800       0.320000       110.5000
       7289.50        88.2900         1.0700         2.2700       0.320000       111.9000
       7290.00        89.1500         1.1000         2.2800       0.320000       110.9500
       7290.50        95.7600         1.1400         2.2900       0.320000       109.8500
       7291.00        97.4000         1.1400         2.3100       0.330000       109.3500
       7291.50       104.9200         1.1100         2.3400       0.340000       110.0000
       7292.00       105.6200         1.0700         2.3500       0.350000       112.9500
       7292.50       105.7400         1.0100         2.3700       0.350000       115.2000
       7293.00       105.3300         0.9700         2.3400       0.360000       115.0000
       7293.50       106.4100         0.9600         2.3300       0.360000       115.2000
       7294.00       106.7300         0.9600         2.3300       0.340000       114.8500
       7294.50        97.8400         0.9900         2.3300       0.330000       115.4000
       7295.00        93.7100         0.9700         2.3200       0.310000       113.7000
       7295.50        88.2500         1.0000         2.3100       0.320000       114.6000
       7296.00        91.5700         1.0600         2.3100       0.330000       115.5500
       7296.50        89.6300         0.9500         2.3000       0.340000       115.2000
       7297.00        88.8900         1.0100         2.3000       0.350000       116.0000
       7297.50        89.5100         0.9300         2.3000       0.350000       115.9000
       7298.00        93.4500         0.9000         2.3100       0.350000       115.8000
       7298.50        93.7200         0.9000         2.3100       0.340000       116.3500
       7299.00        86.3100         0.9300         2.3100       0.350000       115.1500
       7299.50        76.1100         1.0200         2.2600       0.360000       114.0000
       7300.00        67.8500         1.1100         2.2100       0.380000       113.9000
       7300.50        67.2800         1.1200         2.1500       0.370000       112.9500
       7301.00        64.9000         1.1400         2.1200       0.360000       114.2000
       7301.50        65.1600         1.1700         2.1200       0.350000       114.0000
       7302.00        61.1700         1.2000         2.1300       0.380000       113.0000
       7302.50        68.7700         1.1700         2.1600       0.380000       113.5500
       7303.00        76.5300         1.0800         2.1700       0.380000       113.5000
       7303.50        81.8200         1.0800         2.2000       0.350000       114.8000
       7304.00        80.2800         1.0700         2.2300       0.340000       112.5000
       7304.50        79.6300         1.0700         2.2300       0.330000       112.4500
       7305.00        79.0800         1.1100         2.2200       0.330000       113.5500
       7305.50        74.2700         1.0500         2.2000       0.340000       113.0500
       7306.00        70.7400         0.9900         2.2000       0.340000       113.6000
       7306.50        71.0500         0.9700         2.1800       0.340000       114.0000
       7307.00        73.5900         1.0000         2.1900       0.350000       114.1000
       7307.50        75.0400         0.9600         2.1900       0.340000       113.0000
       7308.00        77.4200         0.9600         2.2100       0.330000       112.6000
       7308.50        78.6200         0.9500         2.2100       0.340000       113.9000
       7309.00        81.0900         0.9300         2.2300       0.360000       113.8000
       7309.50        74.8400         0.9100         2.2500       0.360000       115.5000
       7310.00        75.6000         0.9300         2.2600       0.370000       113.1000
       7310.50        74.8900         0.9700         2.2400       0.350000       112.5500
       7311.00        82.7400         0.9700         2.2300       0.360000       112.7000
       7311.50        82.0100         0.9500         2.2300       0.350000       112.3500
       7312.00        81.7400         0.9100         2.2200       0.370000       114.2500
       7312.50        80.3800         0.9300         2.2200       0.400000       115.4000
       7313.00        83.7100         0.9500         2.2400       0.410000       109.5000
       7313.50        83.0800         0.9600         2.3200       0.380000       100.6000
       7314.00        80.4300         1.0800         2.4500       0.290000        91.3500
       7314.50        68.7100         2.0900         2.6100       0.210000        81.3000
       7315.00        66.9700         4.3400         2.6400       0.160000        70.7500
       7315.50        71.5700         5.3900         2.5500       0.150000        74.1000
       7316.00        81.1000         3.5500         2.4000       0.200000        77.6000
       7316.50        84.1500         2.1500         2.3300       0.250000        87.2500
       7317.00        82.8300         1.2900         2.2900       0.310000        98.2000
       7317.50        84.6700         1.0400         2.3100       0.300000       115.6000
       7318.00        85.7800         1.0400         2.2900       0.320000       115.5000
       7318.50        87.9600         1.0200         2.2900       0.310000       112.1500
       7319.00        85.2500         0.9900         2.2800       0.330000       111.1500
       7319.50        89.4300         0.9500         2.2700       0.340000       112.2500
       7320.00        87.5300         0.9400         2.2700       0.330000       112.1500
       7320.50        95.1000         0.9600         2.2600       0.340000       113.2000
       7321.00        95.4900         0.9500         2.2700       0.340000       113.1000
       7321.50        98.3400         0.9100         2.2800       0.330000       111.9000
       7322.00        87.3500         0.9500         2.2700       0.320000       110.5000
       7322.50        85.4800         1.0100         2.2300       0.310000       109.8000
       7323.00        81.3000         1.0800         2.2300       0.320000       109.7000
       7323.50        79.6000         1.0600         2.2400       0.320000       110.0000
       7324.00        78.3800         1.0700         2.2400       0.330000       108.9000
       7324.50        76.7700         1.0700         2.2300       0.330000       108.5500
       7325.00        81.8100         1.0800         2.2300       0.320000       109.0000
       7325.50        79.8600         1.1000         2.2300       0.320000       110.1500
       7326.00        86.0000         1.0500         2.2700       0.340000       112.7500
       7326.50        92.9500         0.9300         2.3000       0.350000       114.7000
