~Version Information Block
VERS .                  2.0:  CWLS LOG ASCII STANDARD - VERSION 2.0
WRAP .                   NO:  One line per depth step
~Well Information Block
#MNEM.UNIT        Data Type   Information
#---------- ----------------  -----------
STRT .FT            5224.50:  START DEPTH
STOP .FT           13237.50:  STOP DEPTH
STEP .FT               0.50:  STEP
NULL .              -999.25:  NULL VALUE
COMP .                     :  COMPANY
WELL .               STA-32:  WELL
FLD  .                     :  FIELD
LOC  .                     :  LOCATION
CTRY .                     :  COUNTRY
STAT .                     :  STATE
CNTY .                     :  COUNTY
SRVC .                     :  SERVICE COMPANY
DATE .                     :  DATE
API  .                     :  API NUMBER
UWI  .                     :  UNIQUE WELL ID
~Curve Information Block
#MNEM.UNIT         API CODE   Curve Description
#---------- ----------------  -----------------
DEPTH.FT                   :  Depth
GR   .GAPI                 :  Gamma Ray
RT   .OHMM                 :  True Resistivity
RHOB .G/C3                 :  Bulk Density
NPHI .V/V                  :  Neutron Porosity
~Parameter Information Block
#MNEM.UNIT            Value   Description
#---------- ----------------  -----------
PROJECT.            SANTAN_FE:  
~Other Information Block
# 
~A       DEPTH             GR             RT           RHOB           NPHI 
# ...
       8916.00        68.9463         2.5522         2.4959       0.215800
       8916.50        68.6525         2.5099         2.4891       0.218600
       8917.00        75.7247         2.3891         2.4987       0.228700
       8917.50        78.1574         2.2811         2.5135       0.242600
       8918.00        84.5332         2.1432         2.5146       0.250700
       8918.50        83.2645         2.0511         2.5071       0.257800
       8919.00        85.1172         1.9971         2.5042       0.265100
       8919.50        78.7778         2.0146         2.5018       0.265200
       8920.00        80.2140         2.0081         2.4965       0.256300
       8920.50        82.7536         2.0110         2.4930       0.243200
       8921.00        77.9494         2.1858         2.4869       0.231200
       8921.50        70.2511         2.2895         2.4756       0.226700
       8922.00        68.1837         2.3089         2.4708       0.228100
       8922.50        71.7467         2.2919         2.4774       0.229700
       8923.00        67.7952         2.2723         2.4798       0.231000
       8923.50        68.3041         2.2015         2.4725       0.241900
       8924.00        73.1138         2.1089         2.4631       0.265400
       8924.50        88.2651         2.0882         2.4593       0.275300
       8925.00        87.3843         2.1357         2.4729       0.253900
       8925.50        80.6332         2.3315         2.5034       0.228400
       8926.00        79.0284         2.4936         2.5264       0.216500
       8926.50        77.0067         2.6044         2.5303       0.214000
       8927.00        76.4662         2.6814         2.5267       0.216400
       8927.50        73.7888         2.7011         2.5202       0.222600
       8928.00        75.7348         2.6541         2.5117       0.231000
       8928.50        80.8908         2.5666         2.5137       0.238000
       8929.00        82.0501         2.4365         2.5249       0.241800
       8929.50        82.2640         2.3223         2.5298       0.236600
       8930.00        76.4364         2.3745         2.5230       0.223100
       8930.50        68.1017         2.4546         2.5101       0.216200
       8931.00        64.4798         2.4912         2.4958       0.218000
       8931.50        63.5569         2.4753         2.4839       0.220700
       8932.00        66.2195         2.4660         2.4810       0.222600
       8932.50        68.2211         2.4626         2.4923       0.224400
       8933.00        69.1219         2.4392         2.5076       0.230300
       8933.50        72.8914         2.4110         2.5195       0.239900
       8934.00        76.6862         2.3319         2.5295       0.248000
       8934.50        79.3370         2.2903         2.5352       0.247600
       8935.00        80.2857         2.3005         2.5379       0.240400
       8935.50        78.5304         2.3091         2.5393       0.237100
       8936.00        80.2383         2.3012         2.5387       0.238400
       8936.50        78.5911         2.2871         2.5397       0.238900
       8937.00        73.6958         2.3713         2.5444       0.236800
       8937.50        69.6369         2.4778         2.5455       0.228400
       8938.00        67.7631         2.6000         2.5351       0.213400
       8938.50        60.8327         2.6216         2.5196       0.202200
       8939.00        51.9809         2.4291         2.5077       0.203200
       8939.50        49.9671         2.2174         2.4861       0.215000
       8940.00        46.1435         2.1441         2.4530       0.226100
       8940.50        47.8442         2.2016         2.4331       0.230600
       8941.00        51.8143         2.2904         2.4435       0.229400
       8941.50        56.3391         2.3422         2.4644       0.223400
       8942.00        58.5528         2.3485         2.4806       0.216700
       8942.50        56.7011         2.3366         2.4859       0.213600
       8943.00        56.9331         2.2935         2.4703       0.211500
       8943.50        56.8680         2.3023         2.4490       0.207500
       8944.00        58.6896         2.3054         2.4431       0.206500
       8944.50        58.4025         2.3024         2.4524       0.210800
       8945.00        56.4032         2.2828         2.4657       0.216800
       8945.50        54.1085         2.2443         2.4644       0.223500
       8946.00        55.9820         2.2150         2.4465       0.228800
       8946.50        58.3204         2.2288         2.4362       0.228400
       8947.00        61.7703         2.2833         2.4476       0.223000
       8947.50        61.6845         2.3483         2.4699       0.220300
       8948.00        66.3925         2.3950         2.4856       0.222100
       8948.50        61.4963         2.4071         2.4863       0.219200
       8949.00        64.2710         2.3965         2.4743       0.214200
       8949.50        64.0250         2.4104         2.4600       0.217700
       8950.00        67.1816         2.4394         2.4583       0.222600
       8950.50        64.9685         2.4598         2.4672       0.221300
       8951.00        66.4575         2.4832         2.4679       0.219700
       8951.50        65.2866         2.5138         2.4645       0.218500
       8952.00        70.9839         2.5706         2.4691       0.216600
       8952.50        72.2388         2.6400         2.4786       0.216700
       8953.00        72.6731         2.6986         2.4868       0.217100
       8953.50        73.6695         2.7243         2.4942       0.213800
       8954.00        68.0230         2.7599         2.4997       0.207000
       8954.50        72.2098         2.7911         2.4995       0.199000
       8955.00        74.3343         2.8108         2.4958       0.199600
       8955.50        73.5240         2.8292         2.4979       0.211000
       8956.00        72.1090         2.8005         2.5069       0.223600
       8956.50        71.1389         2.7197         2.5135       0.233100
       8957.00        69.9454         2.6021         2.5145       0.240600
       8957.50        74.1565         2.4682         2.5097       0.246500
       8958.00        79.7907         2.3437         2.5053       0.255900
       8958.50        82.5313         2.2010         2.5096       0.272100
       8959.00        84.5966         2.0581         2.5224       0.289100
       8959.50        86.5830         1.9163         2.5325       0.297700
       8960.00        91.9884         1.7930         2.5342       0.301200
       8960.50        99.0051         1.6395         2.5285       0.299100
       8961.00        96.2766         1.6158         2.5234       0.287800
       8961.50        94.0132         1.6693         2.5265       0.272700
       8962.00        97.2559         1.7109         2.5305       0.259100
       8962.50        93.5867         1.8352         2.5301       0.250600
       8963.00        92.7603         1.9350         2.5274       0.250300
       8963.50        88.0296         2.0455         2.5227       0.254400
       8964.00        82.7998         2.2014         2.5198       0.256500
       8964.50        83.6563         2.2911         2.5243       0.253700
       8965.00        80.0066         2.3292         2.5330       0.251800
       8965.50        77.2279         2.3011         2.5377       0.257200
       8966.00        82.6814         2.1663         2.5342       0.264800
       8966.50        87.8450         2.0595         2.5285       0.268100
       8967.00        90.1600         2.0265         2.5273       0.271900
       8967.50        84.8317         1.9934         2.5314       0.285100
       8968.00        88.9278         1.9344         2.5339       0.299900
       8968.50        91.0936         1.8785         2.5314       0.303600
       8969.00        91.7456         1.7542         2.5244       0.294600
