~Version Information Block
VERS .                  2.0:  CWLS LOG ASCII STANDARD - VERSION 2.0
WRAP .                   NO:  One line per depth step
~Well Information Block
#MNEM.UNIT        Data Type   Information
#---------- ----------------  -----------
STRT .FT            5000.50:  START DEPTH
STOP .FT           14504.00:  STOP DEPTH
STEP .FT               0.50:  STEP
NULL .              -999.25:  NULL VALUE
COMP .                     :  COMPANY
WELL .               STA-18:  WELL
FLD  .                     :  FIELD
LOC  .                     :  LOCATION
CTRY .                     :  COUNTRY
STAT .                     :  STATE
CNTY .                     :  COUNTY
SRVC .                     :  SERVICE COMPANY
DATE .                     :  DATE
API  .                     :  API NUMBER
UWI  .                     :  UNIQUE WELL ID
~Curve Information Block
#MNEM.UNIT         API CODE   Curve Description
#---------- ----------------  -----------------
DEPTH.FT                   :  DEPTH
GR   .GAPI                 :  Gamma Ray
RT   .OHMM                 :  SEDP
RHOB .G/C3                 :  Bulk Density
NPHI .V/V                  :  Neutron porosity
~Parameter Information Block
#MNEM.UNIT            Value   Description
#---------- ----------------  -----------
PROJECT.            SANTAN_FE:  
~Other Information Block
# 
~A       DEPTH             GR             RT           RHOB           NPHI 
# ...
       5054.00        46.6613      -999.2500      -999.2500       0.567800
       5054.50        44.5816      -999.2500      -999.2500       0.583100
       5055.00        45.0125      -999.2500      -999.2500       0.591400
       5055.50        55.1966      -999.2500      -999.2500       0.551900
       5056.00        61.5416      -999.2500      -999.2500       0.528500
       5056.50        57.1360      -999.2500      -999.2500       0.551900
       5057.00        53.7991      -999.2500      -999.2500       0.636000
       5057.50        55.9618      -999.2500      -999.2500       0.647400
       5058.00        53.9780      -999.2500      -999.2500       0.636300
       5058.50        51.0939      -999.2500      -999.2500       0.619700
       5059.00        49.6319      -999.2500      -999.2500       0.572400
       5059.50        50.0868      -999.2500      -999.2500       0.561300
       5060.00        51.3856      -999.2500      -999.2500       0.589200
       5060.50        52.7406      -999.2500      -999.2500       0.602800
       5061.00        55.2809      -999.2500      -999.2500       0.604100
       5061.50        55.4410      -999.2500      -999.2500       0.602300
       5062.00        53.6730      -999.2500      -999.2500       0.604700
       5062.50        44.6519      -999.2500      -999.2500       0.607600
       5063.00        37.3739      -999.2500      -999.2500       0.604700
       5063.50        38.1490      -999.2500      -999.2500       0.580700
       5064.00        43.7304      -999.2500      -999.2500       0.517300
       5064.50        51.5055      -999.2500      -999.2500       0.499200
       5065.00        62.1029      -999.2500      -999.2500       0.470300
       5065.50        60.7448      -999.2500      -999.2500       0.462600
       5066.00        59.7535      -999.2500      -999.2500       0.467200
       5066.50        58.5075         1.6700      -999.2500       0.440400
       5067.00        58.0424         1.7900      -999.2500       0.407600
       5067.50        60.4530         1.7400      -999.2500       0.400200
       5068.00        66.7611         1.7300      -999.2500       0.407800
       5068.50        68.9125         1.7500      -999.2500       0.427700
       5069.00        75.1255         1.7000      -999.2500       0.439000
       5069.50        76.1527         1.6400      -999.2500       0.437600
       5070.00        72.8576         1.6000      -999.2500       0.435100
       5070.50        72.5374         1.5900      -999.2500       0.427000
       5071.00        83.2959         1.5700      -999.2500       0.421100
       5071.50        90.1239         1.5300      -999.2500       0.424100
       5072.00        85.9484         1.4400      -999.2500       0.447600
       5072.50        80.8708         1.3400      -999.2500       0.486700
       5073.00        73.0233         1.2500      -999.2500       0.503600
       5073.50        68.8174         1.2900      -999.2500       0.498600
       5074.00        74.7866         1.3100      -999.2500       0.478600
       5074.50        79.0490         1.3400      -999.2500       0.464300
       5075.00        83.6808         1.3900      -999.2500       0.465800
       5075.50        87.0238         1.4600      -999.2500       0.470300
       5076.00        92.3613         1.6100      -999.2500       0.474600
       5076.50        87.7282         1.8500      -999.2500       0.500600
       5077.00        76.2862         2.3100      -999.2500       0.515100
       5077.50        72.4996         3.2400      -999.2500       0.471200
       5078.00        72.3719         4.5500         2.2000       0.421000
       5078.50        61.4994         6.3200         2.1800       0.341600
       5079.00        55.0236         6.9700         2.1800       0.274400
       5079.50        52.3591         6.9700         2.3600       0.213300
       5080.00        44.2112         6.7900         2.6000       0.169900
       5080.50        36.4603         6.8000         2.6200       0.146400
       5081.00        38.1130         6.4800         2.6000       0.152100
       5081.50        41.8213         5.6000         2.5300       0.186800
       5082.00        50.0098         4.4200         2.3900       0.239600
       5082.50        56.3766         3.9100         2.3700       0.286800
       5083.00        63.8286         3.6900         2.3700       0.316500
       5083.50        71.5633         3.2000         2.3300       0.335300
       5084.00        72.0549         2.8500         2.2800       0.342000
       5084.50        66.4536         2.6100         2.2800       0.347800
       5085.00        62.2406         2.5900         2.2800       0.338600
       5085.50        60.7676         2.4700         2.2800       0.327200
       5086.00        63.6108         2.3300         2.2700       0.320500
       5086.50        70.1534         2.2000         2.2600       0.317600
       5087.00        78.6591         1.9900         2.2600       0.315800
       5087.50        81.2833         1.8000         2.2600       0.321900
       5088.00        84.5226         1.6900         2.2600       0.345400
       5088.50        93.0104         1.6200         2.2700       0.379200
       5089.00        88.8642         1.5800         2.2800       0.414600
       5089.50        73.1513         1.5600         2.2800       0.438700
       5090.00        80.2554         1.5600         2.2800       0.435700
       5090.50        95.9610         1.5500         2.2900       0.418000
       5091.00        96.0685         1.5300         2.3000       0.421900
       5091.50        91.6709         1.5200         2.3000       0.446000
       5092.00        76.7843         1.4900         2.3000       0.458600
       5092.50        73.4103         1.4600         2.2900       0.443000
       5093.00        91.1622         1.4600         2.3000       0.421800
       5093.50        92.7837         1.4500         2.3100       0.418900
       5094.00        86.5120         1.4300         2.3100       0.435300
       5094.50        90.9026         1.4200         2.3100       0.438400
       5095.00        95.3688         1.4000         2.3100       0.435800
       5095.50        99.3109         1.3800         2.3100       0.435700
       5096.00       103.0123         1.3700         2.3100       0.435800
       5096.50       105.9449         1.3800         2.3100       0.431100
       5097.00        91.5562         1.3900         2.3100       0.420300
       5097.50        80.4453         1.4000         2.3100       0.372500
       5098.00        87.0832         1.4200         2.3000       0.339800
       5098.50        93.4968         1.5300         2.3000       0.330000
       5099.00       103.7713         1.7200         2.3000       0.342500
       5099.50        96.5832         1.8300         2.3000       0.361800
       5100.00        73.1226         1.9000         2.3000       0.377600
       5100.50        68.6753         1.9100         2.3000       0.393600
       5101.00        69.3556         1.8900         2.3000       0.403400
       5101.50        74.8499         1.8500         2.3000       0.387100
       5102.00        83.1160         1.7900         2.3000       0.382100
       5102.50        76.6238         1.7600         2.2900       0.403000
       5103.00        68.8511         1.7400         2.2900       0.411500
       5103.50        80.9652         1.7200         2.2900       0.410300
       5104.00        91.0710         1.7100         2.2800       0.409500
       5104.50        87.6008         1.6900         2.2800       0.410400
       5105.00        85.3717         1.6500         2.2900       0.435100
       5105.50        91.5463         1.6000         2.2900       0.457300
       5106.00        94.6880         1.5700         2.3000       0.469900
       5106.50        95.5913         1.5500         2.3200       0.480200
       5107.00        89.7737         1.5200         2.3100       0.475300
