~Version Information Block
VERS .                  2.0:  CWLS LOG ASCII STANDARD - VERSION 2.0
WRAP .                   NO:  One line per depth step
~Well Information Block
#MNEM.UNIT        Data Type   Information
#---------- ----------------  -----------
STRT .FT             750.00:  START DEPTH
STOP .FT            8283.50:  STOP DEPTH
STEP .FT               0.50:  STEP
NULL .              -999.25:  NULL VALUE
COMP .                     :  COMPANY
WELL .               STA-20:  WELL
FLD  .                     :  FIELD
LOC  .                     :  LOCATION
CTRY .                     :  COUNTRY
STAT .                     :  STATE
CNTY .                     :  COUNTY
SRVC .                     :  SERVICE COMPANY
DATE .                     :  DATE
API  .                     :  API NUMBER
UWI  .                     :  UNIQUE WELL ID
~Curve Information Block
#MNEM.UNIT         API CODE   Curve Description
#---------- ----------------  -----------------
DEPTH.FT                   :  DEPTH
GR   .GAPI                 :  Gamma Ray
RT   .OHMM                 :  RESDE
RHOB .G/C3                 :  Bulk Density
NPHI .V/V                  :  Thermal Neutron Porosity (Ratio Method) in Selected Lithology
~Parameter Information Block
#MNEM.UNIT            Value   Description
#---------- ----------------  -----------
PROJECT.            SANTAN_FE:  
~Other Information Block
# 
~A       DEPTH             GR             RT           RHOB           NPHI 
# ...
       1766.50        76.3425         1.0035         1.9935       0.525500
       1767.00        79.1750         1.0139         1.9884       0.568200
       1767.50        81.8600         1.0209         1.9890       0.613200
       1768.00        82.7450         1.0250         1.9952       0.631400
       1768.50        81.1150         1.0250         2.0057       0.622000
       1769.00        78.1700         1.0323         2.0173       0.595900
       1769.50        74.4825         1.1085         2.0266       0.576900
       1770.00        69.7075         1.3168         2.0294       0.568100
       1770.50        64.1300         1.5327         2.0280       0.556200
       1771.00        57.9225         1.6991         2.0294       0.528000
       1771.50        50.9725         1.8840         2.0247       0.483400
       1772.00        43.9350         1.9857         2.0201       0.438800
       1772.50        37.1250         2.0489         2.0016       0.411300
       1773.00        31.7775         2.1227         1.9808       0.400800
       1773.50        29.4050         2.1432         1.9694       0.396700
       1774.00        30.0625         2.0802         1.9675       0.395300
       1774.50        34.0925         1.9668         1.9924       0.407100
       1775.00        38.5825         1.8306         2.0157       0.426100
       1775.50        39.7575         1.6966         2.0229       0.439500
       1776.00        38.9025         1.6583         2.0167       0.448900
       1776.50        35.8425         1.7245         2.0035       0.458600
       1777.00        34.5275         1.7974         1.9874       0.471900
       1777.50        34.4425         1.8463         1.9673       0.489500
       1778.00        34.7850         1.7863         1.9550       0.503100
       1778.50        33.7825         1.6833         1.9550       0.508600
       1779.00        31.9225         1.6352         1.9590       0.502200
       1779.50        32.0075         1.7180         1.9566       0.489000
       1780.00        33.8100         1.7679         1.9425       0.477400
       1780.50        34.3250         1.7674         1.9228       0.473700
       1781.00        33.2100         1.7351         1.9031       0.481100
       1781.50        32.4950         1.7191         1.8834       0.498100
       1782.00        33.0375         1.7717         1.8640       0.520400
       1782.50        34.6950         1.7792         1.8487       0.541400
       1783.00        35.4375         1.8065         1.8374       0.548700
       1783.50        35.4375         1.8147         1.8299       0.538000
       1784.00        35.4375         1.7817         1.8247       0.504700
       1784.50        35.4100         1.7164         1.8204       0.459600
       1785.00        35.5550         1.6337         1.8160       0.421100
       1785.50        35.8975         1.5603         1.8098       0.402100
       1786.00        36.3825         1.5234         1.7959       0.397900
       1786.50        36.3825         1.5307         1.7696       0.399500
       1787.00        35.6400         1.5928         1.7413       0.400000
       1787.50        34.5825         1.6919         1.7180       0.400000
       1788.00        34.4100         1.7461         1.7056       0.405300
       1788.50        35.7250         1.7366         1.7081       0.421800
       1789.00        37.7275         1.7014         1.7194       0.445800
       1789.50        39.1000         1.6676         1.7292       0.462300
       1790.00        39.2700         1.6344         1.7325       0.456500
       1790.50        38.7275         1.5881         1.7325       0.430100
       1791.00        37.2125         1.5516         1.7311       0.410400
       1791.50        36.5000         1.5646         1.7272       0.420300
       1792.00        36.9575         1.5984         1.7181       0.464700
       1792.50        38.2150         1.5988         1.7056       0.517000
       1793.00        39.9600         1.5651         1.6986       0.563100
       1793.50        41.7925         1.5533         1.6933       0.611000
       1794.00        41.8775         1.5587         1.6858       0.628000
       1794.50        38.4150         1.5373         1.6742       0.600400
       1795.00        33.9250         1.4876         1.6606       0.555400
       1795.50        32.8100         1.4648         1.6522       0.531100
       1796.00        34.3250         1.4456         1.6528       0.545700
       1796.50        36.2425         1.4761         1.6647       0.596500
       1797.00        36.2725         1.5495         1.6947       0.645900
       1797.50        35.0425         1.5981         1.7528       0.659400
       1798.00        34.4400         1.5817         1.8336       0.628000
       1798.50        34.7525         1.5491         1.9128       0.571600
       1799.00        36.0950         1.5493         1.9700       0.522400
       1799.50        37.0100         1.5729         2.0094       0.495300
       1800.00        37.3825         1.5927         2.0472       0.488800
       1800.50        37.6975         1.6036         2.0775       0.496300
       1801.00        38.4125         1.6154         2.0903       0.504400
       1801.50        38.4125         1.6442         2.0953       0.494900
       1802.00        37.4700         1.7179         2.0975       0.461500
       1802.50        35.8425         1.8302         2.0975       0.423600
       1803.00        36.3000         1.9073         2.1075       0.403700
       1803.50        38.7850         1.9525         2.1497       0.399000
       1804.00        42.1875         1.9525         2.2069       0.395400
       1804.50        44.3925         1.9736         2.2315       0.390700
       1805.00        45.4800         1.9750         2.2400       0.384500
       1805.50        46.4550         1.9812         2.2471       0.370100
       1806.00        46.4825         1.9961         2.2677       0.355400
       1806.50        45.7650         2.0127         2.2810       0.356000
       1807.00        44.1050         2.0158         2.2777       0.360300
       1807.50        43.7925         1.9980         2.2575       0.347200
       1808.00        44.2225         1.9650         2.2350       0.326800
       1808.50        45.9675         1.9398         2.2169       0.330400
       1809.00        45.8800         1.9395         2.2054       0.360800
       1809.50        43.4750         2.0054         2.1986       0.395600
       1810.00        38.8150         2.1529         2.1882       0.399000
       1810.50        34.6950         2.2503         2.1686       0.388400
       1811.00        33.6075         2.2144         2.1555       0.381200
       1811.50        35.1825         2.1544         2.1599       0.384600
       1812.00        34.9550         2.1691         2.1760       0.385000
       1812.50        32.8400         2.2052         2.1900       0.376800
       1813.00        29.6350         2.2134         2.1993       0.354300
       1813.50        29.5500         2.1537         2.2065       0.348200
       1814.00        31.4650         2.0717         2.2055       0.349700
       1814.50        32.5500         2.0265         2.1923       0.355200
       1815.00        32.6050         2.0193         2.1727       0.359700
       1815.50        33.3775         2.0219         2.1621       0.369000
       1816.00        36.0675         2.0302         2.1678       0.384200
       1816.50        39.5875         2.0524         2.1885       0.398500
       1817.00        41.3025         2.0657         2.2107       0.410400
       1817.50        41.5325         2.0358         2.2178       0.426200
       1818.00        40.3375         1.9280         2.2073       0.445600
       1818.50        38.3675         1.7721         2.1789       0.457000
       1819.00        34.8475         1.6405         2.1463       0.457500
       1819.50        30.8100         1.5666         2.1194       0.452000
