~Version Information Block
VERS .                  2.0:  CWLS LOG ASCII STANDARD - VERSION 2.0
WRAP .                   NO:  One line per depth step
~Well Information Block
#MNEM.UNIT        Data Type   Information
#---------- ----------------  -----------
STRT .FT             728.00:  START DEPTH
STOP .FT           10480.50:  STOP DEPTH
STEP .FT               0.50:  STEP
NULL .              -999.25:  NULL VALUE
COMP .                     :  COMPANY
WELL .               STA-21:  WELL
FLD  .                     :  FIELD
LOC  .                     :  LOCATION
CTRY .                     :  COUNTRY
STAT .                     :  STATE
CNTY .                     :  COUNTY
SRVC .                     :  SERVICE COMPANY
DATE .                     :  DATE
API  .                     :  API NUMBER
UWI  .                     :  UNIQUE WELL ID
~Curve Information Block
#MNEM.UNIT         API CODE   Curve Description
#---------- ----------------  -----------------
DEPTH.FT                   :  DEPTH
GR   .GAPI                 :  Gamma Ray
RT   .OHMM                 :  RESDE
RHOB .G/C3                 :  Bulk Density
NPHI .V/V                  :  Thermal Neutron Porosity (Ratio Method) in Selected Lithology
~Parameter Information Block
#MNEM.UNIT            Value   Description
#---------- ----------------  -----------
PROJECT.            SANTAN_FE:  
~Other Information Block
# 
~A       DEPTH             GR             RT           RHOB           NPHI 
# ...
       7201.50        66.5200         1.6000         2.3800         0.4200
       7202.00        66.6100         1.6400         2.4000         0.4200
       7202.50        66.9400         1.5700         2.3900         0.4100
       7203.00        66.9400         1.5700         2.4100         0.4200
       7203.50        66.8600         1.6200         2.4000         0.4200
       7204.00        66.6100         1.5800         2.4200         0.4400
       7204.50        67.9500         1.5800         2.4200         0.4400
       7205.00        69.6200         1.5000         2.4200         0.4500
       7205.50        70.2900         1.5000         2.4100         0.4500
       7206.00        69.7800         1.4600         2.3900         0.4500
       7206.50        70.5300         1.4200         2.4000         0.4300
       7207.00        71.7900         1.4200         2.4100         0.4100
       7207.50        72.3000         1.4800         2.4200         0.3900
       7208.00        69.7000         1.5900         2.4000         0.4100
       7208.50        66.4400         1.8200         2.3800         0.4200
       7209.00        61.8400         2.0000         2.3300         0.3900
       7209.50        57.0700         2.2600         2.3000         0.3500
       7210.00        52.0500         2.6200         2.2900         0.3200
       7210.50        48.7800         3.1200         2.2900         0.3200
       7211.00        46.2700         3.2400         2.2800         0.3100
       7211.50        45.2700         3.0200         2.2800         0.3100
       7212.00        44.1800         2.8000         2.2600         0.3100
       7212.50        43.8500         2.6000         2.2500         0.3300
       7213.00        43.3500         2.4000         2.2300         0.3400
       7213.50        43.8500         2.4000         2.2400         0.3400
       7214.00        44.6000         2.3200         2.2300         0.3300
       7214.50        44.6000         2.3000         2.2300         0.3400
       7215.00        44.6000         2.2700         2.2200         0.3500
       7215.50        44.5200         2.3000         2.2100         0.3500
       7216.00        45.1800         2.2200         2.2100         0.3400
       7216.50        45.1000         2.2100         2.2100         0.3500
       7217.00        44.6000         2.2200         2.2400         0.3500
       7217.50        43.8500         2.2100         2.2200         0.3800
       7218.00        43.4300         2.1900         2.2100         0.3900
       7218.50        43.0100         2.2500         2.1900         0.3800
       7219.00        42.8400         2.3100         2.2000         0.3700
       7219.50        41.9200         2.3400         2.2000         0.3600
       7220.00        40.5800         2.3000         2.1800         0.3600
       7220.50        38.4900         2.3200         2.1600         0.3600
       7221.00        36.9000         2.3500         2.1600         0.3600
       7221.50        35.8100         2.3800         2.1500         0.3600
       7222.00        35.7300         2.3900         2.1500         0.3600
       7222.50        36.6500         2.3700         2.1500         0.3700
       7223.00        37.9900         2.3400         2.1500         0.3900
       7223.50        39.4100         2.2500         2.1600         0.3900
       7224.00        39.8300         2.0900         2.1900         0.3900
       7224.50        40.5000         2.0900         2.2000         0.3900
       7225.00        42.5900         2.1300         2.2500         0.4000
       7225.50        46.6900         2.1300         2.2600         0.4100
       7226.00        52.2900         1.8600         2.3300         0.4500
       7226.50        58.9100         1.8500         2.3400         0.4800
       7227.00        64.9300         1.6800         2.3600         0.5000
       7227.50        69.3700         1.6800         2.3700         0.4700
       7228.00        70.7900         1.4700         2.3600         0.4500
       7228.50        70.7900         1.5600         2.3700         0.4300
       7229.00        70.8700         1.5100         2.3700         0.4300
       7229.50        71.3800         1.5100         2.3700         0.4300
       7230.00        72.6300         1.5500         2.3700         0.4300
       7230.50        73.7200         1.5200         2.3800         0.4400
       7231.00        74.6400         1.5900         2.3800         0.4300
       7231.50        74.3000         1.5400         2.3800         0.4400
       7232.00        74.4700         1.6300         2.3800         0.4400
       7232.50        74.7200         1.6300         2.4000         0.4300
       7233.00        75.7300         1.5800         2.4200         0.4400
       7233.50        75.7300         1.6400         2.4200         0.4400
       7234.00        75.5600         1.6500         2.4200         0.4400
       7234.50        74.6400         1.6700         2.4000         0.4200
       7235.00        73.3000         1.7100         2.4000         0.4300
       7235.50        71.4600         1.7300         2.4100         0.4500
       7236.00        68.7800         1.7600         2.4400         0.4400
       7236.50        65.1800         1.9000         2.4600         0.4200
       7237.00        60.7500         1.9000         2.4500         0.3900
       7237.50        58.2400         2.0000         2.4100         0.3700
       7238.00        59.5700         2.2800         2.3800         0.3800
       7238.50        63.4200         2.0600         2.3700         0.3900
       7239.00        68.4500         1.8500         2.3900         0.4100
       7239.50        71.9600         1.8500         2.4100         0.4200
       7240.00        75.8100         1.8000         2.4100         0.4400
       7240.50        77.9900         1.6900         2.4200         0.4400
       7241.00        78.4900         1.6000         2.3900         0.4100
       7241.50        77.4800         1.6400         2.3800         0.3800
       7242.00        76.1500         1.6400         2.3500         0.4200
       7242.50        76.0600         1.5700         2.3700         0.4700
       7243.00        75.8900         1.5900         2.3700         0.4900
       7243.50        76.3100         1.5800         2.3900         0.4700
       7244.00        75.3900         1.5800         2.3800         0.4700
       7244.50        75.5600         1.6000         2.3900         0.4500
       7245.00        75.3100         1.5800         2.3900         0.4500
       7245.50        76.9800         1.5800         2.3900         0.4400
       7246.00        78.0700         1.5800         2.3900         0.4500
       7246.50        78.4000         1.6200         2.3800         0.4500
       7247.00        78.6600         1.6600         2.3800         0.4500
       7247.50        78.5700         1.6400         2.3800         0.4700
       7248.00        79.6600         1.5800         2.3800         0.4400
       7248.50        79.9100         1.5500         2.3900         0.4400
       7249.00        80.1600         1.5500         2.4000         0.4500
       7249.50        79.4900         1.5100         2.3900         0.4700
       7250.00        77.4800         1.4000         2.3900         0.4600
       7250.50        75.4800         1.4500         2.3900         0.4200
       7251.00        71.8700         1.4500         2.4100         0.4000
       7251.50        69.7000         1.4900         2.4200         0.4000
       7252.00        65.4300         1.7100         2.3900         0.3800
       7252.50        63.1700         2.3400         2.2600         0.3800
       7253.00        60.9200         2.5500         2.0900         0.3700
       7253.50        62.1700         3.1200         1.9700         0.3700
       7254.00        67.4400         3.4200         1.9400         0.3500
       7254.50        72.7100         3.8600         2.0500         0.3500
