~Version Information Block
VERS .                  2.0:  CWLS LOG ASCII STANDARD - VERSION 2.0
WRAP .                   NO:  One line per depth step
~Well Information Block
#MNEM.UNIT        Data Type   Information
#---------- ----------------  -----------
STRT .FT            3742.00:  START DEPTH
STOP .FT            8440.00:  STOP DEPTH
STEP .FT               0.50:  STEP
NULL .              -999.25:  NULL VALUE
COMP .                     :  COMPANY
WELL .                STA-2:  WELL
FLD  .                     :  FIELD
LOC  .                     :  LOCATION
CTRY .                     :  COUNTRY
STAT .                     :  STATE
CNTY .                     :  COUNTY
SRVC .                     :  SERVICE COMPANY
DATE .                     :  DATE
API  .                     :  API NUMBER
UWI  .                     :  UNIQUE WELL ID
~Curve Information Block
#MNEM.UNIT         API CODE   Curve Description
#---------- ----------------  -----------------
DEPTH.FT                   :  DEPTH
GR   .GAPI                 :  Gamma Ray
RT   .OHMM                 :  Deep resistivity
RHOB .G/C3                 :  Bulk Density
NPHI .V/V                  :  Neutron porosity
DT   .US/F                 :  Sonic
~Parameter Information Block
#MNEM.UNIT            Value   Description
#---------- ----------------  -----------
PROJECT.            SANTAN_FE:  
~Other Information Block
# 
~A       DEPTH             GR             RT           RHOB           NPHI             DT 
# ...
       6901.50        64.3700         2.9700         2.3700       0.210000        89.0500
       6902.00        58.7800         2.9300         2.3700       0.210000        91.5000
       6902.50        62.2900         2.5800         2.3700       0.210000        89.1000
       6903.00        66.9300         2.4800         2.4100       0.210000        88.8000
       6903.50        69.7500         2.6700         2.4200       0.210000        87.8000
       6904.00        69.4700         3.1700         2.4400       0.210000        88.0000
       6904.50        73.0300         3.3600         2.4500       0.220000        87.8500
       6905.00        73.2000         3.1300         2.4500       0.220000        90.1000
       6905.50        81.2500         3.0200         2.4600       0.240000        92.2000
       6906.00        85.5700         2.3200         2.4800       0.240000        93.0000
       6906.50        89.8300         2.3600         2.4800       0.250000        92.4500
       6907.00        87.9700         2.7100         2.4700       0.240000        92.1500
       6907.50        93.0500         2.8200         2.4800       0.240000        91.8500
       6908.00        96.2100         2.8100         2.4900       0.250000        92.2500
       6908.50       103.9000         2.2800         2.5000       0.250000        93.6000
       6909.00       102.2300         2.1100         2.5000       0.260000        95.5000
       6909.50       104.4700         1.8400         2.4900       0.280000        96.2000
       6910.00       106.9300         1.8400         2.4800       0.310000        98.4000
       6910.50       110.1400         1.9700         2.4900       0.320000        99.6000
       6911.00       108.7400         1.6900         2.5100       0.310000        98.8000
       6911.50        90.6900         2.1600         2.4700       0.270000        95.0000
       6912.00        69.9400         2.7000         2.4000       0.240000        93.7000
       6912.50        55.7900         2.6700         2.3200       0.210000        89.8500
       6913.00        48.3100         2.5600         2.3000       0.210000        89.9500
       6913.50        49.9700         2.6200         2.3300       0.200000        90.7000
       6914.00        51.9400         3.1000         2.3700       0.200000        89.4000
       6914.50        59.3400         2.9100         2.3900       0.190000        88.1000
       6915.00        65.3500         2.7000         2.3600       0.180000        88.6500
       6915.50        71.0000         3.1400         2.4100       0.190000        89.0500
       6916.00        80.1700         2.7100         2.4600       0.200000        88.7500
       6916.50        87.4700         3.1000         2.4900       0.210000        89.7000
       6917.00        92.3400         3.0800         2.5000       0.210000        89.9000
       6917.50        96.6400         2.9000         2.5100       0.220000        91.1000
       6918.00       101.8400         2.6800         2.5000       0.250000        93.3500
       6918.50       108.4700         2.3600         2.4800       0.280000        96.4500
       6919.00       107.2600         2.1200         2.4800       0.290000        97.9000
       6919.50       106.8400         2.0000         2.4800       0.280000        98.0000
       6920.00       102.1600         2.4700         2.5000       0.260000        97.0000
       6920.50       103.3900         2.3800         2.5000       0.260000        94.6000
       6921.00        99.3900         2.4200         2.4900       0.250000        93.5500
       6921.50        95.1300         2.1900         2.4900       0.240000        92.5000
       6922.00        85.2900         2.2900         2.4700       0.220000        92.1000
       6922.50        74.2200         2.7300         2.4600       0.210000        87.8500
       6923.00        65.5100         3.4900         2.4500       0.210000        86.3000
       6923.50        63.7300         3.7500         2.4700       0.200000        84.5500
       6924.00        67.6200         3.3500         2.4700       0.190000        83.9500
       6924.50        71.2400         3.1900         2.4900       0.200000        86.6000
       6925.00        78.2800         3.1000         2.4900       0.230000        87.4000
       6925.50        87.5400         2.4800         2.5100       0.250000        89.0500
       6926.00       100.5200         2.4400         2.5100       0.240000        91.3000
       6926.50       101.7600         2.4400         2.5100       0.250000        92.3000
       6927.00       100.0500         2.2800         2.5100       0.270000        94.4000
       6927.50        99.1300         2.0800         2.5000       0.280000        95.2000
       6928.00       102.4400         2.0100         2.5100       0.270000        95.8500
       6928.50       102.6600         2.1900         2.5100       0.260000        97.2000
       6929.00       106.7800         2.3000         2.5100       0.250000        96.1000
       6929.50       111.1400         2.2700         2.5100       0.270000        97.9000
       6930.00       118.6600         1.8100         2.4900       0.280000        96.8500
       6930.50       115.4100         1.9800         2.4800       0.280000        97.5000
       6931.00       115.1000         1.9100         2.4700       0.270000        98.4000
       6931.50       110.0200         1.7000         2.4700       0.290000        98.0000
       6932.00       102.7200         1.9200         2.4900       0.280000        94.6000
       6932.50        88.6900         2.9500         2.5400       0.220000        88.1000
       6933.00        71.9500         6.9600         2.6100       0.140000        78.0000
       6933.50        60.1900        12.6400         2.6600       0.100000        69.2000
       6934.00        53.1600         8.0900         2.6700       0.100000        62.6000
       6934.50        52.6500         7.3800         2.6100       0.140000        60.8000
       6935.00        50.0600         4.8700         2.5300       0.180000        64.9500
       6935.50        51.3300         3.3700         2.4700       0.190000        74.8000
       6936.00        53.5600         2.9000         2.4200       0.190000        80.2000
       6936.50        65.8500         3.0100         2.4100       0.190000        85.6500
       6937.00        72.3100         3.5000         2.4200       0.190000        87.3500
       6937.50        80.3300         3.2300         2.4300       0.200000        85.8000
       6938.00        88.0500         3.4800         2.4400       0.220000        87.6000
       6938.50        93.1000         2.9600         2.4500       0.240000        89.3000
       6939.00        89.9600         2.8600         2.4700       0.240000        88.7000
       6939.50        81.6600         3.2900         2.4700       0.220000        87.0000
       6940.00        78.7400         3.4800         2.4700       0.200000        85.9500
       6940.50        85.0900         3.4700         2.4800       0.200000        86.1000
       6941.00        89.1800         3.4700         2.4800       0.200000        87.2000
       6941.50        93.4500         3.2400         2.4700       0.210000        87.9000
       6942.00        96.9600         3.1700         2.4800       0.210000        89.7500
       6942.50       103.6800         3.2800         2.4900       0.230000        91.1000
       6943.00       109.2900         2.8900         2.4900       0.250000        92.9000
       6943.50       114.8500         2.5700         2.4900       0.280000        95.6000
       6944.00       114.8500         2.3400         2.4800       0.280000        96.0000
       6944.50       108.0600         2.2400         2.4800       0.270000        94.8500
       6945.00        95.8900         2.8600         2.4700       0.240000        93.0000
       6945.50        87.5000         3.3900         2.4400       0.220000        90.4500
