~Version Information Block
VERS .                  2.0:  CWLS LOG ASCII STANDARD - VERSION 2.0
WRAP .                   NO:  One line per depth step
~Well Information Block
#MNEM.UNIT        Data Type   Information
#---------- ----------------  -----------
STRT .FT             780.00:  START DEPTH
STOP .FT            8996.00:  STOP DEPTH
STEP .FT               0.50:  STEP
NULL .              -999.25:  NULL VALUE
COMP .                     :  COMPANY
WELL .                STA-4:  WELL
FLD  .                     :  FIELD
LOC  .                     :  LOCATION
CTRY .                     :  COUNTRY
STAT .                     :  STATE
CNTY .                     :  COUNTY
SRVC .                     :  SERVICE COMPANY
DATE .                     :  DATE
API  .                     :  API NUMBER
UWI  .                     :  UNIQUE WELL ID
~Curve Information Block
#MNEM.UNIT         API CODE   Curve Description
#---------- ----------------  -----------------
DEPTH.FT                   :  DEPTH
GR   .GAPI                 :  Gamma Ray
RT   .OHMM                 :  SEDP
RHOB .G/C3                 :  Bulk Density
NPHI .V/V                  :  Neutron porosity
~Parameter Information Block
#MNEM.UNIT            Value   Description
#---------- ----------------  -----------
PROJECT.            SANTAN_FE:  
~Other Information Block
# 
~A       DEPTH             GR             RT           RHOB           NPHI 
# ...
       5113.50        82.7600         1.6000         2.2500       0.532800
       5114.00        85.6800         1.6300         2.2400       0.531200
       5114.50        88.5400         1.6200         2.2400       0.531000
       5115.00        86.8800         1.6100         2.2400       0.531900
       5115.50        86.8300         1.6100         2.2400       0.534600
       5116.00        82.4400         1.6000         2.2400       0.534300
       5116.50        85.3900         1.6000         2.2400       0.532900
       5117.00        94.3500         1.6000         2.2500       0.532300
       5117.50        91.1100         1.6000         2.2500       0.528400
       5118.00        87.8900         1.5900         2.2400       0.539100
       5118.50        92.9000         1.5800         2.2200       0.550500
       5119.00        97.8600         1.5800         2.2100       0.547400
       5119.50        85.4200         1.5800         2.2000       0.542600
       5120.00        84.8700         1.5900         2.1900       0.539700
       5120.50        90.7800         1.5900         2.1900       0.539600
       5121.00        81.9000         1.6000         2.1900       0.525500
       5121.50        87.7700         1.5900         2.2000       0.514500
       5122.00        91.0500         1.5900         2.2000       0.522700
       5122.50        91.2800         1.6000         2.2100       0.528600
       5123.00        90.3900         1.6100         2.2600       0.546800
       5123.50        90.6000         1.6100         2.2700       0.565300
       5124.00        85.7500         1.5900         2.2800       0.564700
       5124.50        87.7500         1.5700         2.2600       0.541100
       5125.00        94.4700         1.5700         2.2600       0.517100
       5125.50        95.0500         1.5700         2.2500       0.510400
       5126.00        94.4600         1.5700         2.2500       0.511100
       5126.50        93.8800         1.5700         2.2400       0.522900
       5127.00        97.9800         1.5700         2.2400       0.529100
       5127.50        95.2700         1.5600         2.2300       0.534300
       5128.00        94.9600         1.5600         2.2200       0.545500
       5128.50        94.9600         1.5500         2.2200       0.568200
       5129.00        94.9700         1.5500         2.2200       0.574800
       5129.50        92.3600         1.5500         2.2200       0.574600
       5130.00        92.2600         1.5700         2.2200       0.567200
       5130.50        93.4600         1.5800         2.2100       0.543600
       5131.00        93.6900         1.5900         2.2100       0.534500
       5131.50        93.5100         1.6000         2.2100       0.532700
       5132.00        89.5400         1.6200         2.2100       0.536900
       5132.50        86.7400         1.6400         2.2100       0.541400
       5133.00        84.4700         1.6600         2.2100       0.543400
       5133.50        84.5700         1.6900         2.2000       0.537700
       5134.00        79.3300         1.7200         2.2000       0.530100
       5134.50        82.4900         1.7500         2.2000       0.522800
       5135.00        88.5700         1.8100         2.2000       0.516100
       5135.50        86.5600         1.8200         2.1900       0.500400
       5136.00        89.6400         1.8100         2.1900       0.485400
       5136.50        92.5300         1.8100         2.1900       0.478600
       5137.00        92.1100         1.8400         2.1900       0.474900
       5137.50        91.4000         1.8500         2.2000       0.469500
       5138.00        89.7800         1.8400         2.2100       0.465600
       5138.50        88.8300         1.8300         2.2100       0.462500
       5139.00        80.7400         1.8700         2.2200       0.456500
       5139.50        79.7600         1.9700         2.2200       0.441500
       5140.00        80.6900         2.0400         2.2100       0.436500
       5140.50        80.3600         2.1100         2.2100       0.436000
       5141.00        84.2100         2.0900         2.2000       0.445300
       5141.50        85.0700         2.0300         2.1900       0.454800
       5142.00        84.2400         2.0000         2.1700       0.457700
       5142.50        75.8800         1.9800         2.1600       0.460900
       5143.00        75.1900         1.8900         2.1600       0.454700
       5143.50        78.8800         1.8300         2.1600       0.446200
       5144.00        76.7900         1.8100         2.1800       0.435900
       5144.50        74.8100         1.7900         2.2000       0.428400
       5145.00        74.3100         1.7600         2.2000       0.421000
       5145.50        75.6500         1.7500         2.2100       0.417800
       5146.00        80.1200         1.7600         2.2200       0.415400
       5146.50        80.8600         1.7700         2.2200       0.414400
       5147.00        84.2000         1.7700         2.2200       0.415700
       5147.50        86.0100         1.7700         2.2200       0.421400
       5148.00        85.0500         1.7700         2.2400       0.426600
       5148.50        77.5500         1.7700         2.2400       0.442200
       5149.00        75.8300         1.7400         2.2500       0.457200
       5149.50        69.5700         1.7200         2.2500       0.458200
       5150.00        68.2400         1.7200         2.2700       0.446800
       5150.50        69.9800         1.7200         2.2800       0.435100
       5151.00        72.8700         1.7300         2.2700       0.429600
       5151.50        73.1700         1.7400         2.2600       0.429900
       5152.00        72.8500         1.7600         2.2500       0.441200
       5152.50        73.3200         1.8300         2.2500       0.444000
       5153.00        76.5000         1.8500         2.2400       0.432900
       5153.50        77.6100         1.8000         2.2400       0.422400
       5154.00        78.4300         1.7300         2.2400       0.423000
       5154.50        73.1500         1.7100         2.2500       0.429800
       5155.00        73.1200         1.6800         2.2500       0.447300
       5155.50        82.2200         1.6700         2.2500       0.465500
       5156.00        83.1200         1.6600         2.2500       0.472300
       5156.50        82.7000         1.6700         2.2500       0.493700
       5157.00        82.9200         1.6800         2.2300       0.514700
       5157.50        82.4900         1.6800         2.2300       0.523000
       5158.00        78.1600         1.6500         2.2300       0.531200
       5158.50        74.1500         1.6200         2.2200       0.532100
       5159.00        73.6700         1.6200         2.2300       0.522200
       5159.50        74.1800         1.6200         2.2300       0.512300
       5160.00        85.2400         1.6300         2.2300       0.502500
       5160.50        89.5500         1.6200         2.2300       0.493500
       5161.00        88.4000         1.6100         2.2300       0.486800
       5161.50        88.8400         1.6300         2.2300       0.485900
       5162.00        87.9400         1.6400         2.2300       0.474300
       5162.50        86.0800         1.6400         2.2300       0.471700
       5163.00        85.6000         1.6500         2.2300       0.484000
       5163.50        86.3000         1.6500         2.2300       0.484000
       5164.00        86.5200         1.6600         2.2300       0.470300
       5164.50        87.8400         1.6700         2.2200       0.457000
       5165.00        88.0100         1.6700         2.2200       0.456600
       5165.50        89.0100         1.6700         2.2200       0.460900
       5166.00        87.4000         1.6500         2.2100       0.465400
       5166.50        82.4700         1.6300         2.2000       0.468100
