~Version Information Block
VERS .                  2.0:  CWLS LOG ASCII STANDARD - VERSION 2.0
WRAP .                   NO:  One line per depth step
~Well Information Block
#MNEM.UNIT        Data Type   Information
#---------- ----------------  -----------
STRT .FT            5000.50:  START DEPTH
STOP .FT           14504.00:  STOP DEPTH
STEP .FT               0.50:  STEP
NULL .              -999.25:  NULL VALUE
COMP .                     :  COMPANY
WELL .               STA-18:  WELL
FLD  .                     :  FIELD
LOC  .                     :  LOCATION
CTRY .                     :  COUNTRY
STAT .                     :  STATE
CNTY .                     :  COUNTY
SRVC .                     :  SERVICE COMPANY
DATE .                     :  DATE
API  .                     :  API NUMBER
UWI  .                     :  UNIQUE WELL ID
~Curve Information Block
#MNEM.UNIT         API CODE   Curve Description
#---------- ----------------  -----------------
DEPTH.FT                   :  DEPTH
GR   .GAPI                 :  Gamma Ray
RT   .OHMM                 :  SEDP
RHOB .G/C3                 :  Bulk Density
NPHI .V/V                  :  Neutron porosity
~Parameter Information Block
#MNEM.UNIT            Value   Description
#---------- ----------------  -----------
PROJECT.            SANTAN_FE:  
~Other Information Block
# 
~A       DEPTH             GR             RT           RHOB           NPHI 
# ...
       6926.50        94.3700         1.1500         2.2800       0.452300
       6927.00        87.2290         1.1300         2.2850       0.465900
       6927.50        95.9000         1.1200         2.2750       0.458500
       6928.00        89.3200         1.1300         2.2599       0.435700
       6928.50        92.6400         1.1100         2.2398       0.423000
       6929.00        94.2700         1.1000         2.2300       0.430700
       6929.50        90.7500         1.1000         2.2403       0.432100
       6930.00        87.4200         1.0900         2.2500       0.424300
       6930.50        87.3500         1.0800         2.2448       0.409500
       6931.00        96.6800         1.0600         2.2348       0.370200
       6931.50       104.4700         1.0300         2.2300       0.318500
       6932.00       109.4200         1.0200         2.2352       0.297100
       6932.50        99.7100         1.0000         2.2452       0.305000
       6933.00        98.1100         1.0500         2.2500       0.321600
       6933.50        99.3400         1.1300         2.2394       0.337400
       6934.00        96.1400         1.2300         2.2194       0.343000
       6934.50        78.5600         1.2800         2.2100       0.352200
       6935.00        66.5500         1.3100         2.2153       0.344100
       6935.50        59.7707         1.3300         2.2254       0.341900
       6936.00        70.0100         1.3400         2.2192       0.344900
       6936.50        84.3400         1.3300         2.2046       0.366600
       6937.00        76.4300         1.3300         2.1946       0.388600
       6937.50        71.3000         1.3200         2.1900       0.404900
       6938.00        68.2700         1.3200         2.1900       0.415700
       6938.50        68.7900         1.3200         2.1790       0.397200
       6939.00        69.6600         1.3300         2.1700       0.367800
       6939.50        66.1200         1.3300         2.1700       0.355100
       6940.00        63.3300         1.3400         2.1700       0.367500
       6940.50        58.0400         1.3600         2.1758       0.375700
       6941.00        56.6215         1.3800         2.1866       0.358900
       6941.50        58.9600         1.4000         2.1975       0.348300
       6942.00        64.0200         1.3900         2.2000       0.356200
       6942.50        64.3900         1.3500         2.2093       0.351600
       6943.00        62.9100         1.3000         2.2098       0.348200
       6943.50        61.9700         1.2500         2.1989       0.352300
       6944.00        69.3100         1.2400         2.1900       0.365700
       6944.50        71.9900         1.2600         2.1871       0.371800
       6945.00        79.9800         1.3800         2.1800       0.362700
       6945.50        77.2700         1.6000         2.2086       0.352900
       6946.00        70.9800         2.1400         2.2798       0.310100
       6946.50        60.5700         3.0100         2.4550       0.238100
       6947.00        45.1500         3.5500         2.6125       0.174100
       6947.50        35.8500         3.7600         2.6568       0.149700
       6948.00        35.7700         3.7800         2.6511       0.147500
       6948.50        39.6500         3.6800         2.6411       0.161500
       6949.00        47.7600         3.3700         2.6310       0.176700
       6949.50        53.9024         2.8700         2.5849       0.199400
       6950.00        56.1900         2.4500         2.5166       0.232400
       6950.50        60.6900         1.7900         2.4190       0.285000
       6951.00        73.3600         1.4300         2.2912       0.351200
       6951.50        80.0100         1.3700         2.1882       0.384500
       6952.00        73.0600         1.4400         2.1431       0.386800
       6952.50        71.2700         1.5300         2.1400       0.364700
       6953.00        70.7700         1.5500         2.1400       0.360500
       6953.50        55.7500         1.5300         2.1307       0.376200
       6954.00        49.7100         1.4800         2.1582       0.371900
       6954.50        54.1000         1.4000         2.1789       0.366200
       6955.00        56.7273         1.3500         2.1800       0.355300
       6955.50        59.9600         1.3400         2.1990       0.361000
       6956.00        65.4200         1.3600         2.2096       0.369100
       6956.50        65.2400         1.4100         2.2292       0.362400
       6957.00        61.8300         1.4600         2.2204       0.361700
       6957.50        61.6000         1.5000         2.2297       0.336300
       6958.00        57.7980         1.5600         2.2689       0.297500
       6958.50        55.8300         1.5900         2.3189       0.274600
       6959.00        54.3700         1.5100         2.3004       0.284900
       6959.50        57.7600         1.4800         2.2704       0.304000
       6960.00        59.5600         1.4800         2.2205       0.318700
       6960.50        59.3500         1.4900         2.1902       0.320800
       6961.00        58.2600         1.5000         2.1601       0.317900
       6961.50        51.7300         1.5100         2.1800       0.306900
       6962.00        47.9500         1.5100         2.1999       0.291900
       6962.50        53.7400         1.5100         2.1799       0.282600
       6963.00        60.0900         1.5100         2.1699       0.290800
       6963.50        56.8833         1.5100         2.1600       0.292500
       6964.00        52.8800         1.5000         2.1598       0.321400
       6964.50        62.3900         1.4900         2.1500       0.335700
       6965.00        61.4200         1.4900         2.1500       0.364900
       6965.50        56.2600         1.5000         2.1507       0.351000
       6966.00        55.1800         1.5100         2.1696       0.345300
       6966.50        45.7600         1.5100         2.1591       0.340200
       6967.00        53.9500         1.5000         2.1395       0.333000
       6967.50        56.8100         1.5000         2.1300       0.334000
       6968.00        57.7000         1.4900         2.1300       0.349000
       6968.50        63.4300         1.4800         2.1306       0.359800
       6969.00        72.7900         1.4700         2.1406       0.355900
       6969.50        75.9500         1.4700         2.1514       0.349500
       6970.00        61.3700         1.4400         2.1714       0.357100
       6970.50        60.5200         1.4100         2.1923       0.360200
       6971.00        62.2200         1.3700         2.2216       0.359200
       6971.50        65.1500         1.3100         2.2408       0.346300
       6972.00        74.0828         1.2900         2.2500       0.326400
       6972.50        76.7600         1.2700         2.2500       0.325000
       6973.00        76.4600         1.2300         2.2510       0.333000
       6973.50        97.6000         1.2000         2.2600       0.347000
       6974.00       100.5000         1.1900         2.2611       0.368400
       6974.50        92.0800         1.2100         2.2700       0.372300
       6975.00        89.1900         1.2000         2.2711       0.348400
       6975.50        86.7700         1.1800         2.2776       0.347500
       6976.00        86.1600         1.1600         2.2600       0.354400
       6976.50        84.6900         1.1700         2.2587       0.356600
       6977.00        83.9400         1.1800         2.2500       0.360400
       6977.50        80.8932         1.1800         2.2487       0.382400
       6978.00        71.7300         1.1700         2.2372       0.401200
       6978.50        67.6900         1.1700         2.2186       0.412200
       6979.00        76.0000         1.1600         2.2100       0.408400
       6979.50        82.3300         1.1400         2.2115       0.396100
