~Version Information Block
VERS .                  2.0:  CWLS LOG ASCII STANDARD - VERSION 2.0
WRAP .                   NO:  One line per depth step
~Well Information Block
#MNEM.UNIT        Data Type   Information
#---------- ----------------  -----------
STRT .FT             780.00:  START DEPTH
STOP .FT            8996.00:  STOP DEPTH
STEP .FT               0.50:  STEP
NULL .              -999.25:  NULL VALUE
COMP .                     :  COMPANY
WELL .                STA-4:  WELL
FLD  .                     :  FIELD
LOC  .                     :  LOCATION
CTRY .                     :  COUNTRY
STAT .                     :  STATE
CNTY .                     :  COUNTY
SRVC .                     :  SERVICE COMPANY
DATE .                     :  DATE
API  .                     :  API NUMBER
UWI  .                     :  UNIQUE WELL ID
~Curve Information Block
#MNEM.UNIT         API CODE   Curve Description
#---------- ----------------  -----------------
DEPTH.FT                   :  DEPTH
GR   .GAPI                 :  Gamma Ray
RT   .OHMM                 :  SEDP
RHOB .G/C3                 :  Bulk Density
NPHI .V/V                  :  Neutron porosity
~Parameter Information Block
#MNEM.UNIT            Value   Description
#---------- ----------------  -----------
PROJECT.            SANTAN_FE:  
~Other Information Block
# 
~A       DEPTH             GR             RT           RHOB           NPHI 
# ...
       1850.00        67.5500         1.3500         2.0600       0.451400
       1850.50        66.0200         1.3600         2.0500       0.456700
       1851.00        65.6600         1.4100         2.0300       0.457900
       1851.50        64.2400         1.4200         2.0300       0.458600
       1852.00        57.7500         1.4500         2.0400       0.459800
       1852.50        51.2700         1.5300         2.0500       0.460400
       1853.00        60.5700         1.6200         2.0500       0.460900
       1853.50        62.0100         1.5300         2.0600       0.463200
       1854.00        64.6100         1.4800         2.0600       0.468100
       1854.50        70.3200         1.4700         2.0600       0.471700
       1855.00        68.4600         1.4600         2.0700       0.475300
       1855.50        74.7800         1.4300         2.0700       0.487800
       1856.00        82.5400         1.4300         2.0800       0.500400
       1856.50        77.4300         1.4400         2.0900       0.507700
       1857.00        74.9200         1.4500         2.0900       0.505700
       1857.50        71.6900         1.4600         2.0900       0.508100
       1858.00        71.0000         1.4700         2.0900       0.508000
       1858.50        69.8000         1.4700         2.0900       0.499800
       1859.00        68.2000         1.5200         2.0900       0.495200
       1859.50        68.3000         1.6000         2.0900       0.491200
       1860.00        72.0100         1.5600         2.0900       0.488400
       1860.50        72.1900         1.5100         2.0900       0.492600
       1861.00        66.3600         1.4800         2.0900       0.511700
       1861.50        76.3800         1.5100         2.0900       0.530900
       1862.00        78.5000         1.5600         2.0900       0.539800
       1862.50        78.5500         1.6500         2.0900       0.543300
       1863.00        82.4800         1.5900         2.0900       0.546900
       1863.50        83.3900         1.5500         2.0800       0.550400
       1864.00        76.2200         1.6100         2.0800       0.553000
       1864.50        69.0800         1.6900         2.0800       0.557800
       1865.00        71.0200         1.7500         2.0800       0.563900
       1865.50        77.9900         1.5900         2.0700       0.558900
       1866.00        78.9600         1.5400         2.0700       0.538500
       1866.50        78.2100         1.6200         2.0800       0.524500
       1867.00        74.0200         1.7800         2.0900       0.523800
       1867.50        76.4400         1.6500         2.0900       0.523500
       1868.00        80.1200         1.5700         2.0900       0.516300
       1868.50        90.5200         1.5900         2.0900       0.501600
       1869.00        83.7800         1.7100         2.0900       0.494000
       1869.50        70.5500         1.7800         2.1000       0.495100
       1870.00        82.3800         1.7300         2.1100       0.498300
       1870.50        85.0100         1.9400         2.1100       0.506800
       1871.00        86.7600         2.0300         2.1100       0.509100
       1871.50        90.4500         2.0200         2.1100       0.510400
       1872.00        93.7100         1.9300         2.1200       0.508100
       1872.50        91.2800         1.6400         2.1200       0.506000
       1873.00        90.6400         1.5800         2.1200       0.507500
       1873.50        88.5800         1.5500         2.1200       0.508200
       1874.00        85.1400         1.5400         2.1100       0.505300
       1874.50        81.6300         1.5100         2.1100       0.500500
       1875.00        84.0600         1.5300         2.1000       0.491100
       1875.50        83.8700         1.6200         2.1000       0.458900
       1876.00        84.8200         1.7000         2.0900       0.432300
       1876.50        86.2800         1.5500         2.0900       0.439700
       1877.00        75.8500         1.4700         2.0900       0.452100
       1877.50        71.8000         1.4500         2.0800       0.475900
       1878.00        79.6400         1.4300         2.0800       0.489500
       1878.50        86.0900         1.4000         2.0700       0.504100
       1879.00        85.0800         1.3800         2.0600       0.513200
       1879.50        84.7100         1.3700         2.0600       0.522600
       1880.00        79.6400         1.3700         2.0500       0.530000
       1880.50        79.0900         1.3600         2.0500       0.540300
       1881.00        71.3800         1.3400         2.0500       0.546300
       1881.50        75.8500         1.3300         2.0400       0.552200
       1882.00        79.7300         1.3300         2.0400       0.561000
       1882.50        87.5700         1.3300         2.0300       0.564900
       1883.00        84.5100         1.3300         2.0300       0.567900
       1883.50        72.4500         1.3300         2.0300       0.570000
       1884.00        88.1600         1.3400         2.0300       0.569800
       1884.50        95.6900         1.3800         2.0300       0.563700
       1885.00        94.2100         1.3700         2.0500       0.565200
       1885.50        86.0100         1.3500         2.0600       0.574300
       1886.00        76.1000         1.3500         2.0600       0.592000
       1886.50        99.0900         1.3700         2.0700       0.598900
       1887.00        99.0800         1.3900         2.0700       0.603800
       1887.50        86.0100         1.4300         2.0700       0.603000
       1888.00        71.4100         1.4700         2.0800       0.596500
       1888.50        73.9300         1.5300         2.0800       0.582800
       1889.00        71.0100         1.5900         2.0800       0.569500
       1889.50        67.6700         1.6500         2.0800       0.539500
       1890.00        65.5900         1.6900         2.0800       0.511300
       1890.50        60.4800         1.7200         2.0700       0.502300
       1891.00        61.2900         1.7200         2.0700       0.503400
       1891.50        59.9100         1.7100         2.0600       0.513200
       1892.00        54.5300         1.7000         2.0600       0.516400
       1892.50        47.0600         1.7000         2.0600       0.511900
       1893.00        44.5400         1.6900         2.0500       0.528400
       1893.50        45.3900         1.6700         2.0400       0.545400
       1894.00        44.5400         1.6700         2.0300       0.548100
       1894.50        42.9800         1.6900         2.0200       0.543900
       1895.00        41.0100         1.6900         2.0200       0.563100
       1895.50        40.3200         1.7500         2.0200       0.581800
       1896.00        41.8700         1.8900         2.0300       0.586400
       1896.50        39.3400         2.1600         2.0500       0.586500
       1897.00        41.0200         2.2200         2.0800       0.589600
       1897.50        47.6700         2.1400         2.0900       0.583900
       1898.00        51.2700         2.0300         2.1100       0.566400
       1898.50        53.7800         1.9400         2.1200       0.530600
       1899.00        67.2200         1.8600         2.1800       0.509800
       1899.50        74.8300         1.7800         2.2300       0.486500
       1900.00        75.7400         1.7300         2.2400       0.467500
       1900.50        75.2000         1.7000         2.2400       0.459000
       1901.00        78.7100         1.6700         2.2500       0.460800
       1901.50        77.5800         1.6400         2.2200       0.481700
       1902.00        76.7900         1.6200         2.2000       0.503600
       1902.50        78.9000         1.5900         2.1700       0.507600
       1903.00        83.0800         1.5600         2.1600       0.508500
