~Version Information Block
VERS .                  2.0:  CWLS LOG ASCII STANDARD - VERSION 2.0
WRAP .                   NO:  One line per depth step
~Well Information Block
#MNEM.UNIT        Data Type   Information
#---------- ----------------  -----------
STRT .FT            5224.50:  START DEPTH
STOP .FT           13237.50:  STOP DEPTH
STEP .FT               0.50:  STEP
NULL .              -999.25:  NULL VALUE
COMP .                     :  COMPANY
WELL .               STA-32:  WELL
FLD  .                     :  FIELD
LOC  .                     :  LOCATION
CTRY .                     :  COUNTRY
STAT .                     :  STATE
CNTY .                     :  COUNTY
SRVC .                     :  SERVICE COMPANY
DATE .                     :  DATE
API  .                     :  API NUMBER
UWI  .                     :  UNIQUE WELL ID
~Curve Information Block
#MNEM.UNIT         API CODE   Curve Description
#---------- ----------------  -----------------
DEPTH.FT                   :  Depth
GR   .GAPI                 :  Gamma Ray
RT   .OHMM                 :  True Resistivity
RHOB .G/C3                 :  Bulk Density
NPHI .V/V                  :  Neutron Porosity
~Parameter Information Block
#MNEM.UNIT            Value   Description
#---------- ----------------  -----------
PROJECT.            SANTAN_FE:  
~Other Information Block
# 
~A       DEPTH             GR             RT           RHOB           NPHI 
# ...
      13142.50        60.5062         4.8322         2.5594       0.122200
      13143.00        60.1125         4.8439         2.5549       0.121900
      13143.50        61.1298         4.8767         2.5465       0.120900
      13144.00        65.9324         4.8732         2.5427       0.118800
      13144.50        63.3658         4.8576         2.5576       0.116500
      13145.00        64.0593         4.8789         2.5762       0.114400
      13145.50        62.6688         4.8881         2.5867       0.113500
      13146.00        63.4392         4.8917         2.5933       0.115300
      13146.50        67.8947         4.7768         2.5935       0.119900
      13147.00        69.6389         4.6598         2.5926       0.125500
      13147.50        70.0901         4.5386         2.6064       0.131500
      13148.00        75.1021         4.2849         2.6282       0.137400
      13148.50        78.7581         4.1318         2.6339       0.143300
      13149.00        79.3240         4.1217         2.6269       0.146700
      13149.50        81.0719         3.8733         2.6240       0.144900
      13150.00        83.2895         3.8096         2.6273       0.142100
      13150.50        82.1609         3.8999         2.6315       0.143300
      13151.00        81.5093         3.9122         2.6226       0.147000
      13151.50        83.3608         3.8961         2.6081       0.150300
      13152.00        82.8660         3.8296         2.6005       0.150800
      13152.50        83.6851         3.7904         2.6023       0.148600
      13153.00        86.9125         3.8096         2.6075       0.149900
      13153.50        85.1511         3.8484         2.6097       0.152600
      13154.00        85.3466         3.7773         2.6108       0.150400
      13154.50        84.7580         3.7786         2.6146       0.146300
      13155.00        82.1634         3.9323         2.6186       0.145200
      13155.50        84.4657         3.9936         2.6196       0.142700
      13156.00        81.5826         4.0808         2.6223       0.137700
      13156.50        81.2213         4.1883         2.6265       0.133800
      13157.00        78.0677         4.2929         2.6288       0.132500
      13157.50        80.0120         4.3755         2.6276       0.132200
      13158.00        79.3522         4.4730         2.6240       0.129400
      13158.50        79.0670         4.5304         2.6195       0.124600
      13159.00        74.4271         4.5985         2.6151       0.122400
      13159.50        71.3984         4.6102         2.6090       0.129300
      13160.00        76.0545         4.5548         2.6007       0.138600
      13160.50        81.3107         4.4480         2.5976       0.145000
      13161.00        81.8431         4.3986         2.6054       0.149300
      13161.50        83.8196         4.3615         2.6066       0.150100
      13162.00        86.0085         4.2323         2.5968       0.143800
      13162.50        82.8966         4.2338         2.5979       0.134800
      13163.00        79.8503         4.3691         2.6068       0.129000
      13163.50        78.6491         4.4127         2.6022       0.126800
      13164.00        79.7784         4.4501         2.5944       0.127600
      13164.50        78.1643         4.4683         2.5964       0.130500
      13165.00        79.4403         4.4676         2.5993       0.133200
      13165.50        78.4768         4.4563         2.6009       0.134700
      13166.00        77.3059         4.5034         2.6005       0.135400
      13166.50        79.5915         4.5273         2.5982       0.136100
      13167.00        80.3936         4.5534         2.6013       0.136700
      13167.50        80.8827         4.4673         2.6055       0.137000
      13168.00        81.0310         4.4289         2.6114       0.139600
      13168.50        80.8004         4.3760         2.6203       0.145600
      13169.00        84.2836         4.2643         2.6207       0.151400
      13169.50        85.5654         4.1846         2.6147       0.154200
      13170.00        91.1800         4.0401         2.6116       0.153200
      13170.50        86.3517         4.0567         2.6139       0.150500
      13171.00        87.1721         4.0237         2.6121       0.149000
      13171.50        87.3369         4.0357         2.6038       0.147600
      13172.00        83.7850         4.0971         2.5949       0.146700
      13172.50        84.8564         4.1238         2.5884       0.148500
      13173.00        84.4310         4.1353         2.5936       0.150000
      13173.50        85.1268         4.1276         2.6049       0.147700
      13174.00        86.2219         4.1211         2.6082       0.145400
      13174.50        86.6988         4.1427         2.6057       0.146600
      13175.00        87.5581         4.1400         2.6067       0.148600
      13175.50        84.4519         4.1238         2.6097       0.148600
      13176.00        84.3579         4.1396         2.6073       0.147800
      13176.50        84.0100         4.1687         2.6002       0.145100
      13177.00        84.9475         4.1786         2.6006       0.142700
      13177.50        89.2998         4.1539         2.6106       0.143200
      13178.00        87.4973         4.1190         2.6210       0.142700
      13178.50        86.7321         4.0876         2.6260       0.140700
      13179.00        85.0200         4.0628         2.6272       0.140700
      13179.50        85.2420         4.0009         2.6299       0.144400
      13180.00        86.7189         3.9214         2.6362       0.150900
      13180.50        88.2086         3.9067         2.6396       0.155400
      13181.00        87.1455         3.8977         2.6290       0.155400
      13181.50        87.6308         3.9655         2.6160       0.154200
      13182.00        88.4787         3.9637         2.6177       0.152600
      13182.50        88.5890         4.0392         2.6271       0.149100
      13183.00        90.5900         4.2477         2.6325       0.145500
      13183.50        90.1601         4.3928         2.6294       0.142100
      13184.00        91.4617         4.6762         2.6187       0.132900
      13184.50        85.3139         5.2826         2.6134       0.116900
      13185.00        77.1824         5.8422         2.6215       0.102600
      13185.50        69.5103         6.2113         2.6284       0.097700
      13186.00        70.6225         6.3168         2.6271       0.100300
      13186.50        71.3536         6.1477         2.6245       0.105700
      13187.00        73.5938         5.9279         2.6182       0.111400
      13187.50        73.4298         5.7358         2.6143       0.118300
      13188.00        78.9653         5.4982         2.6208       0.126000
      13188.50        84.0899         5.3545         2.6271       0.128600
      13189.00        83.0212         5.3195         2.6263       0.124200
      13189.50        82.2169         5.3103         2.6220       0.117600
      13190.00        76.5386         5.4167         2.6178       0.113900
      13190.50        71.5815         5.6145         2.6139       0.116200
      13191.00        65.4447         5.5516         2.6015       0.121900
      13191.50        69.6391         5.3486         2.5892       0.125700
      13192.00        73.1624         5.0967         2.6004    -999.250000
      13192.50        74.5467         5.0146         2.6199    -999.250000
      13193.00        76.9969         4.8993         2.6195    -999.250000
      13193.50        79.0641         4.7993         2.6060    -999.250000
      13194.00        77.7852         4.7454         2.5978    -999.250000
      13194.50        80.1877         4.6685         2.6061    -999.250000
      13195.00        82.5982         4.6166         2.6246    -999.250000
      13195.50        82.6585         4.5931         2.6302    -999.250000
