~Version Information Block
VERS .                  2.0:  CWLS LOG ASCII STANDARD - VERSION 2.0
WRAP .                   NO:  One line per depth step
~Well Information Block
#MNEM.UNIT        Data Type   Information
#---------- ----------------  -----------
STRT .FT             780.00:  START DEPTH
STOP .FT            8996.00:  STOP DEPTH
STEP .FT               0.50:  STEP
NULL .              -999.25:  NULL VALUE
COMP .                     :  COMPANY
WELL .                STA-4:  WELL
FLD  .                     :  FIELD
LOC  .                     :  LOCATION
CTRY .                     :  COUNTRY
STAT .                     :  STATE
CNTY .                     :  COUNTY
SRVC .                     :  SERVICE COMPANY
DATE .                     :  DATE
API  .                     :  API NUMBER
UWI  .                     :  UNIQUE WELL ID
~Curve Information Block
#MNEM.UNIT         API CODE   Curve Description
#---------- ----------------  -----------------
DEPTH.FT                   :  DEPTH
GR   .GAPI                 :  Gamma Ray
RT   .OHMM                 :  SEDP
RHOB .G/C3                 :  Bulk Density
NPHI .V/V                  :  Neutron porosity
~Parameter Information Block
#MNEM.UNIT            Value   Description
#---------- ----------------  -----------
PROJECT.            SANTAN_FE:  
~Other Information Block
# 
~A       DEPTH             GR             RT           RHOB           NPHI 
# ...
       6183.50        71.3900         3.3200         2.3748       0.392100
       6184.00        70.4300         3.5400         2.3948       0.366900
       6184.50        65.4800         3.5300         2.4148       0.339200
       6185.00        60.8200         3.5300         2.4348       0.323200
       6185.50        67.2200         3.5700         2.4326       0.318000
       6186.00        65.3500         3.5800         2.4226       0.320100
       6186.50        59.9800         3.5400         2.4126       0.321800
       6187.00        53.4500         3.5800         2.3952       0.328900
       6187.50        54.4100         3.7900         2.3900       0.325700
       6188.00        57.8500         3.8600         2.3826       0.321000
       6188.50        61.1800         3.9000         2.3800       0.318100
       6189.00        65.6800         4.0200         2.3800       0.316200
       6189.50        71.6000         4.0900         2.3726       0.310600
       6190.00        76.5400         4.0800         2.3700       0.306100
       6190.50        85.1400         3.9400         2.3626       0.305400
       6191.00        91.3700         4.0100         2.3674       0.306400
       6191.50        95.4900         4.4100         2.3848       0.306900
       6192.00        94.0000         4.4800         2.4122       0.305500
       6192.50        92.0500         4.2600         2.4348       0.296400
       6193.00        85.0300         4.4000         2.4548       0.283500
       6193.50        77.5600         4.5500         2.4748       0.274900
       6194.00        67.4100         4.4000         2.4800       0.277400
       6194.50        69.9200         4.2400         2.4800       0.295300
       6195.00        67.6300         4.1900         2.4800       0.305400
       6195.50        64.2200         4.1000         2.4874       0.303600
       6196.00        66.8400         3.9900         2.4900       0.294300
       6196.50        70.3900         3.9100         2.4826       0.287100
       6197.00        65.5500         3.9000         2.4726       0.282500
       6197.50        63.1200         3.9000         2.4479       0.282900
       6198.00        60.8000         3.9500         2.4253       0.287300
       6198.50        69.1700         4.1200         2.4200       0.301700
       6199.00        66.9100         4.3500         2.4200       0.323600
       6199.50        66.5100         4.2500         2.4200       0.338000
       6200.00        66.3000         4.1300         2.4126       0.344400
       6200.50        67.9500         4.1600         2.4174       0.337700
       6201.00        70.2700         4.3300         2.4274       0.324200
       6201.50        71.1600         4.5200         2.4595       0.305400
       6202.00        73.5400         4.7000         2.4921       0.290500
       6202.50        75.6200         4.8300         2.5147       0.286000
       6203.00        73.2300         4.9800         2.5053       0.299800
       6203.50        74.8300         5.2200         2.4706       0.307200
       6204.00        75.1800         5.6200         2.4600       0.312300
       6204.50        74.3000         6.0200         2.4747       0.326800
       6205.00        67.4200         6.5800         2.5021       0.328800
       6205.50        66.2200         7.2900         2.4806       0.341400
       6206.00        67.5700         8.3800         2.4479       0.346000
       6206.50        65.6900        10.3900         2.4915       0.331200
       6207.00        58.2700        12.4600         2.6277       0.301000
       6207.50        58.3100        11.5600         2.6332       0.280200
       6208.00        60.1400        10.9400         2.5023       0.281000
       6208.50        54.6600        11.6200         2.3865       0.286500
       6209.00        57.8700        11.9400         2.3894       0.263400
       6209.50        59.7900        11.3500         2.4661       0.228500
       6210.00        58.2500        10.3800         2.5341       0.201400
       6210.50        58.3000         9.5200         2.5280       0.193300
       6211.00        60.4900         8.8200         2.4686       0.199200
       6211.50        62.2100         8.1900         2.4647       0.218300
       6212.00        62.4300         7.5600         2.4993       0.235600
       6212.50        60.2800         7.0500         2.5173       0.256700
       6213.00        60.5100         6.5700         2.5713       0.272900
       6213.50        59.9400         6.2900         2.6413       0.279900
       6214.00        59.9200         6.4400         2.5867       0.288900
       6214.50        59.7000         5.6100         2.4720       0.317700
       6215.00        63.3900         4.9700         2.3813       0.342300
       6215.50        64.4000         4.6000         2.3527       0.353000
       6216.00        65.4300         4.2700         2.3720       0.352800
       6216.50        62.9400         3.7700         2.4020       0.352100
       6217.00        62.3300         3.4500         2.4173       0.336200
       6217.50        67.1700         3.3700         2.4346       0.316300
       6218.00        64.4600         3.3400         2.4839       0.290500
       6218.50        64.6800         3.2900         2.5220       0.270300
       6219.00        65.2100         3.2200         2.5227       0.268000
       6219.50        67.6600         3.1900         2.4907       0.281100
       6220.00        66.4100         3.1600         2.4653       0.304300
       6220.50        66.3900         3.1000         2.4454       0.323800
       6221.00        71.2600         2.9300         2.4327       0.331200
       6221.50        71.4200         2.7800         2.4300       0.330200
       6222.00        74.1000         2.6800         2.4154       0.327300
       6222.50        80.6200         2.5900         2.3954       0.329000
       6223.00        84.9400         2.5100         2.3900       0.338500
       6223.50        91.3800         2.4200         2.3900       0.350500
       6224.00       101.5500         2.3100         2.3900       0.364000
       6224.50       107.4200         2.1800         2.3681       0.380100
       6225.00       115.0400         2.0700         2.3381       0.385800
       6225.50       115.5100         2.0200         2.3154       0.383000
       6226.00       116.9500         1.9900         2.3100       0.378000
       6226.50       114.4300         1.9700         2.3173       0.379400
       6227.00       108.2600         1.9900         2.3273       0.382100
       6227.50       100.2200         2.0100         2.3519       0.374300
       6228.00        99.9500         2.0400         2.3673       0.363900
       6228.50        95.0700         2.0600         2.3627       0.360600
       6229.00        88.3800         2.0800         2.3454       0.354200
       6229.50        88.0700         2.1100         2.3254       0.332600
       6230.00        87.1800         2.1500         2.3200       0.322100
       6230.50        85.5400         2.1900         2.3273       0.332500
       6231.00        80.6900         2.2100         2.3373       0.339500
       6231.50        81.3600         2.2300         2.3619       0.337700
       6232.00        83.3600         2.2500         2.3846       0.332800
       6232.50        84.1300         2.2700         2.3900       0.329100
       6233.00        83.2100         2.3000         2.3827       0.329700
       6233.50        86.7700         2.3100         2.3800       0.325400
       6234.00        92.1600         2.3300         2.3873       0.312200
       6234.50        87.3100         2.3600         2.4046       0.305600
       6235.00        89.0500         2.3700         2.4246       0.302200
       6235.50        80.3800         2.3800         2.4227       0.301600
       6236.00        79.7000         2.4200         2.4054       0.302400
       6236.50        81.6700         2.4500         2.3927       0.305800
