~Version Information Block
VERS .                  2.0:  CWLS LOG ASCII STANDARD - VERSION 2.0
WRAP .                   NO:  One line per depth step
~Well Information Block
#MNEM.UNIT        Data Type   Information
#---------- ----------------  -----------
STRT .FT            6415.50:  START DEPTH
STOP .FT           16132.50:  STOP DEPTH
STEP .FT               0.50:  STEP
NULL .              -999.25:  NULL VALUE
COMP .                     :  COMPANY
WELL .               STA-33:  WELL
FLD  .                     :  FIELD
LOC  .                     :  LOCATION
CTRY .                     :  COUNTRY
STAT .                     :  STATE
CNTY .                     :  COUNTY
SRVC .                     :  SERVICE COMPANY
DATE .                     :  DATE
API  .                     :  API NUMBER
UWI  .                     :  UNIQUE WELL ID
~Curve Information Block
#MNEM.UNIT         API CODE   Curve Description
#---------- ----------------  -----------------
DEPTH.FT                   :  Depth
GR   .GAPI                 :  Gamma Ray
RT   .OHMM                 :  True Resistivity
RHOB .G/C3                 :  Bulk Density
NPHI .V/V                  :  Neutron Porosity
~Parameter Information Block
#MNEM.UNIT            Value   Description
#---------- ----------------  -----------
PROJECT.            SANTAN_FE:  
~Other Information Block
# 
~A       DEPTH             GR             RT           RHOB           NPHI 
# ...
      14761.50        38.2329         6.6017         2.4512       0.119000
      14762.00        32.2631         7.0493         2.3817       0.114600
      14762.50        32.8414         7.1214         2.3295       0.122600
      14763.00        39.4983         6.4360         2.3232       0.139300
      14763.50        53.6851         5.8125         2.3726       0.153100
      14764.00        69.6011         4.8539         2.4539       0.156800
      14764.50        76.8887         3.8697         2.5284       0.154600
      14765.00        74.6187         3.9788         2.5750       0.153700
      14765.50        72.3255         4.0255         2.5906       0.152300
      14766.00        70.3352         3.8431         2.5860       0.147000
      14766.50        65.5015         4.2001         2.5695       0.139100
      14767.00        55.7129         4.7661         2.5448       0.129100
      14767.50        49.9362         5.4196         2.5098       0.119000
      14768.00        39.6018         6.4485         2.4557       0.113600
      14768.50        40.2903         6.7427         2.4005       0.112900
      14769.00        37.2733         6.6853         2.3753       0.114200
      14769.50        39.7536         6.7080         2.3719       0.116900
      14770.00        44.3401         6.6582         2.3768       0.119700
      14770.50        49.5100         6.6238         2.3905       0.121100
      14771.00        50.3269         6.5232         2.3907       0.120800
      14771.50        45.6848         6.4764         2.3707       0.120200
      14772.00        42.8596         6.3359         2.3550       0.121700
      14772.50        42.0503         6.0424         2.3646       0.123800
      14773.00        46.3241         5.4387         2.3983       0.127300
      14773.50        49.5711         5.0425         2.4363       0.134200
      14774.00        53.8024         4.8544         2.4753       0.142100
      14774.50        65.0294         4.4959         2.5212       0.146900
      14775.00        73.0711         4.2401         2.5600       0.147700
      14775.50        75.6399         3.8983         2.5753       0.147100
      14776.00        69.6594         4.0485         2.5594       0.146400
      14776.50        64.8433         4.1225         2.5225       0.141700
      14777.00        60.6226         4.3667         2.4916       0.134300
      14777.50        53.1533         4.6132         2.4754       0.131700
      14778.00        51.0054         4.3063         2.4739       0.135700
      14778.50        53.3545         4.2608         2.4915       0.138800
      14779.00        60.8947         4.3254         2.5164       0.135700
      14779.50        61.8691         4.5733         2.5367       0.131800
      14780.00        55.7390         4.9265         2.5367       0.133500
      14780.50        45.7038         5.1343         2.5010       0.138900
      14781.00        40.8370         5.1742         2.4485       0.142200
      14781.50        41.5519         5.2206         2.4126       0.142100
      14782.00        42.2698         5.2919         2.4042       0.140700
      14782.50        45.6360         5.3929         2.4137       0.137600
      14783.00        43.2221         5.4420         2.4323       0.133300
      14783.50        40.4864         5.4913         2.4482       0.132000
      14784.00        38.5842         5.5615         2.4445       0.135500
      14784.50        38.3928         5.5602         2.4217       0.139500
      14785.00        41.1804         5.4053         2.4088       0.139100
      14785.50        43.1954         5.0125         2.4181       0.136200
      14786.00        43.6921         4.7554         2.4289       0.136000
      14786.50        44.9724         4.5137         2.4348       0.138600
      14787.00        47.6974         4.3057         2.4406       0.141200
      14787.50        45.2337         4.1543         2.4436       0.142500
      14788.00        47.3283         4.0290         2.4459       0.142700
      14788.50        48.9534         3.9396         2.4543       0.143000
      14789.00        48.1164         3.8929         2.4625       0.143900
      14789.50        49.3291         3.8361         2.4599       0.144800
      14790.00        53.6777         3.8454         2.4602       0.144900
      14790.50        58.7406         3.8505         2.4829       0.143400
      14791.00        61.7361         3.8628         2.5157       0.141600
      14791.50        63.4525         3.8733         2.5344       0.139900
      14792.00        61.1706         3.8467         2.5281       0.139800
      14792.50        53.8308         3.7857         2.5001       0.140900
      14793.00        49.6030         3.8014         2.4783       0.137300
      14793.50        52.3589         3.9067         2.4889       0.131000
      14794.00        54.1014         4.0835         2.5176       0.131100
      14794.50        60.3568         3.9145         2.5336       0.139200
      14795.00        62.1445         3.6229         2.5263       0.149700
      14795.50        71.1535         3.4932         2.5167       0.160900
      14796.00        78.3530         3.3813         2.5276       0.169500
      14796.50        80.1007         3.2381         2.5564       0.169700
      14797.00        76.9269         3.2471         2.5799       0.168000
      14797.50        81.4815         3.3050         2.5827       0.172300
      14798.00        85.8811         3.0607         2.5767       0.183300
      14798.50        91.4149         2.9625         2.5822       0.194500
      14799.00        93.6106         3.0182         2.5943       0.197600
      14799.50        89.6635         3.1858         2.5937       0.187600
      14800.00        78.6694         3.6052         2.5776       0.167100
      14800.50        60.1523         4.0138         2.5469       0.148500
      14801.00        49.4798         4.1705         2.4980       0.141400
      14801.50        48.3388         4.2579         2.4517       0.141400
      14802.00        48.7326         4.2988         2.4445       0.142800
      14802.50        51.6084         4.3477         2.4633       0.144100
      14803.00        52.2692         4.3889         2.4798       0.143500
      14803.50        55.8434         4.4086         2.4886       0.140300
      14804.00        60.5753         4.4246         2.4923       0.135600
      14804.50        64.1770         4.4275         2.5030       0.132400
      14805.00        62.8187         4.4203         2.5220       0.132800
      14805.50        57.8220         4.3860         2.5237       0.136700
      14806.00        55.2034         4.2037         2.5057       0.141700
      14806.50        58.2096         4.1779         2.4892       0.147500
      14807.00        65.3096         4.0700         2.4855       0.157100
      14807.50        76.6149         3.8141         2.5043       0.170800
      14808.00        85.4466         3.6114         2.5412       0.182000
      14808.50        93.2268         3.4661         2.5700       0.181100
      14809.00        92.0677         3.3447         2.5844       0.166900
      14809.50        85.1964         3.3702         2.5832       0.148000
      14810.00        80.9077         3.6777         2.5643       0.132700
      14810.50        70.2108         3.8510         2.5537       0.125200
      14811.00        58.6502         4.0284         2.5559       0.124500
      14811.50        54.5334         4.1564         2.5459       0.128300
      14812.00        57.9056         4.1523         2.5329       0.134300
      14812.50        58.6241         4.1397         2.5332       0.139500
      14813.00        59.6727         4.1130         2.5361       0.141900
      14813.50        61.1682         4.0721         2.5386       0.142700
      14814.00        62.2037         4.0430         2.5482       0.142100
      14814.50        62.5562         4.0028         2.5602       0.141000
