~Version Information Block
VERS .                  2.0:  CWLS LOG ASCII STANDARD - VERSION 2.0
WRAP .                   NO:  One line per depth step
~Well Information Block
#MNEM.UNIT        Data Type   Information
#---------- ----------------  -----------
STRT .FT             750.00:  START DEPTH
STOP .FT            8283.50:  STOP DEPTH
STEP .FT               0.50:  STEP
NULL .              -999.25:  NULL VALUE
COMP .                     :  COMPANY
WELL .               STA-20:  WELL
FLD  .                     :  FIELD
LOC  .                     :  LOCATION
CTRY .                     :  COUNTRY
STAT .                     :  STATE
CNTY .                     :  COUNTY
SRVC .                     :  SERVICE COMPANY
DATE .                     :  DATE
API  .                     :  API NUMBER
UWI  .                     :  UNIQUE WELL ID
~Curve Information Block
#MNEM.UNIT         API CODE   Curve Description
#---------- ----------------  -----------------
DEPTH.FT                   :  DEPTH
GR   .GAPI                 :  Gamma Ray
RT   .OHMM                 :  RESDE
RHOB .G/C3                 :  Bulk Density
NPHI .V/V                  :  Thermal Neutron Porosity (Ratio Method) in Selected Lithology
~Parameter Information Block
#MNEM.UNIT            Value   Description
#---------- ----------------  -----------
PROJECT.            SANTAN_FE:  
~Other Information Block
# 
~A       DEPTH             GR             RT           RHOB           NPHI 
# ...
       2729.50        78.1150         1.1750         2.1898       0.399600
       2730.00        80.0625         1.1325         2.1875       0.397300
       2730.50        80.8350         1.0950         2.1881       0.389900
       2731.00        80.4625         1.0810         2.1948       0.386400
       2731.50        78.1150         1.0968         2.2018       0.421700
       2732.00        74.0800         1.1429         2.2025       0.463400
       2732.50        69.9625         1.1917         2.2025       0.469500
       2733.00        67.0475         1.2239         2.2025       0.493800
       2733.50        66.2475         1.2327         2.1994       0.488000
       2734.00        67.0775         1.2118         2.1912       0.482000
       2734.50        69.7650         1.1645         2.1793       0.482100
       2735.00        72.6800         1.1175         2.1678       0.447500
       2735.50        73.0500         1.0996         2.1634       0.446200
       2736.00        69.8750         1.1439         2.1676       0.451000
       2736.50        63.4125         1.2165         2.1778       0.454400
       2737.00        57.0925         1.2790         2.1861       0.451700
       2737.50        53.4325         1.3214         2.1875       0.445500
       2738.00        52.7750         1.3269         2.1825       0.443800
       2738.50        54.0600         1.2912         2.1734       0.444900
       2739.00        57.7775         1.2394         2.1650       0.445000
       2739.50        63.2000         1.2003         2.1650       0.445000
       2740.00        69.6075         1.1629         2.1750       0.446300
       2740.50        75.3125         1.1091         2.1790       0.456400
       2741.00        78.1725         1.0676         2.1733       0.473900
       2741.50        79.4325         1.0349         2.1576       0.491400
       2742.00        80.1475         0.9955         2.1361       0.500700
       2742.50        82.2625         0.9938         2.1238       0.496500
       2743.00        83.6925         1.0172         2.1225       0.482200
       2743.50        84.2075         1.0059         2.1290       0.472700
       2744.00        83.4650         0.9514         2.1394       0.478700
       2744.50        83.6350         0.9076         2.1476       0.505800
       2745.00        83.5750         0.9082         2.1561       0.517800
       2745.50        83.9200         0.9297         2.1696       0.507000
       2746.00        83.2325         0.9552         2.1806       0.486700
       2746.50        82.4325         0.9851         2.1817       0.475800
       2747.00        82.8050         1.0193         2.1790       0.475600
       2747.50        85.1250         1.0494         2.1775       0.475900
       2748.00        88.9300         1.0343         2.1802       0.469700
       2748.50        92.0575         1.0275         2.1810       0.460500
       2749.00        92.2050         1.0256         2.1770       0.457500
       2749.50        87.3025         1.0623         2.1711       0.471100
       2750.00        80.9750         1.1143         2.1597       0.495500
       2750.50        77.0325         1.1709         2.1337       0.522700
       2751.00        75.0400         1.1799         2.0860       0.547300
       2751.50        72.1525         1.1706         2.0294       0.561000
       2752.00        68.2775         1.1467         1.9922       0.559500
       2752.50        67.2475         1.1148         1.9875       0.546400
       2753.00        68.4500         1.0952         2.0244       0.523900
       2753.50        72.1975         1.0750         2.0634       0.495900
       2754.00        74.3700         1.0396         2.0887       0.485100
       2754.50        73.7125         1.0490         2.0950       0.487800
       2755.00        70.5375         1.1178         2.0762       0.522500
       2755.50        67.7625         1.1891         2.0458       0.557700
       2756.00        65.9325         1.2389         2.0350       0.616500
       2756.50        65.4750         1.2741         2.0353       0.630900
       2757.00        65.5300         1.2903         2.0421       0.591100
       2757.50        65.6425         1.2967         2.0370       0.535400
       2758.00        65.1850         1.3292         2.0304       0.515500
       2758.50        65.6425         1.3393         2.0166       0.531600
       2759.00        67.4175         1.3551         2.0104       0.562300
       2759.50        70.2500         1.3161         2.0001       0.574400
       2760.00        70.7950         1.2968         1.9843       0.575700
       2760.50        69.5350         1.3150         1.9548       0.585500
       2761.00        68.5050         1.4073         1.9384       0.601500
       2761.50        69.0475         1.4787         1.9530       0.595800
       2762.00        71.7350         1.4896         1.9919       0.574300
       2762.50        73.6500         1.4345         2.0304       0.553300
       2763.00        74.1925         1.4113         2.0478       0.544600
       2763.50        73.3075         1.3582         2.0406       0.542600
       2764.00        71.4225         1.3740         2.0163       0.536700
       2764.50        69.6475         1.3462         1.9965       0.524200
       2765.00        69.7900         1.3087         1.9963       0.515000
       2765.50        72.3800         1.2098         2.0157       0.505400
       2766.00        75.5125         1.1681         2.0465       0.487400
       2766.50        77.2425         1.2023         2.0736       0.460700
       2767.00        77.5575         1.2150         2.0885       0.453000
       2767.50        77.1775         1.2142         2.0967       0.466000
       2768.00        77.1200         1.1559         2.1000       0.481500
       2768.50        77.1975         1.0795         2.0964       0.490000
       2769.00        76.7925         0.9841         2.0849       0.507000
       2769.50        74.9200         0.9623         2.0721       0.544600
       2770.00        72.5950         0.9578         2.0675       0.576500
       2770.50        73.1375         0.9622         2.0699       0.574800
       2771.00        75.4825         0.9586         2.0822       0.558100
       2771.50        78.0000         0.9769         2.0971       0.542200
       2772.00        78.2000         1.0326         2.1140       0.534700
       2772.50        78.4900         1.1131         2.1266       0.533800
       2773.00        78.4600         1.1675         2.1363       0.536100
       2773.50        78.0025         1.2111         2.1397       0.533600
       2774.00        74.5975         1.2429         2.1366       0.506300
       2774.50        66.0175         1.2841         2.1315       0.446200
       2775.00        52.9150         1.3216         2.1281       0.400900
       2775.50        39.3850         1.4031         2.1314       0.377100
       2776.00        29.9775         1.4754         2.1342       0.346400
       2776.50        25.7175         1.4637         2.1256       0.315700
       2777.00        24.6575         1.3862         2.1059       0.312500
       2777.50        24.4550         1.3298         2.0940       0.330800
       2778.00        24.9700         1.2886         2.0914       0.350100
       2778.50        26.4600         1.1788         2.0864       0.365000
       2779.00        28.4625         1.0294         2.0799       0.381700
       2779.50        28.5200         0.9579         2.0775       0.385500
       2780.00        26.6325         0.9700         2.0790       0.375100
       2780.50        22.3400         0.9803         2.0784       0.352000
       2781.00        19.0500         0.9822         2.0742       0.332700
       2781.50        18.1925         0.9642         2.0725       0.323200
       2782.00        18.0225         0.9401         2.0762       0.323100
       2782.50        18.5075         0.9232         2.0756       0.327200
