~Version Information Block
VERS .                  2.0:  CWLS LOG ASCII STANDARD - VERSION 2.0
WRAP .                   NO:  One line per depth step
~Well Information Block
#MNEM.UNIT        Data Type   Information
#---------- ----------------  -----------
STRT .FT            6091.50:  START DEPTH
STOP .FT           14295.50:  STOP DEPTH
STEP .FT               0.50:  STEP
NULL .              -999.25:  NULL VALUE
COMP .                     :  COMPANY
WELL .               STA-35:  WELL
FLD  .                     :  FIELD
LOC  .                     :  LOCATION
CTRY .                     :  COUNTRY
STAT .                     :  STATE
CNTY .                     :  COUNTY
SRVC .                     :  SERVICE COMPANY
DATE .                     :  DATE
API  .                     :  API NUMBER
UWI  .                     :  UNIQUE WELL ID
~Curve Information Block
#MNEM.UNIT         API CODE   Curve Description
#---------- ----------------  -----------------
DEPTH.FT                   :  Depth
GR   .GAPI                 :  Gamma Ray
RT   .OHMM                 :  True Resistivity
RHOB .G/C3                 :  Bulk Density
NPHI .V/V                  :  Neutron Porosity
~Parameter Information Block
#MNEM.UNIT            Value   Description
#---------- ----------------  -----------
PROJECT.            SANTAN_FE:  
~Other Information Block
# 
~A       DEPTH             GR             RT           RHOB           NPHI 
# ...
      12083.50        56.8796         3.3981         2.4959       0.153800
      12084.00        60.4218         3.4828         2.4912       0.155100
      12084.50        52.6229         3.5813         2.4898       0.153600
      12085.00        45.6978         3.6966         2.4892       0.149400
      12085.50        43.8469         3.8023         2.4951       0.142500
      12086.00        49.3756         3.9744         2.5098       0.131200
      12086.50        51.1139         4.2954         2.5384       0.118400
      12087.00        47.4107         4.6610         2.5786       0.117600
      12087.50        46.5983         4.5219         2.5896       0.133400
      12088.00        50.4365         3.9798         2.5575       0.151200
      12088.50        49.5519         3.6644         2.5144       0.158300
      12089.00        53.0965         3.5681         2.4905       0.155800
      12089.50        53.6544         3.6212         2.4878       0.153300
      12090.00        54.5680         3.6860         2.4874       0.156100
      12090.50        57.6900         3.7141         2.4867       0.159700
      12091.00        58.5839         3.7371         2.4929       0.159400
      12091.50        59.4188         3.7628         2.5011       0.158100
      12092.00        64.6420         3.7744         2.5139       0.157200
      12092.50        71.6518         3.7945         2.5303       0.151200
      12093.00        65.0393         3.8179         2.5395       0.141900
      12093.50        63.2485         3.8491         2.5430       0.137600
      12094.00        66.7418         3.8890         2.5479       0.139200
      12094.50        67.5590         3.8975         2.5550       0.143400
      12095.00        70.1277         3.8771         2.5595       0.147100
      12095.50        73.9607         3.8451         2.5603       0.147600
      12096.00        76.6333         3.8507         2.5608       0.145900
      12096.50        73.3471         3.9198         2.5562       0.144700
      12097.00        66.5279         3.9355         2.5379       0.143600
      12097.50        63.0904         3.8795         2.5146       0.144100
      12098.00        62.0702         3.7767         2.5018       0.148300
      12098.50        66.5513         3.6783         2.4983       0.151600
      12099.00        68.7767         3.6323         2.5094       0.152600
      12099.50        68.7717         3.6148         2.5360       0.154700
      12100.00        72.3488         3.5986         2.5552       0.156600
      12100.50        73.9231         3.5741         2.5587       0.155100
      12101.00        75.9240         3.5063         2.5677       0.151700
      12101.50        77.6164         3.4644         2.5820       0.149800
      12102.00        81.1349         3.4305         2.5860       0.152300
      12102.50        84.0837         3.3457         2.5863       0.157700
      12103.00        81.9646         3.2294         2.5935       0.161500
      12103.50        83.6358         3.2401         2.5994       0.162000
      12104.00        80.8048         3.2440         2.6002       0.163800
      12104.50        85.8880         3.2064         2.5951       0.169200
      12105.00        83.9579         3.1540         2.5818       0.175700
      12105.50        88.3528         3.0729         2.5787       0.181800
      12106.00        91.7477         2.9227         2.5950       0.188400
      12106.50        97.3717         2.7978         2.6039       0.193900
      12107.00        98.2005         2.7625         2.5956       0.194400
      12107.50        96.4097         2.7632         2.5921       0.192900
      12108.00        94.7765         2.7988         2.5973       0.198500
      12108.50        93.5968         2.8252         2.5921       0.209900
      12109.00        92.3093         2.7820         2.5809       0.215100
      12109.50        94.2830         2.7303         2.5807       0.210500
      12110.00        95.7452         2.7005         2.5953       0.199900
      12110.50        98.8059         2.6986         2.6070       0.188200
      12111.00        97.6541         2.7929         2.6023       0.180000
      12111.50        91.7817         2.8917         2.5913       0.179100
      12112.00        86.7274         2.9158         2.5827       0.183600
      12112.50        89.0316         2.8860         2.5790       0.186300
      12113.00        90.6013         2.8592         2.5816       0.187700
      12113.50        90.9993         2.8348         2.5899       0.194600
      12114.00        91.2869         2.7615         2.5975       0.203800
      12114.50        87.9432         2.7351         2.5950       0.205100
      12115.00        87.4462         2.7384         2.5883       0.203300
      12115.50        88.7594         2.7490         2.5881       0.204300
      12116.00        91.1636         2.7824         2.5922       0.204600
      12116.50        91.6171         2.8080         2.6021       0.201600
      12117.00        90.0232         2.7532         2.6114       0.196200
      12117.50        91.6290         2.7563         2.6114       0.189300
      12118.00        87.5340         2.8895         2.6122       0.182200
      12118.50        88.9974         2.9903         2.6190       0.175600
      12119.00        88.1810         3.0757         2.6159       0.172300
      12119.50        89.6355         3.1165         2.6064       0.174000
      12120.00        87.0964         3.1192         2.6063       0.178600
      12120.50        86.6708         3.1191         2.6053       0.182600
      12121.00        87.6762         3.1248         2.5921       0.183800
      12121.50        85.4973         3.1558         2.5882       0.184400
      12122.00        89.1471         3.1606         2.6033       0.185900
      12122.50        93.6126         3.1200         2.6102       0.182200
      12123.00        90.9552         3.1451         2.6082       0.170600
      12123.50        87.4138         3.2483         2.6160       0.157900
      12124.00        81.7410         3.4058         2.6211       0.149700
      12124.50        80.1332         3.5635         2.6093       0.143300
      12125.00        71.6210         3.7570         2.6010       0.137500
      12125.50        71.2622         3.9584         2.6013       0.136900
      12126.00        70.5179         4.0347         2.5991       0.140400
      12126.50        72.4416         4.0024         2.5913       0.140900
      12127.00        72.9017         3.9692         2.5830       0.139100
      12127.50        70.3185         3.9531         2.5862       0.140700
      12128.00        67.7380         3.9709         2.6038       0.144200
      12128.50        65.9618         3.9520         2.6179       0.146000
      12129.00        69.2037         3.9040         2.6129       0.147400
      12129.50        72.9192         3.8054         2.5995       0.148300
      12130.00        74.1465         3.7204         2.5904       0.148500
      12130.50        71.6752         3.6678         2.5866       0.149700
      12131.00        76.6886         3.6250         2.5859       0.150300
      12131.50        78.8671         3.5325         2.5853       0.151700
      12132.00        80.6666         3.4119         2.5948       0.158000
      12132.50        87.5809         3.2861         2.6086       0.166200
      12133.00        89.3206         3.1671         2.6055       0.170600
      12133.50        87.6818         3.1197         2.5922       0.171200
      12134.00        86.9785         3.1493         2.5880       0.172200
      12134.50        87.1535         3.1774         2.5924       0.175000
      12135.00        84.1609         3.1727         2.5934       0.175900
      12135.50        85.2083         3.1789         2.5833       0.171700
      12136.00        83.3222         3.2412         2.5671       0.163800
      12136.50        78.1830         3.3133         2.5623       0.161000
