~Version Information Block
VERS .                  2.0:  CWLS LOG ASCII STANDARD - VERSION 2.0
WRAP .                   NO:  One line per depth step
~Well Information Block
#MNEM.UNIT        Data Type   Information
#---------- ----------------  -----------
STRT .FT             780.00:  START DEPTH
STOP .FT            8996.00:  STOP DEPTH
STEP .FT               0.50:  STEP
NULL .              -999.25:  NULL VALUE
COMP .                     :  COMPANY
WELL .                STA-4:  WELL
FLD  .                     :  FIELD
LOC  .                     :  LOCATION
CTRY .                     :  COUNTRY
STAT .                     :  STATE
CNTY .                     :  COUNTY
SRVC .                     :  SERVICE COMPANY
DATE .                     :  DATE
API  .                     :  API NUMBER
UWI  .                     :  UNIQUE WELL ID
~Curve Information Block
#MNEM.UNIT         API CODE   Curve Description
#---------- ----------------  -----------------
DEPTH.FT                   :  DEPTH
GR   .GAPI                 :  Gamma Ray
RT   .OHMM                 :  SEDP
RHOB .G/C3                 :  Bulk Density
NPHI .V/V                  :  Neutron porosity
~Parameter Information Block
#MNEM.UNIT            Value   Description
#---------- ----------------  -----------
PROJECT.            SANTAN_FE:  
~Other Information Block
# 
~A       DEPTH             GR             RT           RHOB           NPHI 
        780.00        20.7900      -999.2500         1.3700    -999.250000
        780.50        24.3300      -999.2500         1.1400       0.592500
        781.00        24.3300      -999.2500         1.1100       0.592500
        781.50        16.1500      -999.2500         1.1100       0.577700
        782.00        24.8500      -999.2500         1.1700       0.566900
        782.50        26.6500      -999.2500         1.2000       0.569500
        783.00        30.7400      -999.2500         1.2400       0.568800
        783.50        31.2400      -999.2500         1.3100       0.569200
        784.00        27.8300      -999.2500         1.3700       0.571600
        784.50        28.7900      -999.2500         1.3900       0.566800
        785.00        36.3500      -999.2500         1.3900       0.579600
        785.50        37.9900      -999.2500         1.4200       0.593500
        786.00        39.4700      -999.2500         1.4500       0.598600
        786.50        44.6200      -999.2500         1.4700       0.602400
        787.00        54.2600      -999.2500         1.5100       0.607000
        787.50        64.0200      -999.2500         1.5600       0.604900
        788.00        67.2100      -999.2500         1.6000       0.614600
        788.50        74.4000      -999.2500         1.6100       0.632400
        789.00        75.6500      -999.2500         1.5900       0.648800
        789.50        77.1200      -999.2500         1.5900       0.655400
        790.00        75.4400      -999.2500         1.5900       0.658000
        790.50        72.2000      -999.2500         1.5500       0.659100
        791.00        70.3900      -999.2500         1.5600       0.653700
        791.50        74.8900      -999.2500         1.5900       0.649000
        792.00        73.1800      -999.2500         1.6400       0.642200
        792.50        68.7100      -999.2500         1.7100       0.621600
        793.00        67.8400      -999.2500         1.7900       0.619300
        793.50        70.1500      -999.2500         1.8200       0.624600
        794.00        73.3200      -999.2500         1.8200       0.606700
        794.50        70.2600      -999.2500         1.8300       0.597400
        795.00        74.0700      -999.2500         1.8300       0.603600
        795.50        77.3300      -999.2500         1.8300       0.614700
        796.00        75.8500      -999.2500         1.8400       0.632300
        796.50        74.7000      -999.2500         1.8400       0.633400
        797.00        74.8000      -999.2500         1.8400       0.636400
        797.50        78.0500      -999.2500         1.8400       0.647900
        798.00        78.6000      -999.2500         1.8400       0.647500
        798.50        79.2400      -999.2500         1.8500       0.624000
        799.00        79.5800      -999.2500         1.8500       0.614400
        799.50        79.8400      -999.2500         1.8500       0.611600
        800.00        83.7200      -999.2500         1.8500       0.599500
        800.50        84.2300      -999.2500         1.8500       0.586200
        801.00        81.6100      -999.2500         1.8600       0.578600
        801.50        82.1900      -999.2500         1.8600       0.568200
        802.00        81.7200      -999.2500         1.8600       0.544300
        802.50        79.0400      -999.2500         1.8500       0.540400
        803.00        78.2700      -999.2500         1.8400       0.563900
        803.50        83.3700      -999.2500         1.8300       0.592000
        804.00        84.9300      -999.2500         1.8300       0.601300
        804.50        84.4000      -999.2500         1.8300       0.609100
        805.00        85.0400      -999.2500         1.8300       0.638900
        805.50        88.0500      -999.2500         1.8300       0.666700
        806.00        88.1400      -999.2500         1.8300       0.663000
        806.50        87.1800      -999.2500         1.8300       0.622400
        807.00        83.7400      -999.2500         1.8400       0.585400
        807.50        79.8900      -999.2500         1.8400       0.583700
        808.00        77.9900      -999.2500         1.8400       0.591300
        808.50        72.4300      -999.2500         1.8300       0.631200
        809.00        66.3600      -999.2500         1.8300       0.674600
        809.50        61.3600      -999.2500         1.8200       0.685900
        810.00        64.5300      -999.2500         1.8200       0.696600
        810.50        63.7000      -999.2500         1.8200       0.706000
        811.00        62.5800      -999.2500         1.8200       0.701500
        811.50        61.9300      -999.2500         1.8200       0.666100
        812.00        64.2500      -999.2500         1.8300       0.630500
        812.50        69.2700      -999.2500         1.8300       0.618100
        813.00        68.3500      -999.2500         1.8400       0.620100
        813.50        66.8200      -999.2500         1.8500       0.622800
        814.00        67.8300      -999.2500         1.8600       0.622700
        814.50        65.2100      -999.2500         1.8700       0.620600
        815.00        60.4400      -999.2500         1.8800       0.618100
        815.50        61.9500      -999.2500         1.9000       0.616100
        816.00        59.6400      -999.2500         1.9200       0.616000
        816.50        57.4100      -999.2500         1.9200       0.610000
        817.00        60.5700      -999.2500         1.9200       0.600800
        817.50        63.0400      -999.2500         1.9200       0.596800
        818.00        64.3300      -999.2500         1.9100       0.590600
        818.50        62.3500      -999.2500         1.9100       0.583700
        819.00        63.6300      -999.2500         1.9100       0.583700
        819.50        66.5300      -999.2500         1.9100       0.580900
        820.00        66.3400      -999.2500         1.9100       0.577800
        820.50        64.4400      -999.2500         1.9100       0.575700
        821.00        58.8500      -999.2500         1.9100       0.585100
        821.50        61.0000      -999.2500         1.9100       0.594200
        822.00        58.1600      -999.2500         1.9100       0.594700
        822.50        60.3500      -999.2500         1.9100       0.590100
        823.00        58.3500      -999.2500         1.9000       0.586400
        823.50        57.1500      -999.2500         1.9000       0.584700
        824.00        52.7300      -999.2500         1.9000       0.581700
        824.50        52.8000      -999.2500         1.8700       0.588200
        825.00        56.2300      -999.2500         1.8700       0.595600
        825.50        57.1800      -999.2500         1.8800       0.591700
        826.00        60.0100      -999.2500         1.9000       0.572800
        826.50        60.4500      -999.2500         1.9300       0.554100
        827.00        61.2500      -999.2500         1.9400       0.550000
        827.50        59.4800      -999.2500         1.9300       0.543300
        828.00        56.2000      -999.2500         1.9200       0.536200
        828.50        59.1700      -999.2500         1.9300       0.530900
        829.00        59.7800      -999.2500         1.9300       0.529900
        829.50        59.2800      -999.2500         1.9500       0.533200
        830.00        58.6000      -999.2500         1.9500       0.537400
        830.50        60.0100      -999.2500         1.9500       0.539800
        831.00        64.7700      -999.2500         1.9400       0.549700
        831.50        69.4700      -999.2500         1.9400       0.559900
        832.00        69.7400      -999.2500         1.9400       0.557900
        832.50        66.8900      -999.2500         1.9400       0.533900
        833.00        67.0600      -999.2500         1.9400       0.510700
