~Version Information Block
VERS .                  2.0:  CWLS LOG ASCII STANDARD - VERSION 2.0
WRAP .                   NO:  One line per depth step
~Well Information Block
#MNEM.UNIT        Data Type   Information
#---------- ----------------  -----------
STRT .FT             750.00:  START DEPTH
STOP .FT            8283.50:  STOP DEPTH
STEP .FT               0.50:  STEP
NULL .              -999.25:  NULL VALUE
COMP .                     :  COMPANY
WELL .               STA-20:  WELL
FLD  .                     :  FIELD
LOC  .                     :  LOCATION
CTRY .                     :  COUNTRY
STAT .                     :  STATE
CNTY .                     :  COUNTY
SRVC .                     :  SERVICE COMPANY
DATE .                     :  DATE
API  .                     :  API NUMBER
UWI  .                     :  UNIQUE WELL ID
~Curve Information Block
#MNEM.UNIT         API CODE   Curve Description
#---------- ----------------  -----------------
DEPTH.FT                   :  DEPTH
GR   .GAPI                 :  Gamma Ray
RT   .OHMM                 :  RESDE
RHOB .G/C3                 :  Bulk Density
NPHI .V/V                  :  Thermal Neutron Porosity (Ratio Method) in Selected Lithology
~Parameter Information Block
#MNEM.UNIT            Value   Description
#---------- ----------------  -----------
PROJECT.            SANTAN_FE:  
~Other Information Block
# 
~A       DEPTH             GR             RT           RHOB           NPHI 
# ...
       5725.50        56.9838         1.1339         2.3652       0.357800
       5726.00        57.3938         1.0622         2.3421       0.350000
       5726.50        57.2562         1.0129         2.3078       0.340000
       5727.00        56.8462         0.9737         2.2712       0.330000
       5727.50        55.6216         0.9187         2.2432       0.324400
       5728.00        54.2654         0.8813         2.2315       0.332200
       5728.50        53.3119         0.8333         2.2300       0.350100
       5729.00        53.3142         0.7714         2.2420       0.367800
       5729.50        53.4500         0.7433         2.2815       0.377800
       5730.00        53.1758         0.7400         2.2799       0.380000
       5730.50        52.7658         0.7579         2.2737       0.377800
       5731.00        51.8141         0.7694         2.2319       0.370000
       5731.50        50.5874         0.8958         2.2197       0.355500
       5732.00        48.8158         0.9717         2.2033       0.334400
       5732.50        47.5983         1.2867         2.2074       0.320000
       5733.00        47.6042         1.4122         2.2177       0.316600
       5733.50        48.5559         1.1166         2.2200       0.327400
       5734.00        51.1401         0.9562         2.2183       0.339400
       5734.50        53.5843         0.9200         2.2111       0.349200
       5735.00        56.1726         0.7984         2.2027       0.360500
       5735.50        57.6684         0.6411         2.2000       0.376100
       5736.00        59.0301         0.5632         2.2008       0.392100
       5736.50        60.1123         0.5416         2.2064       0.421000
       5737.00        61.2038         0.5302         2.2031       0.446100
       5737.50        61.8846         0.5300         2.2000       0.461200
       5738.00        62.8372         0.5204         2.2000       0.441500
       5738.50        63.7825         0.5127         2.2191       0.423100
       5739.00        63.7821         0.5100         2.2476       0.420200
       5739.50        62.8262         0.5100         2.2768       0.426700
       5740.00        60.2365         0.5933         2.2770       0.430000
       5740.50        57.7936         0.8162         2.2588       0.417100
       5741.00        54.9365         0.9316         2.2567       0.404100
       5741.50        53.0362         1.0001         2.2656       0.388000
       5742.00        52.0875         1.0420         2.2815       0.374700
       5742.50        52.0879         1.0889         2.2952       0.371700
       5743.00        54.6848         1.0978         2.3056       0.370900
       5743.50        56.9918         1.0377         2.3215       0.381500
       5744.00        58.6218         0.9988         2.3412       0.391700
       5744.50        59.9771         0.9249         2.3552       0.400500
       5745.00        61.7478         0.8900         2.3656       0.410300
       5745.50        65.4320         0.8900         2.3696       0.422600
       5746.00        68.0035         0.8904         2.3581       0.436200
       5746.50        69.6335         0.8968         2.3507       0.452000
       5747.00        70.4451         0.9000         2.3321       0.440400
       5747.50        70.0366         0.9000         2.3271       0.423100
       5748.00        70.3134         0.9000         2.3356       0.414100
       5748.50        70.8550         0.8810         2.3575       0.425200
       5749.00        73.1769         0.8707         2.3808       0.439800
       5749.50        76.4436         0.8700         2.4012       0.456600
       5750.00        78.8885         0.8700         2.4093       0.469700
       5750.50        79.5600         0.8758         2.4040       0.469600
       5751.00        79.0099         0.8851         2.3944       0.444100
       5751.50        78.4650         0.8894         2.3904       0.424100
       5752.00        78.3300         0.8900         2.3960       0.421300
       5752.50        77.2365         0.8900         2.3996       0.428200
       5753.00        75.8807         0.9103         2.4060       0.430000
       5753.50        74.6536         0.9216         2.4037       0.410500
       5754.00        74.2500         0.9066         2.3884       0.385100
       5754.50        75.0764         0.8838         2.3807       0.383200
       5755.00        76.2997         0.8722         2.3860       0.399100
       5755.50        77.7952         0.8613         2.4075       0.410000
       5756.00        78.3300         0.8399         2.4308       0.428600
       5756.50        78.3300         0.8158         2.4452       0.457200
       5757.00        77.7858         0.7988         2.4317       0.483000
       5757.50        76.6936         0.7839         2.4057       0.484000
       5758.00        74.6506         0.7622         2.3840       0.462700
       5758.50        70.8333         0.7274         2.3803       0.438600
       5759.00        64.9727         0.7249         2.3834       0.409900
       5759.50        59.2691         0.7562         2.3805       0.379900
       5760.00        54.7887         0.9555         2.3688       0.358800
       5760.50        52.6236         1.2778         2.3427       0.333100
       5761.00        52.2200         1.3599         2.3152       0.333400
       5761.50        53.3236         1.2680         2.2945       0.333300
       5762.00        55.5019         1.2028         2.2770       0.341300
       5762.50        57.6727         1.1412         2.2646       0.353100
       5763.00        59.4436         1.1362         2.2561       0.359000
       5763.50        60.5251         1.2601         2.2277       0.346200
       5764.00        60.7900         1.4648         2.1908       0.302600
       5764.50        60.5141         1.6222         2.1389       0.255700
       5765.00        59.8349         1.8961         2.1007       0.233700
       5765.50        59.5700         2.0161         2.0833       0.237000
       5766.00        60.6669         1.9199         2.0963       0.259500
       5766.50        62.2969         1.5558         2.1374       0.299800
       5767.00        63.9268         1.1664         2.1823       0.346700
       5767.50        64.7359         1.0403         2.2225       0.379400
       5768.00        65.1459         0.9646         2.2330       0.389500
       5768.50        65.0041         0.8639         2.2229       0.396900
       5769.00        65.4218         0.7638         2.2129       0.414100
       5769.50        66.2356         0.6368         2.2100       0.416500
       5770.00        67.0526         0.5890         2.2119       0.395600
       5770.50        67.5963         0.5496         2.2155       0.384400
       5771.00        66.3551         0.5888         2.2060       0.399300
       5771.50        65.1374         0.7511         2.1863       0.426800
       5772.00        63.7715         0.8453         2.1727       0.430800
       5772.50        62.1414         0.8635         2.1565       0.417700
       5773.00        59.1366         0.8913         2.1374       0.405800
       5773.50        55.1903         0.9161         2.1194       0.395000
       5774.00        54.1296         0.9275         2.1353       0.385700
       5774.50        55.9112         0.9175         2.1581       0.388200
       5775.00        59.4598         0.8579         2.1892       0.394400
       5775.50        62.1649         0.7784         2.2061       0.398800
       5776.00        62.8300         0.7279         2.2215       0.400000
       5776.50        62.2774         0.7120         2.2214       0.396300
       5777.00        61.1878         0.7100         2.2154       0.387700
       5777.50        60.5134         0.7037         2.2106       0.373900
       5778.00        60.1100         0.6933         2.2036       0.359100
       5778.50        59.7033         0.6900         2.1995       0.355200
