~Version Information Block
VERS .                  2.0:  CWLS LOG ASCII STANDARD - VERSION 2.0
WRAP .                   NO:  One line per depth step
~Well Information Block
#MNEM.UNIT        Data Type   Information
#---------- ----------------  -----------
STRT .FT            4880.50:  START DEPTH
STOP .FT           10428.00:  STOP DEPTH
STEP .FT               0.50:  STEP
NULL .              -999.25:  NULL VALUE
COMP .                     :  COMPANY
WELL .                STA-3:  WELL
FLD  .                     :  FIELD
LOC  .                     :  LOCATION
CTRY .                     :  COUNTRY
STAT .                     :  STATE
CNTY .                     :  COUNTY
SRVC .                     :  SERVICE COMPANY
DATE .                     :  DATE
API  .                     :  API NUMBER
UWI  .                     :  UNIQUE WELL ID
~Curve Information Block
#MNEM.UNIT         API CODE   Curve Description
#---------- ----------------  -----------------
DEPTH.FT                   :  DEPTH
GR   .GAPI                 :  Gamma Ray
RT   .OHMM                 :  Deep resistivity
RHOB .G/C3                 :  Bulk Density
NPHI .V/V                  :  Neutron porosity
DT   .US/F                 :  Sonic
~Parameter Information Block
#MNEM.UNIT            Value   Description
#---------- ----------------  -----------
PROJECT.            SANTAN_FE:  
~Other Information Block
# 
~A       DEPTH             GR             RT           RHOB           NPHI             DT 
# ...
       7506.00        85.2546         3.2359         2.5036       0.243500        89.1500
       7506.50        93.7498         2.8542         2.5247       0.255700        88.2000
       7507.00        99.6659         2.5771         2.5276       0.253900        92.0500
       7507.50       107.3391         2.3186         2.5233       0.279900        96.6000
       7508.00       115.5177         1.9081         2.5028       0.294500       100.1000
       7508.50       123.1650         1.6372         2.5250       0.314300        98.8000
       7509.00       122.9913         1.5296         2.5462       0.303500        97.9500
       7509.50       116.6380         1.6395         2.5521       0.295400        96.7500
       7510.00       112.6691         1.7237         2.5184       0.289100        97.1000
       7510.50       110.3375         1.7270         2.5082       0.292300        98.0500
       7511.00       115.7914         1.8518         2.5102       0.295700        98.1500
       7511.50       116.7392         1.7956         2.5198       0.303000        98.2500
       7512.00       111.2724         1.9067         2.5163       0.291900        97.7000
       7512.50       103.8265         2.0134         2.5008       0.294700        95.5500
       7513.00       102.4048         2.1101         2.4910       0.286600        94.7500
       7513.50       101.8466         2.1104         2.5021       0.294800        94.8000
       7514.00       107.4241         2.0246         2.5241       0.300000        95.2000
       7514.50       106.0962         1.8780         2.5189       0.313600        96.2000
       7515.00       111.3452         1.9568         2.5126       0.323600        97.1500
       7515.50       112.2544         1.9174         2.4988       0.315000        98.1000
       7516.00       115.1760         1.8605         2.4887       0.312500        98.6500
       7516.50       112.6637         1.8408         2.5001       0.302800        99.5500
       7517.00       108.2583         1.8425         2.4968       0.307800       100.7000
       7517.50       109.9847         1.7683         2.5047       0.310400       101.6000
       7518.00       116.5963         1.6303         2.5178       0.322400       102.3500
       7518.50       120.5171         1.5893         2.5312       0.334800       103.2500
       7519.00       121.9301         1.5216         2.5056       0.330900       102.2000
       7519.50       118.7031         1.5172         2.5038       0.322700       102.7000
       7520.00       119.8621         1.5360         2.5007       0.320500       102.7000
       7520.50       114.8822         1.5949         2.5004       0.314900       100.8000
       7521.00       112.4110         1.6034         2.4996       0.331200       103.0000
       7521.50       107.5615         1.5517         2.4966       0.321900        99.7500
       7522.00       102.1779         1.5179         2.4727       0.314000        98.0000
       7522.50        83.3978         1.7853         2.4151       0.273500        94.7000
       7523.00        62.5238         2.7794         2.3548       0.262500        90.6000
       7523.50        43.9084         2.4601         2.3340       0.224200        84.6500
       7524.00        35.9639         2.4779         2.4093       0.160900        73.0500
       7524.50        28.5012         4.5536         2.5478       0.075400        58.2500
       7525.00        23.4141        10.4940         2.6706       0.030500        52.4000
       7525.50        21.4034        19.6980         2.7477       0.021900        47.6000
       7526.00        22.9891        26.5725         2.7457       0.021900        49.7500
       7526.50        24.1640        18.7722         2.6635       0.042600        56.0000
       7527.00        27.2052         6.6201         2.5151       0.087600        61.0500
       7527.50        32.9199         2.8811         2.3811       0.132700        66.0500
       7528.00        45.1528         2.3350         2.3469       0.169500        73.1000
       7528.50        60.0961         3.1752         2.3919       0.191500        73.9500
       7529.00        73.2852         2.4881         2.4530       0.208800        78.2500
       7529.50        82.3324         3.3093         2.4729       0.220000        85.8000
       7530.00        86.8024         3.4445         2.4821       0.233600        87.8000
       7530.50        85.3261         3.4146         2.4608       0.242900        88.6500
       7531.00        80.7775         3.0960         2.4536       0.245700        87.6500
       7531.50        76.5005         2.8839         2.4446       0.236000        89.2000
       7532.00        73.3962         3.1619         2.4435       0.229700        88.8000
       7532.50        77.8867         3.5041         2.4490       0.228900        89.6000
       7533.00        84.2420         3.6228         2.4539       0.226800        89.2000
       7533.50        87.5452         2.9207         2.4790       0.220600        88.0000
       7534.00        85.1151         3.0627         2.4818       0.210700        87.5500
       7534.50        76.0714         3.4671         2.4748       0.202400        86.5500
       7535.00        68.9015         3.5261         2.4482       0.204200        86.4000
       7535.50        63.3493         3.2887         2.4272       0.200000        87.1000
       7536.00        65.6147         3.3561         2.4377       0.205800        87.1000
       7536.50        77.0873         3.9141         2.4731       0.211000        86.7000
       7537.00        84.7019         3.7986         2.4903       0.214400        86.5000
       7537.50        90.4188         3.6208         2.4918       0.212400        86.8000
       7538.00        89.2256         3.3967         2.5019       0.210700        86.4000
       7538.50        91.8486         3.2764         2.5076       0.223200        87.1000
       7539.00        92.4807         3.3837         2.4959       0.235200        87.9500
       7539.50        96.9122         3.1218         2.4900       0.251400        89.3000
       7540.00        96.3815         2.8045         2.4996       0.259300        91.8000
       7540.50       101.9477         2.4396         2.5015       0.274900        93.7000
       7541.00       108.7068         2.1202         2.5192       0.285400        95.4500
       7541.50       112.4033         1.9930         2.5251       0.299500        97.3000
       7542.00       114.1455         1.9352         2.5349       0.305400        98.3000
       7542.50       111.6661         2.0323         2.5329       0.306100        98.2000
       7543.00       112.6898         2.1408         2.5308       0.308000        98.0500
       7543.50       110.5500         2.1602         2.5149       0.299000        96.9000
       7544.00       104.9451         2.4090         2.5045       0.295800        95.8500
       7544.50       102.5631         2.4500         2.4962       0.286900        95.4500
       7545.00       102.8649         2.2506         2.4993       0.294800        95.5000
       7545.50       108.3157         2.1480         2.5056       0.302300        96.6000
       7546.00       112.1933         1.9300         2.4961       0.315000        97.5500
       7546.50       112.9517         1.8129         2.4945       0.317300        98.6500
       7547.00       115.1877         1.7362         2.4860       0.322000        99.8000
       7547.50       117.5129         1.7071         2.4794       0.327200       100.8000
       7548.00       119.2949         1.7591         2.4907       0.328300       100.9000
       7548.50       118.0486         1.8204         2.5003       0.332100       100.5000
       7549.00       116.3667         1.8527         2.5187       0.319000       100.3000
       7549.50       111.7843         1.8548         2.5125       0.315600        99.6000
       7550.00       105.9532         1.8730         2.5073       0.315400        99.1500
