~Version Information Block
VERS .                  2.0:  CWLS LOG ASCII STANDARD - VERSION 2.0
WRAP .                   NO:  One line per depth step
~Well Information Block
#MNEM.UNIT        Data Type   Information
#---------- ----------------  -----------
STRT .FT            5000.50:  START DEPTH
STOP .FT           14504.00:  STOP DEPTH
STEP .FT               0.50:  STEP
NULL .              -999.25:  NULL VALUE
COMP .                     :  COMPANY
WELL .               STA-18:  WELL
FLD  .                     :  FIELD
LOC  .                     :  LOCATION
CTRY .                     :  COUNTRY
STAT .                     :  STATE
CNTY .                     :  COUNTY
SRVC .                     :  SERVICE COMPANY
DATE .                     :  DATE
API  .                     :  API NUMBER
UWI  .                     :  UNIQUE WELL ID
~Curve Information Block
#MNEM.UNIT         API CODE   Curve Description
#---------- ----------------  -----------------
DEPTH.FT                   :  DEPTH
GR   .GAPI                 :  Gamma Ray
RT   .OHMM                 :  SEDP
RHOB .G/C3                 :  Bulk Density
NPHI .V/V                  :  Neutron porosity
~Parameter Information Block
#MNEM.UNIT            Value   Description
#---------- ----------------  -----------
PROJECT.            SANTAN_FE:  
~Other Information Block
# 
~A       DEPTH             GR             RT           RHOB           NPHI 
# ...
       7568.50       100.0900         1.1600         2.3000       0.425700
       7569.00       102.4300         1.1600         2.3000       0.432700
       7569.50        95.4900         1.1600         2.3100       0.357200
       7570.00        88.7000         1.1700         2.3200       0.269700
       7570.50        87.0700         1.1700         2.3200       0.255800
       7571.00        87.6000         1.1700         2.3200       0.278000
       7571.50        91.6900         1.1600         2.3300       0.291900
       7572.00        95.4600         1.1400         2.3300       0.324800
       7572.50        99.5800         1.1200         2.3100       0.368200
       7573.00       105.1500         1.1000         2.3200       0.380200
       7573.50        99.1851         1.1200         2.3400       0.387700
       7574.00        94.4700         1.1500         2.3400       0.393900
       7574.50        92.3400         1.1700         2.3300       0.402500
       7575.00        98.5200         1.1700         2.3300       0.414800
       7575.50       100.7200         1.1700         2.3500       0.401500
       7576.00        99.8100         1.1700         2.3600       0.379300
       7576.50       100.9700         1.2000         2.3600       0.360100
       7577.00       104.0200         1.2200         2.3500       0.371000
       7577.50       108.1100         1.2300         2.3500       0.397600
       7578.00       107.0600         1.2400         2.3400       0.412400
       7578.50        99.6700         1.2600         2.3500       0.416000
       7579.00        88.2419         1.2700         2.3600       0.408700
       7579.50        84.4200         1.2700         2.3700       0.400200
       7580.00        85.8700         1.2700         2.3500       0.383200
       7580.50        94.8300         1.2800         2.3300       0.365700
       7581.00       111.7700         1.2800         2.3300       0.363700
       7581.50       102.5900         1.2800         2.3300       0.376000
       7582.00        79.9300         1.2900         2.3700       0.383200
       7582.50        91.0100         1.3000         2.3700       0.381000
       7583.00        95.2400         1.3100         2.3700       0.368700
       7583.50        95.6300         1.3200         2.4000       0.368000
       7584.00        94.6100         1.3300         2.3900       0.390600
       7584.50        89.8800         1.3600         2.3700       0.391400
       7585.00        86.2200         1.3900         2.3600       0.374300
       7585.50        87.5600         1.4100         2.3500       0.362000
       7586.00        94.0900         1.3600         2.3500       0.357900
       7586.50       101.1500         1.3000         2.3700       0.377500
       7587.00        97.6300         1.3100         2.3900       0.389400
       7587.50        98.0343         1.3600         2.4000       0.409700
       7588.00        92.5200         1.3900         2.3800       0.420900
       7588.50        96.9800         1.3600         2.3700       0.418900
       7589.00       101.7200         1.3400         2.3600       0.422300
       7589.50        92.4800         1.3500         2.3600       0.420500
       7590.00        92.6900         1.3300         2.3900       0.420900
       7590.50       101.2300         1.3100         2.4000       0.419600
       7591.00        93.3800         1.2800         2.4000       0.392400
       7591.50        89.2700         1.2600         2.3800       0.388900
       7592.00        93.9900         1.2600         2.3800       0.418000
       7592.50       105.0400         1.2600         2.4000       0.421000
       7593.00       107.3676         1.3000         2.4100       0.412100
       7593.50       105.7900         1.3300         2.4300       0.408100
       7594.00       100.8700         1.4600         2.4300       0.400100
       7594.50        94.7200         1.9100         2.4300       0.382800
       7595.00        82.9200         2.9700         2.4300       0.327600
       7595.50        80.7400         4.3700         2.4700       0.260200
       7596.00        79.7421         6.5400         2.5400       0.203200
       7596.50        62.6000         8.2300         2.5800       0.156300
       7597.00        52.0200         9.4100         2.6100       0.131500
       7597.50        43.6700        10.2100         2.6000       0.125200
       7598.00        38.3100        10.1100         2.6200       0.129400
       7598.50        39.5600         9.2200         2.6800       0.142400
       7599.00        39.6900         8.1500         2.6500       0.172100
       7599.50        40.0900         6.6400         2.5900       0.204900
       7600.00        46.8100         4.4700         2.4800       0.229300
       7600.50        62.2900         3.7400         2.4100       0.249700
       7601.00        67.2100         3.4100         2.3600       0.267100
       7601.50        79.1575         2.9600         2.3200       0.285100
       7602.00        87.9400         2.4300         2.3500       0.297800
       7602.50        90.8600         2.0500         2.3600       0.308200
       7603.00        92.2500         1.8900         2.3500       0.317000
       7603.50       103.3000         1.9000         2.3600       0.312900
       7604.00       100.0100         1.8200         2.3700       0.306500
       7604.50        85.3400         1.6700         2.3900       0.299800
       7605.00        88.8400         1.5400         2.4100       0.304500
       7605.50        94.2700         1.4800         2.4100       0.308900
       7606.00        97.9400         1.4100         2.4000       0.304100
       7606.50        97.3700         1.3500         2.3900       0.304700
       7607.00        94.2800         1.3400         2.3700       0.302100
       7607.50        90.9900         1.3600         2.3600       0.300700
       7608.00        90.4500         1.4000         2.3600       0.295900
       7608.50        92.2800         1.4500         2.3700       0.282400
       7609.00        90.1200         1.4900         2.3700       0.268100
       7609.50        89.1500         1.5100         2.3800       0.266500
       7610.00        86.3874         1.5000         2.3800       0.269400
       7610.50        83.8600         1.4900         2.3700       0.276300
       7611.00        95.1000         1.4800         2.3500       0.303000
       7611.50        89.2900         1.4700         2.3800       0.315100
       7612.00        92.3700         1.4800         2.3800       0.330200
       7612.50        95.4600         1.4800         2.3600       0.335900
       7613.00        96.2500         1.4800         2.3600       0.333400
       7613.50        93.6200         1.4700         2.3600       0.341400
       7614.00        96.9000         1.4600         2.3500       0.354900
       7614.50       101.3500         1.4600         2.3600       0.358300
       7615.00       103.2800         1.4600         2.3600       0.351700
       7615.50       105.0881         1.4500         2.3600       0.325000
       7616.00       109.2700         1.4200         2.3600       0.322400
       7616.50       106.8500         1.3900         2.3500       0.335100
       7617.00        99.5700         1.4000         2.3500       0.347700
       7617.50        92.4000         1.4500         2.3400       0.357100
       7618.00        87.9300         1.4900         2.3400       0.343800
       7618.50        94.5700         1.4900         2.3500       0.332200
       7619.00        93.6500         1.4800         2.3400       0.327500
       7619.50        80.4100         1.5200         2.3400       0.319300
       7620.00        81.1600         1.5400         2.3400       0.305500
       7620.50        84.7000         1.5400         2.3300       0.283500
       7621.00        82.0800         1.5400         2.3300       0.282000
       7621.50        73.4300         1.5600         2.3300       0.290500
