~Version Information Block
VERS .                  2.0:  CWLS LOG ASCII STANDARD - VERSION 2.0
WRAP .                   NO:  One line per depth step
~Well Information Block
#MNEM.UNIT        Data Type   Information
#---------- ----------------  -----------
STRT .FT            6415.50:  START DEPTH
STOP .FT           16132.50:  STOP DEPTH
STEP .FT               0.50:  STEP
NULL .              -999.25:  NULL VALUE
COMP .                     :  COMPANY
WELL .               STA-33:  WELL
FLD  .                     :  FIELD
LOC  .                     :  LOCATION
CTRY .                     :  COUNTRY
STAT .                     :  STATE
CNTY .                     :  COUNTY
SRVC .                     :  SERVICE COMPANY
DATE .                     :  DATE
API  .                     :  API NUMBER
UWI  .                     :  UNIQUE WELL ID
~Curve Information Block
#MNEM.UNIT         API CODE   Curve Description
#---------- ----------------  -----------------
DEPTH.FT                   :  Depth
GR   .GAPI                 :  Gamma Ray
RT   .OHMM                 :  True Resistivity
RHOB .G/C3                 :  Bulk Density
NPHI .V/V                  :  Neutron Porosity
~Parameter Information Block
#MNEM.UNIT            Value   Description
#---------- ----------------  -----------
PROJECT.            SANTAN_FE:  
~Other Information Block
# 
~A       DEPTH             GR             RT           RHOB           NPHI 
# ...
      16045.50        43.2305         4.6721         2.4749       0.116800
      16046.00        46.7425         4.7889         2.4781       0.116100
      16046.50        48.7578         4.9029         2.4694       0.115500
      16047.00        47.9001         4.9775         2.4565       0.113200
      16047.50        50.1014         5.0286         2.4587       0.110500
      16048.00        50.4848         5.1724         2.4763       0.108000
      16048.50        53.1838         5.3802         2.4899       0.105200
      16049.00        51.5920         5.7851         2.4993       0.101500
      16049.50        48.2235         6.3885         2.5142       0.097900
      16050.00        45.7539         6.6671         2.5297       0.097500
      16050.50        50.9104         6.5552         2.5377       0.100200
      16051.00        56.6246         6.1398         2.5412       0.101900
      16051.50        59.1986         5.8870         2.5470       0.101400
      16052.00        57.7652         6.0393         2.5583       0.102200
      16052.50        55.7900         6.1423         2.5630       0.106200
      16053.00        54.8733         6.1923         2.5474       0.109700
      16053.50        58.8430         5.9237         2.5248       0.111200
      16054.00        64.6425         5.8088         2.5149       0.112400
      16054.50        68.6965         5.7670         2.5172       0.113400
      16055.00        68.7650         5.7665         2.5218       0.112600
      16055.50        67.5441         5.7933         2.5229       0.110600
      16056.00        66.3068         5.8529         2.5204       0.109800
      16056.50        64.9151         5.8248         2.5243       0.111300
      16057.00        61.0272         5.7715         2.5331       0.114600
      16057.50        63.4177         5.6820         2.5319       0.118100
      16058.00        67.1785         5.6436         2.5303       0.118900
      16058.50        63.7052         5.6754         2.5455       0.117600
      16059.00        65.9563         5.7931         2.5661       0.117800
      16059.50        66.4025         5.7597         2.5706       0.119200
      16060.00        65.7371         5.5003         2.5654       0.120600
      16060.50        64.3404         5.3711         2.5707       0.124000
      16061.00        67.1885         5.2445         2.5790       0.130700
      16061.50        69.8102         4.9547         2.5819       0.138800
      16062.00        75.7531         4.6819         2.5971       0.146100
      16062.50        80.1936         4.4650         2.6232       0.153000
      16063.00        82.2908         4.3513         2.6405       0.160200
      16063.50        85.7662         4.0789         2.6423       0.166500
      16064.00        87.8165         3.8616         2.6326       0.172700
      16064.50        93.5166         3.7350         2.6216       0.177700
      16065.00        95.4676         3.6577         2.6176       0.176900
      16065.50        90.5001         3.6165         2.6185       0.171600
      16066.00        92.1698         3.8060         2.6181       0.167500
      16066.50        90.8255         3.8854         2.6168       0.164700
      16067.00        91.6311         3.9456         2.6193       0.162700
      16067.50        88.5737         4.0394         2.6272       0.162000
      16068.00        86.1867         4.1115         2.6349       0.160400
      16068.50        86.9542         4.1541         2.6359       0.155000
      16069.00        86.8615         4.2114         2.6312       0.148600
      16069.50        84.9718         4.2015         2.6231       0.144800
      16070.00        83.2194         4.2625         2.6157       0.142600
      16070.50        84.2790         4.3920         2.6127       0.141400
      16071.00        86.3890         4.5078         2.6158       0.141000
      16071.50        84.1079         4.5526         2.6216       0.138200
      16072.00        80.5724         4.6608         2.6237       0.130100
      16072.50        80.9961         4.8668         2.6223       0.123800
      16073.00        76.2794         4.9154         2.6222       0.123600
      16073.50        74.6247         5.0012         2.6205       0.127100
      16074.00        75.1394         5.0087         2.6149       0.132000
      16074.50        78.2635         5.0037         2.6171       0.135300
      16075.00        79.8415         5.0366         2.6319       0.133000
      16075.50        79.6275         5.1637         2.6426       0.127600
      16076.00        73.6098         5.2764         2.6414       0.123600
      16076.50        72.3400         5.2784         2.6305       0.122400
      16077.00        75.9896         5.2904         2.6203       0.122300
      16077.50        74.2338         5.3196         2.6245       0.121300
      16078.00        71.8858         5.3692         2.6317       0.119900
      16078.50        70.6993         5.3841         2.6287       0.119100
      16079.00        71.0297         5.4196         2.6247       0.118900
      16079.50        70.3644         5.4444         2.6259       0.117500
      16080.00        70.5111         5.5288         2.6263       0.114500
      16080.50        71.0816         5.6499         2.6179       0.112100
      16081.00        67.6512         5.7205         2.6060       0.111900
      16081.50        66.6740         5.7733         2.6070       0.112000
      16082.00        68.2407         5.8479         2.6174       0.109800
      16082.50        65.8520         5.9786         2.6179       0.108700
      16083.00        64.2545         6.0571         2.6051       0.108200
      16083.50        60.6281         6.1128         2.5883       0.106200
      16084.00        60.8418         6.1573         2.5842       0.105200
      16084.50        61.0824         6.2100         2.6044       0.105900
      16085.00        60.6616         6.2535         2.6175       0.107400
      16085.50        60.7442         6.2814         2.6019       0.109200
      16086.00        58.4353         6.2886         2.5841       0.110300
      16086.50        58.8177         6.2276         2.5765       0.111200
      16087.00        60.0451         6.1497         2.5727       0.111900
      16087.50        59.7931         6.0300         2.5751    -999.250000
      16088.00        58.8323         6.0004         2.5821    -999.250000
      16088.50        56.7852         5.9145         2.5850    -999.250000
      16089.00        58.4510         5.8376         2.5842    -999.250000
      16089.50        62.3907         5.7845         2.5859    -999.250000
      16090.00        64.0152         5.7386         2.5939    -999.250000
      16090.50        65.5982         5.7337         2.6076    -999.250000
      16091.00        65.6675         5.7753         2.6146    -999.250000
      16091.50        62.9323         5.7269         2.6092    -999.250000
      16092.00        59.7408         5.7339         2.6034    -999.250000
      16092.50        60.8229         5.6888         2.5970    -999.250000
      16093.00        60.8864         5.6588         2.5888    -999.250000
      16093.50        62.3408         5.6243         2.5862    -999.250000
      16094.00        64.2773         5.6123         2.5882    -999.250000
      16094.50        63.4664         5.6291         2.5894    -999.250000
      16095.00        66.3805         5.6238         2.5835    -999.250000
      16095.50        67.6635         5.6056         2.5733    -999.250000
      16096.00        68.5461         5.5793      -999.2500    -999.250000
      16096.50        66.5331         5.5456      -999.2500    -999.250000
      16097.00        67.1110         5.5202      -999.2500    -999.250000
      16097.50        68.6724         5.5261      -999.2500    -999.250000
      16098.00        68.9890         5.5025      -999.2500    -999.250000
      16098.50        72.4931         5.4873      -999.2500    -999.250000
