~Version Information Block
VERS .                  2.0:  CWLS LOG ASCII STANDARD - VERSION 2.0
WRAP .                   NO:  One line per depth step
~Well Information Block
#MNEM.UNIT        Data Type   Information
#---------- ----------------  -----------
STRT .FT             750.00:  START DEPTH
STOP .FT            8283.50:  STOP DEPTH
STEP .FT               0.50:  STEP
NULL .              -999.25:  NULL VALUE
COMP .                     :  COMPANY
WELL .               STA-20:  WELL
FLD  .                     :  FIELD
LOC  .                     :  LOCATION
CTRY .                     :  COUNTRY
STAT .                     :  STATE
CNTY .                     :  COUNTY
SRVC .                     :  SERVICE COMPANY
DATE .                     :  DATE
API  .                     :  API NUMBER
UWI  .                     :  UNIQUE WELL ID
~Curve Information Block
#MNEM.UNIT         API CODE   Curve Description
#---------- ----------------  -----------------
DEPTH.FT                   :  DEPTH
GR   .GAPI                 :  Gamma Ray
RT   .OHMM                 :  RESDE
RHOB .G/C3                 :  Bulk Density
NPHI .V/V                  :  Thermal Neutron Porosity (Ratio Method) in Selected Lithology
~Parameter Information Block
#MNEM.UNIT            Value   Description
#---------- ----------------  -----------
PROJECT.            SANTAN_FE:  
~Other Information Block
# 
~A       DEPTH             GR             RT           RHOB           NPHI 
# ...
       8240.00        48.9600         2.6018         2.4601       0.205500
       8240.50        50.9766         2.7012         2.4657       0.204300
       8241.00        55.8439         2.7350         2.4870       0.200000
       8241.50        61.1447         2.6900         2.5113       0.205700
       8242.00        64.8318         2.5071         2.5371       0.215700
       8242.50        66.8888         2.2094         2.5556       0.225700
       8243.00        68.5230         2.1748         2.5600       0.230000
       8243.50        70.9645         2.0961         2.5484       0.230000
       8244.00        73.4145         2.0731         2.5401       0.230000
       8244.50        76.6660         2.0886         2.5517       0.235900
       8245.00        78.7188         2.0846         2.5717       0.245800
       8245.50        78.7400         2.1128         2.5858       0.250000
       8246.00        77.9384         2.0490         2.5840       0.250000
       8246.50        77.1186         2.0309         2.5800       0.250000
       8247.00        75.4970         2.0399         2.5800       0.250000
       8247.50        75.0743         2.0392         2.5800    -999.250000
       8248.00        74.2585         2.0151         2.5679    -999.250000
       8248.50        76.6745         1.8017         2.5540    -999.250000
       8249.00        79.1245         1.7409         2.5500    -999.250000
       8249.50        81.9832         1.6721         2.5683    -999.250000
       8250.00        83.6247         1.6127         2.5799    -999.250000
       8250.50        83.6400         1.6571         2.5800    -999.250000
       8251.00        83.6400         1.6692      -999.2500    -999.250000
       8251.50        86.4633         1.6427      -999.2500    -999.250000
       8252.00        89.7293         1.5235      -999.2500    -999.250000
       8252.50        90.9686         1.4660      -999.2500    -999.250000
       8253.00        87.3444         1.5292      -999.2500    -999.250000
       8253.50        84.0806         1.6075      -999.2500    -999.250000
       8254.00        82.4254         1.6529      -999.2500    -999.250000
       8254.50        83.6285         1.6519      -999.2500    -999.250000
       8255.00        83.6400         1.6658      -999.2500    -999.250000
       8255.50        84.0462         1.7393      -999.2500    -999.250000
       8256.00        83.6438         1.7673      -999.2500    -999.250000
       8256.50        84.8486         1.7553      -999.2500    -999.250000
       8257.00        85.6723         1.7429      -999.2500    -999.250000
       8257.50        86.0862         1.7470      -999.2500    -999.250000
       8258.00        85.2768         1.7975      -999.2500    -999.250000
       8258.50        84.0602         1.8066      -999.2500    -999.250000
       8259.00        82.0270         1.8001      -999.2500    -999.250000
       8259.50        80.3837         1.7938      -999.2500    -999.250000
       8260.00        79.5667         1.7961      -999.2500    -999.250000
       8260.50        81.9896         1.8000      -999.2500    -999.250000
       8261.00        84.8363         1.8226      -999.2500    -999.250000
       8261.50        86.0798         1.8453      -999.2500    -999.250000
       8262.00        84.8702         1.9082      -999.2500    -999.250000
       8262.50        76.7680         2.0208      -999.2500    -999.250000
       8263.00        67.8048         2.2172      -999.2500    -999.250000
       8263.50        57.2084         2.7703      -999.2500    -999.250000
       8264.00        51.8642         3.3623      -999.2500    -999.250000
       8264.50        51.0068         3.5198      -999.2500    -999.250000
       8265.00        53.0230         3.3509      -999.2500    -999.250000
       8265.50        57.4926         3.1472      -999.2500    -999.250000
       8266.00        60.3592         3.1312      -999.2500    -999.250000
       8266.50        61.6010         3.1289      -999.2500    -999.250000
       8267.00        62.0071         3.1576      -999.2500    -999.250000
       8267.50        62.4170         3.1710      -999.2500    -999.250000
       8268.00        66.0632         3.1778      -999.2500    -999.250000
       8268.50        69.3362         3.3061      -999.2500    -999.250000
       8269.00        69.3600         3.5185      -999.2500    -999.250000
       8269.50        60.4455         3.9658      -999.2500    -999.250000
       8270.00        48.2293         4.6591      -999.2500    -999.250000
       8270.50        38.0144         5.0653      -999.2500    -999.250000
       8271.00        33.0857         5.1693      -999.2500    -999.250000
       8271.50        29.8038         5.2250      -999.2500    -999.250000
       8272.00        26.1368         5.0939      -999.2500    -999.250000
       8272.50        24.0849         4.6373      -999.2500    -999.250000
       8273.00        24.0700         3.6957      -999.2500    -999.250000
       8273.50        26.9091         2.5806      -999.2500    -999.250000
       8274.00        36.2513         2.6464      -999.2500    -999.250000
       8274.50        48.0661         3.0698      -999.2500    -999.250000
       8275.00        59.4986         3.1575      -999.2500    -999.250000
       8275.50        59.5700         3.0439      -999.2500    -999.250000
       8276.00      -999.2500         2.8239      -999.2500    -999.250000
       8276.50      -999.2500         2.7841      -999.2500    -999.250000
       8277.00      -999.2500         2.8205      -999.2500    -999.250000
       8277.50      -999.2500         2.9000      -999.2500    -999.250000
       8278.00      -999.2500         2.9684      -999.2500    -999.250000
       8278.50      -999.2500         2.9813      -999.2500    -999.250000
       8279.00      -999.2500         2.9392      -999.2500    -999.250000
       8279.50      -999.2500         2.9201      -999.2500    -999.250000
       8280.00      -999.2500         2.9379      -999.2500    -999.250000
       8280.50      -999.2500         2.9734      -999.2500    -999.250000
       8281.00      -999.2500         2.9483      -999.2500    -999.250000
       8281.50      -999.2500         2.8556      -999.2500    -999.250000
       8282.00      -999.2500         2.7732      -999.2500    -999.250000
       8282.50      -999.2500         2.7674      -999.2500    -999.250000
       8283.00      -999.2500         2.8197      -999.2500    -999.250000
       8283.50      -999.2500         2.8200      -999.2500    -999.250000
