~Version Information Block
VERS .                  2.0:  CWLS LOG ASCII STANDARD - VERSION 2.0
WRAP .                   NO:  One line per depth step
~Well Information Block
#MNEM.UNIT        Data Type   Information
#---------- ----------------  -----------
STRT .FT             728.00:  START DEPTH
STOP .FT           10480.50:  STOP DEPTH
STEP .FT               0.50:  STEP
NULL .              -999.25:  NULL VALUE
COMP .                     :  COMPANY
WELL .               STA-21:  WELL
FLD  .                     :  FIELD
LOC  .                     :  LOCATION
CTRY .                     :  COUNTRY
STAT .                     :  STATE
CNTY .                     :  COUNTY
SRVC .                     :  SERVICE COMPANY
DATE .                     :  DATE
API  .                     :  API NUMBER
UWI  .                     :  UNIQUE WELL ID
~Curve Information Block
#MNEM.UNIT         API CODE   Curve Description
#---------- ----------------  -----------------
DEPTH.FT                   :  DEPTH
GR   .GAPI                 :  Gamma Ray
RT   .OHMM                 :  RESDE
RHOB .G/C3                 :  Bulk Density
NPHI .V/V                  :  Thermal Neutron Porosity (Ratio Method) in Selected Lithology
~Parameter Information Block
#MNEM.UNIT            Value   Description
#---------- ----------------  -----------
PROJECT.            SANTAN_FE:  
~Other Information Block
# 
~A       DEPTH             GR             RT           RHOB           NPHI 
# ...
       9127.50        67.0300         2.7300         2.4500         0.2300
       9128.00        68.7900         2.5900         2.4600         0.2400
       9128.50        68.7900         2.5900         2.4700         0.2400
       9129.00        64.7800         2.6600         2.4600         0.2500
       9129.50        60.7600         2.6600         2.4500         0.2400
       9130.00        53.4800         3.0000         2.4300         0.2300
       9130.50        47.7900         3.0600         2.4000         0.2200
       9131.00        42.1700         3.0100         2.3900         0.2000
       9131.50        42.0000         3.0100         2.3900         0.1900
       9132.00        42.5000         2.9900         2.4100         0.1900
       9132.50        42.6700         2.9600         2.4000         0.1900
       9133.00        42.4200         2.9500         2.3700         0.2000
       9133.50        43.1700         2.9500         2.3500         0.2000
       9134.00        44.8500         2.9000         2.3600         0.2100
       9134.50        46.5200         2.8000         2.3700         0.2100
       9135.00        48.4400         2.8000         2.4000         0.2200
       9135.50        50.9600         2.7000         2.4100         0.2300
       9136.00        54.3900         2.5600         2.4200         0.2500
       9136.50        56.2300         2.4900         2.4200         0.2500
       9137.00        56.8200         2.4600         2.4200         0.2500
       9137.50        56.3200         2.4600         2.4200         0.2400
       9138.00        55.5600         2.5100         2.4200         0.2400
       9138.50        55.5600         2.4300         2.4300         0.2400
       9139.00        55.7200         2.3000         2.4500         0.2400
       9139.50        61.4900         2.1100         2.4700         0.2500
       9140.00        69.5300         1.8700         2.4700         0.2800
       9140.50        75.4700         1.8300         2.4800         0.3000
       9141.00        76.7300         1.8300         2.4800         0.3100
       9141.50        76.7300         1.8200         2.4800         0.3200
       9142.00        79.0700         1.7500         2.4800         0.3400
       9142.50        80.4900         1.6800         2.4800         0.3500
       9143.00        79.5800         1.6200         2.4800         0.3400
       9143.50        77.0700         1.6200         2.4700         0.3300
       9144.00        71.7200         1.6200         2.4200         0.3100
       9144.50        63.7800         1.6200         2.3800         0.3000
       9145.00        53.5800         1.6700         2.3300         0.3000
       9145.50        48.6400         1.6700         2.3100         0.2900
       9146.00        46.8700         1.5800         2.3300         0.3000
       9146.50        59.7500         1.7700         2.3700         0.2900
       9147.00        71.2100         1.7700         2.4100         0.3100
       9147.50        83.5900         1.8400         2.4000         0.3300
       9148.00        87.6100         1.6800         2.3300         0.3500
       9148.50        92.3000         1.7300         2.2500         0.3700
       9149.00        93.3000         1.8200         2.2200         0.4000
       9149.50        89.5400         2.3900         2.2600         0.4400
       9150.00        84.3500         2.3900         2.3600         0.4600
       9150.50        82.0800         2.1000         2.4300         0.4200
       9151.00        82.5800         1.7700         2.4800         0.3700
       9151.50        83.2600         1.7600         2.4700         0.3300
       9152.00        83.0100         1.7200         2.4700         0.3100
       9152.50        82.0900         1.7500         2.4700         0.3000
       9153.00        80.9100         1.8400         2.4800         0.3000
       9153.50        79.9100         2.0400         2.5000         0.3100
       9154.00        77.9900         2.0400         2.5000         0.3100
       9154.50        76.8200         2.2400         2.5200         0.3100
       9155.00        76.0600         2.2700         2.5000         0.3000
       9155.50        75.0700         2.3400         2.4900         0.2900
       9156.00        73.7400         2.2100         2.4400         0.2700
       9156.50        68.9800         2.3300         2.3000         0.2400
       9157.00        58.0200         2.8200         2.1400         0.2200
       9157.50        42.1900         2.9200         2.0500         0.2100
       9158.00        26.5300         2.1300         2.0600         0.2200
       9158.50        17.6600         1.2200         2.1000         0.2400
       9159.00        13.6500         1.0100         2.1200         0.2700
       9159.50        12.0600         0.9300         2.1200         0.2800
       9160.00        11.0500         0.9500         2.1400         0.2900
       9160.50        10.3800         0.9300         2.1300         0.2800
       9161.00        10.3800         0.8900         2.1200         0.2700
       9161.50        10.3800         0.8700         2.1100         0.2700
       9162.00         9.7900         0.8700         2.1200         0.2600
       9162.50        10.2900         0.9100         2.1300         0.2600
       9163.00        11.2100         0.9700         2.1300         0.2600
       9163.50        12.7200         0.9900         2.1300         0.2700
       9164.00        13.4700         0.9700         2.1200         0.2700
       9164.50        13.8100         0.9700         2.1200         0.2700
       9165.00        13.8100         0.9400         2.1300         0.2700
       9165.50        13.7200         0.9300         2.1100         0.2700
       9166.00        13.6400         0.9300         2.1100         0.2600
       9166.50        13.3000         0.9200         2.1100         0.2700
       9167.00        13.4700         0.9100         2.1100         0.2700
       9167.50        13.8900         0.9100         2.1100         0.2800
       9168.00        14.2300         0.9000         2.1200         0.2600
       9168.50        14.2200         0.9200         2.1200         0.2700
       9169.00        14.3100         0.9700         2.1300         0.2700
       9169.50        14.3100         0.9600         2.1200         0.2800
       9170.00        14.2200         0.9400         2.1200         0.2800
       9170.50        14.0600         0.9400         2.1200         0.2800
       9171.00        13.7200         0.9400         2.1300         0.2700
       9171.50        13.7200         0.9500         2.1200         0.2700
       9172.00        13.1400         0.9500         2.1300         0.2700
       9172.50        13.7200         0.9500         2.1400         0.2700
       9173.00        16.2300         0.9500         2.1700         0.2700
       9173.50        18.9100         0.9300         2.1900         0.2700
       9174.00        19.7500         0.9600         2.1900         0.2700
       9174.50        17.6600         0.9800         2.1800         0.2700
       9175.00        15.5600         0.9800         2.1500         0.2600
       9175.50        13.9800         0.9500         2.1300         0.2600
       9176.00        13.3100         0.9100         2.1200         0.2600
       9176.50        13.4700         0.9400         2.1400         0.2600
       9177.00        14.3100         0.9600         2.1400         0.2600
       9177.50        14.6400         0.9500         2.1600         0.2700
       9178.00        14.6400         0.9500         2.1500         0.2600
       9178.50        14.1400         0.9900         2.1600         0.2700
       9179.00        13.2200         0.9400         2.1500         0.2700
       9179.50        12.2200         0.8900         2.1400         0.2800
       9180.00        13.2900         0.9000         2.1400         0.2600
       9180.50        17.4700         0.9700         2.2100         0.2600
