~Version Information Block
VERS .                  2.0:  CWLS LOG ASCII STANDARD - VERSION 2.0
WRAP .                   NO:  One line per depth step
~Well Information Block
#MNEM.UNIT        Data Type   Information
#---------- ----------------  -----------
STRT .FT            5224.50:  START DEPTH
STOP .FT           13237.50:  STOP DEPTH
STEP .FT               0.50:  STEP
NULL .              -999.25:  NULL VALUE
COMP .                     :  COMPANY
WELL .               STA-32:  WELL
FLD  .                     :  FIELD
LOC  .                     :  LOCATION
CTRY .                     :  COUNTRY
STAT .                     :  STATE
CNTY .                     :  COUNTY
SRVC .                     :  SERVICE COMPANY
DATE .                     :  DATE
API  .                     :  API NUMBER
UWI  .                     :  UNIQUE WELL ID
~Curve Information Block
#MNEM.UNIT         API CODE   Curve Description
#---------- ----------------  -----------------
DEPTH.FT                   :  Depth
GR   .GAPI                 :  Gamma Ray
RT   .OHMM                 :  True Resistivity
RHOB .G/C3                 :  Bulk Density
NPHI .V/V                  :  Neutron Porosity
~Parameter Information Block
#MNEM.UNIT            Value   Description
#---------- ----------------  -----------
PROJECT.            SANTAN_FE:  
~Other Information Block
# 
~A       DEPTH             GR             RT           RHOB           NPHI 
# ...
       9397.50        53.4927         2.6177         2.4743       0.194300
       9398.00        53.5215         2.5583         2.4521       0.188200
       9398.50        52.9583         2.5665         2.4578       0.179800
       9399.00        51.3479         2.6265         2.4795       0.177600
       9399.50        51.6945         2.7382         2.4876       0.178100
       9400.00        54.3950         2.8144         2.4739       0.179300
       9400.50        54.4982         2.7970         2.4586       0.181300
       9401.00        58.6006         2.7151         2.4520       0.183400
       9401.50        59.3030         2.6452         2.4390       0.187300
       9402.00        63.4631         2.5193         2.4138       0.194600
       9402.50        60.2251         2.3449         2.3825       0.199800
       9403.00        56.0657         2.2081         2.3598       0.199600
       9403.50        57.7407         2.2431         2.3665       0.198400
       9404.00        57.3778         2.3278         2.3974       0.202200
       9404.50        63.4158         2.3807         2.4360       0.213900
       9405.00        72.7068         2.3834         2.4737       0.228400
       9405.50        77.9836         2.3275         2.5025       0.237800
       9406.00        82.2515         2.2940         2.5199       0.242500
       9406.50        84.3848         2.2320         2.5324       0.246800
       9407.00        89.1789         2.1825         2.5409       0.248400
       9407.50        89.3139         2.2564         2.5463       0.242000
       9408.00        84.2638         2.4197         2.5506       0.231900
       9408.50        78.1088         2.5840         2.5508       0.221500
       9409.00        72.5522         2.6209         2.5409       0.209200
       9409.50        67.1210         2.6091         2.5172       0.203000
       9410.00        64.4372         2.6048         2.4922       0.205500
       9410.50        69.3563         2.6030         2.4910       0.206200
       9411.00        74.5929         2.5797         2.5150       0.207900
       9411.50        79.7314         2.4908         2.5379       0.220300
       9412.00        84.1509         2.4609         2.5445       0.236400
       9412.50        86.6658         2.4758         2.5448       0.239600
       9413.00        78.0316         2.6879         2.5446       0.224600
       9413.50        63.1793         2.9135         2.5356       0.197300
       9414.00        50.7486         3.0343         2.5153       0.170500
       9414.50        50.0659         3.1721         2.5049       0.159700
       9415.00        53.7194         3.1538         2.5097       0.167800
       9415.50        60.0615         3.1824         2.5060       0.184300
       9416.00        62.4853         3.2263         2.4894       0.192300
       9416.50        64.1320         3.2201         2.4810       0.192200
       9417.00        63.7479         3.2045         2.4789       0.193100
       9417.50        62.4109         3.1817         2.4768       0.194900
       9418.00        60.9155         3.1408         2.4783       0.195000
       9418.50        65.1409         3.1008         2.4821       0.194700
       9419.00        66.4083         3.0554         2.4852       0.198600
       9419.50        71.3792         3.0205         2.4877       0.205100
       9420.00        71.9226         2.9815         2.4922       0.207900
       9420.50        70.3668         2.9609         2.4966       0.206800
       9421.00        64.9986         2.9247         2.4867       0.205200
       9421.50        58.1591         2.8082         2.4526       0.205900
       9422.00        55.4032         2.8248         2.4153       0.209800
       9422.50        57.4384         2.9175         2.4016       0.213500
       9423.00        67.0232         2.9542         2.4192       0.216400
       9423.50        76.8001         2.9559         2.4559       0.220100
       9424.00        76.6242         3.0094         2.4895       0.217100
       9424.50        76.4995         3.0646         2.5090       0.205300
       9425.00        73.6505         3.0944         2.5195       0.195200
       9425.50        73.5597         3.0875         2.5210       0.194900
       9426.00        74.1048         3.0603         2.5104       0.206400
       9426.50        76.5249         3.0241         2.4972       0.223900
       9427.00        78.2251         2.9785         2.4911       0.239900
       9427.50        81.2682         2.9032         2.4899       0.245100
       9428.00        84.6541         2.7959         2.4922       0.237500
       9428.50        86.4908         2.6380         2.5018       0.228200
       9429.00        85.9067         2.5818         2.5135       0.214600
       9429.50        81.2082         2.6828         2.5225       0.201300
       9430.00        76.6882         2.7526         2.5276       0.198800
       9430.50        71.8623         2.8070         2.5261       0.201300
       9431.00        72.4343         2.8380         2.5191       0.203400
       9431.50        73.2215         2.8878         2.5143       0.204700
       9432.00        69.1261         2.9523         2.5101       0.204700
       9432.50        72.7528         3.0205         2.5065       0.202000
       9433.00        67.8039         3.0707         2.5072       0.196000
       9433.50        65.5556         3.1396         2.5098       0.188100
       9434.00        62.5628         3.1969         2.5143       0.183200
       9434.50        60.2517         3.2391         2.5189       0.184200
       9435.00        59.7403         3.2636         2.5155       0.186600
       9435.50        59.4064         3.2672         2.5085       0.183700
       9436.00        61.5507         3.2719         2.5042       0.176100
       9436.50        61.3657         3.2634         2.5009       0.169600
       9437.00        58.6191         3.2331         2.4897       0.166700
       9437.50        57.3276         3.2106         2.4741       0.163800
       9438.00        55.5430         3.1928         2.4684       0.157900
       9438.50        51.3109         3.1907         2.4741       0.156000
       9439.00        49.0640         3.2362         2.4819       0.165700
       9439.50        49.8059         3.2294         2.4821       0.177200
       9440.00        52.2217         3.1588         2.4689       0.182100
       9440.50        55.0944         3.0992         2.4536       0.183300
       9441.00        54.2174         3.0555         2.4469       0.180800
       9441.50        54.5119         3.0270         2.4457       0.179500
       9442.00        55.9663         3.0013         2.4468       0.184300
       9442.50        57.6950         2.9493         2.4542       0.187800
       9443.00        60.4914         2.8872         2.4541       0.191100
       9443.50        59.0876         2.7898         2.4302       0.200900
       9444.00        57.1839         2.5961         2.3852       0.212000
       9444.50        51.1568         2.2166         2.3340       0.216900
       9445.00        45.4316         1.8872         2.2951       0.217600
       9445.50        42.6731         1.6758         2.2696       0.216000
       9446.00        38.4027         1.5465         2.2549       0.212200
       9446.50        37.2895         1.3599         2.2549       0.212500
       9447.00        40.8067         1.3495         2.2643       0.221200
       9447.50        42.4496         1.6705         2.2842       0.228900
       9448.00        43.4753         1.6130         2.3362       0.227000
       9448.50        54.4780         1.8535         2.4228       0.220400
       9449.00        68.0011         2.1906         2.5006       0.219500
       9449.50        75.0879         2.4066         2.5296       0.225600
       9450.00        80.6417         2.5615         2.5287       0.232700
       9450.50        79.5820         2.5938         2.5318       0.231800
