~Version Information Block
VERS .                  2.0:  CWLS LOG ASCII STANDARD - VERSION 2.0
WRAP .                   NO:  One line per depth step
~Well Information Block
#MNEM.UNIT        Data Type   Information
#---------- ----------------  -----------
STRT .FT             750.00:  START DEPTH
STOP .FT            8283.50:  STOP DEPTH
STEP .FT               0.50:  STEP
NULL .              -999.25:  NULL VALUE
COMP .                     :  COMPANY
WELL .               STA-20:  WELL
FLD  .                     :  FIELD
LOC  .                     :  LOCATION
CTRY .                     :  COUNTRY
STAT .                     :  STATE
CNTY .                     :  COUNTY
SRVC .                     :  SERVICE COMPANY
DATE .                     :  DATE
API  .                     :  API NUMBER
UWI  .                     :  UNIQUE WELL ID
~Curve Information Block
#MNEM.UNIT         API CODE   Curve Description
#---------- ----------------  -----------------
DEPTH.FT                   :  DEPTH
GR   .GAPI                 :  Gamma Ray
RT   .OHMM                 :  RESDE
RHOB .G/C3                 :  Bulk Density
NPHI .V/V                  :  Thermal Neutron Porosity (Ratio Method) in Selected Lithology
~Parameter Information Block
#MNEM.UNIT            Value   Description
#---------- ----------------  -----------
PROJECT.            SANTAN_FE:  
~Other Information Block
# 
~A       DEPTH             GR             RT           RHOB           NPHI 
# ...
       7223.50        70.8747         2.0950         2.5198       0.269800
       7224.00        70.2853         2.0254         2.4971       0.270000
       7224.50        68.4169         1.9833         2.4752       0.262400
       7225.00        66.3769         2.0014         2.4474       0.252500
       7225.50        67.1470         2.1175         2.4481       0.257800
       7226.00        69.4255         2.2166         2.4651       0.267500
       7226.50        72.5716         2.2386         2.4697       0.277500
       7227.00        73.7347         2.1745         2.4471       0.287500
       7227.50        73.8500         2.0500         2.3770       0.289900
       7228.00        71.3922         1.9790         2.3435       0.264900
       7228.50        63.9775         2.0073         2.3332       0.242500
       7229.00        56.5222         2.0923         2.3925       0.231300
       7229.50        52.3361         2.1960         2.4261       0.227600
       7230.00        56.3794         2.3743         2.4838       0.210500
       7230.50        61.3274         2.5346         2.5011       0.203200
       7231.00        64.4708         2.5577         2.5115       0.211600
       7231.50        61.3595         2.6104         2.5122       0.216400
       7232.00        55.8770         2.7555         2.4901       0.208900
       7232.50        50.5198         2.9327         2.4641       0.201100
       7233.00        46.2695         3.3023         2.4529       0.201300
       7233.50        44.9945         3.7433         2.4568       0.209500
       7234.00        45.2328         3.6591         2.4649       0.218700
       7234.50        48.4477         3.1463         2.4736       0.220000
       7235.00        50.7152         3.0412         2.4791       0.220000
       7235.50        52.7552         2.9134         2.4800       0.227600
       7236.00        53.7455         2.9100         2.4800       0.229800
       7236.50        54.9097         2.9190         2.4800       0.230000
       7237.00        54.7272         2.9200         2.4874       0.223800
       7237.50        54.6700         2.8975         2.4896       0.220500
       7238.00        54.6700         2.8045         2.4900       0.220000
       7238.50        55.0232         2.7153         2.4859       0.224900
       7239.00        55.4332         2.6950         2.4778       0.229300
       7239.50        57.2474         2.6731         2.4691       0.234000
       7240.00        59.9852         2.6620         2.4613       0.239200
       7240.50        62.8438         2.6514         2.4600       0.243100
       7241.00        63.9378         2.6275         2.4600       0.246400
       7241.50        64.4032         2.5415         2.4662       0.243200
       7242.00        65.5196         2.3878         2.4796       0.250600
       7242.50        69.2048         2.2580         2.5005       0.260100
       7243.00        73.2848         2.1758         2.5201       0.270400
       7243.50        75.6074         2.0976         2.5290       0.287700
       7244.00        74.4772         2.0575         2.5229       0.298600
       7244.50        72.8458         2.0504         2.5061       0.291400
       7245.00        72.2668         2.0049         2.5003       0.281400
       7245.50        73.6228         1.9555         2.5000       0.271400
       7246.00        74.9021         1.9480         2.5008       0.261400
       7246.50        75.4236         2.0429         2.5022       0.260000
       7247.00        75.1264         2.0923         2.4786       0.268600
       7247.50        75.0700         2.0920         2.4706       0.278600
       7248.00        75.0700         2.0664         2.4833       0.297300
       7248.50        75.7773         1.9951         2.4898       0.300000
       7249.00        76.9423         1.9803         2.4900       0.308600
       7249.50        77.4636         1.9800         2.4924       0.310000
       7250.00        77.5200         1.9367         2.4992       0.301400
       7250.50        77.8736         1.9305         2.4946       0.308600
       7251.00        80.0345         1.9380         2.4834       0.301400
       7251.50        81.4309         1.9312         2.4884       0.308100
       7252.00        80.8928         1.9264         2.5000       0.289300
       7252.50        79.3741         1.9063         2.5090       0.275600
       7253.00        79.5036         1.9229         2.5100       0.277500
       7253.50        80.2586         1.9449         2.5044       0.287700
       7254.00        80.0250         1.9432         2.5052       0.281000
       7254.50        77.1467         2.0021         2.5159       0.275300
       7255.00        71.0611         2.1864         2.5349       0.251900
       7255.50        62.7781         2.6225         2.5662       0.218100
       7256.00        53.5014         3.5843         2.6103       0.183200
       7256.50        46.2357         4.7050         2.6510       0.160000
       7257.00        41.7668         6.2433         2.6895       0.146400
       7257.50        40.5019         7.0605         2.6882       0.140700
       7258.00        41.7976         6.2826         2.6458       0.143700
       7258.50        44.1357         4.7436         2.5397       0.159700
       7259.00        45.8776         3.6435         2.4745       0.184200
       7259.50        48.2157         3.2229         2.4520       0.201500
       7260.00        52.0732         3.1001         2.4401       0.209100
       7260.50        56.5073         3.0201         2.4366       0.210000
       7261.00        59.2357         2.9224         2.4584       0.212700
       7261.50        59.9154         2.8899         2.4761       0.219000
       7262.00        59.9700         2.8356         2.4723       0.220000
       7262.50        58.2152         2.8190         2.4454       0.217800
       7263.00        55.1128         2.8494         2.4137       0.211000
       7263.50        50.0877         2.8285         2.4021       0.211900
       7264.00        46.1970         2.7801         2.4089       0.218900
       7264.50        43.5818         2.7368         2.4100       0.220000
       7265.00        44.3048         2.7297         2.4072       0.218600
       7265.50        46.5882         2.6680         2.4043       0.211200
       7266.00        49.7385         2.6303         2.4134       0.211100
       7266.50        52.2982         2.5810         2.4338       0.218800
       7267.00        54.3937         2.5264         2.4703       0.220800
       7267.50        58.1975         2.4447         2.5006       0.230000
       7268.00        63.6868         2.2934         2.5094       0.247900
       7268.50        70.8147         2.0691         2.5026       0.259300
       7269.00        75.6833         1.8656         2.5082       0.277300
       7269.50        76.6445         1.8400         2.5183       0.279900
       7270.00        74.2359         1.9108         2.5197       0.270200
       7270.50        70.3188         2.1781         2.5105       0.257100
       7271.00        65.5284         2.4976         2.4989       0.236000
       7271.50        59.2175         2.7076         2.4860       0.217600
       7272.00        53.3973         2.8408         2.4510       0.210600
       7272.50        49.8081         2.8341         2.4421       0.204300
       7273.00        51.8370         2.7734         2.4400       0.207000
       7273.50        55.0506         2.7152         2.4476       0.209800
       7274.00        59.7229         2.6441         2.4740       0.227100
       7274.50        61.7910         2.5556         2.4786       0.231600
       7275.00        64.4857         2.4618         2.4756       0.247900
       7275.50        65.9261         2.3445         2.4710       0.252700
       7276.00        69.6217         2.1931         2.4703       0.262800
       7276.50        74.7665         2.0681         2.4769       0.273900
