~Version Information Block
VERS .                  2.0:  CWLS LOG ASCII STANDARD - VERSION 2.0
WRAP .                   NO:  One line per depth step
~Well Information Block
#MNEM.UNIT        Data Type   Information
#---------- ----------------  -----------
STRT .FT            6114.50:  START DEPTH
STOP .FT           14965.50:  STOP DEPTH
STEP .FT               0.50:  STEP
NULL .              -999.25:  NULL VALUE
COMP .                     :  COMPANY
WELL .               STA-36:  WELL
FLD  .                     :  FIELD
LOC  .                     :  LOCATION
CTRY .                     :  COUNTRY
STAT .                     :  STATE
CNTY .                     :  COUNTY
SRVC .                     :  SERVICE COMPANY
DATE .                     :  DATE
API  .                     :  API NUMBER
UWI  .                     :  UNIQUE WELL ID
~Curve Information Block
#MNEM.UNIT         API CODE   Curve Description
#---------- ----------------  -----------------
DEPTH.FT                   :  Depth
GR   .GAPI                 :  Gamma Ray
RT   .OHMM                 :  True Resistivity
RHOB .G/C3                 :  Bulk Density
NPHI .V/V                  :  Neutron Porosity
~Parameter Information Block
#MNEM.UNIT            Value   Description
#---------- ----------------  -----------
PROJECT.            SANTAN_FE:  
~Other Information Block
# 
~A       DEPTH             GR             RT           RHOB           NPHI 
# ...
       7291.50        21.0602         8.6555         2.4723       0.189300
       7292.00        23.3605         7.8076         2.4604       0.198500
       7292.50        24.4265         7.7738         2.4630       0.209700
       7293.00        27.9635         7.4596         2.4607       0.229600
       7293.50        30.9849         7.2945         2.4382       0.249800
       7294.00        35.2925         6.4036         2.4190       0.250500
       7294.50        37.2096         5.1156         2.4282       0.233600
       7295.00        34.4034         5.3328         2.4524       0.214400
       7295.50        31.4956         5.9995         2.4700       0.202200
       7296.00        34.9039         5.9109         2.4795       0.200800
       7296.50        38.9755         5.6260         2.4915       0.205800
       7297.00        39.3216         4.4852         2.5162       0.206700
       7297.50        36.9112         4.9024         2.5459       0.202200
       7298.00        34.6867         6.5078         2.5566       0.195400
       7298.50        34.2364         6.4998         2.5524       0.185300
       7299.00        32.3098         5.6528         2.5470       0.169600
       7299.50        31.4556         5.4787         2.5524       0.156600
       7300.00        28.3183         5.9645         2.5797       0.155800
       7300.50        32.3018         5.5304         2.6049       0.164700
       7301.00        34.4320         5.3316         2.6017       0.173700
       7301.50        37.6878         5.3993         2.5810       0.181700
       7302.00        37.1121         5.4562         2.5714       0.187400
       7302.50        41.1302         5.3824         2.5808       0.190100
       7303.00        39.9701         5.3269         2.5917       0.192200
       7303.50        41.5481         5.3104         2.5929       0.191600
       7304.00        44.4586         5.5084         2.5820       0.187900
       7304.50        44.8214         5.4974         2.5669       0.190800
       7305.00        43.3528         4.8232         2.5558       0.207400
       7305.50        47.6579         4.1270         2.5449       0.233400
       7306.00        48.0217         4.0889         2.5320       0.262400
       7306.50        48.9395         3.9768         2.5150       0.288500
       7307.00        49.6640         3.8192         2.4957       0.301700
       7307.50        50.2324         3.6753         2.4848       0.304400
       7308.00        49.8816         3.3859         2.4795       0.300900
       7308.50        45.4165         3.4665         2.4655       0.291500
       7309.00        40.7468         3.6143         2.4422       0.287800
       7309.50        38.3744         3.3886         2.4091       0.300500
       7310.00        37.6624         3.3729         2.3553       0.314200
       7310.50        38.4749         3.3216         2.2893       0.311700
       7311.00        36.7363         3.2630         2.2409       0.304000
       7311.50        38.9151         3.1582         2.2173       0.313500
       7312.00        40.2519         3.0527         2.2087       0.334800
       7312.50        42.1504         2.9770         2.2025       0.345100
       7313.00        45.3367         2.8773         2.2005       0.340500
       7313.50        50.1388         2.7616         2.2073       0.335700
       7314.00        57.0636         2.5453         2.2224       0.336400
       7314.50        61.4658         2.4212         2.2492       0.333200
       7315.00        66.0820         2.3721         2.2865       0.327000
       7315.50        71.6466         2.2610         2.3230       0.328600
       7316.00        74.8396         2.0819         2.3514       0.341000
       7316.50        77.0418         1.9332         2.3697       0.358800
       7317.00        78.5754         1.8874         2.3779       0.371800
       7317.50        78.7856         1.9388         2.3788       0.373600
       7318.00        80.7540         1.8751         2.3783       0.372000
       7318.50        79.5130         1.8331         2.3801       0.379900
       7319.00        82.4914         1.7954         2.3807       0.392000
       7319.50        81.9870         1.7492         2.3784       0.403700
       7320.00        80.7906         1.7448         2.3789       0.411800
       7320.50        82.7185         1.7065         2.3847       0.411600
       7321.00        84.2204         1.7081         2.3921       0.407500
       7321.50        86.7982         1.6708         2.3993       0.410300
       7322.00        85.4823         1.6387         2.4009       0.414000
       7322.50        84.2573         1.6233         2.3973       0.410500
       7323.00        86.9750         1.6416         2.3959       0.410200
       7323.50        87.4516         1.6662         2.3962       0.415700
       7324.00        88.3966         1.6926         2.3979       0.416300
       7324.50        84.8268         1.7002         2.4003       0.410300
       7325.00        87.7346         1.7169         2.3987       0.402900
       7325.50        88.6518         1.7234         2.3967       0.401100
       7326.00        92.1942         1.6824         2.3998       0.408600
       7326.50        91.4353         1.6010         2.4053       0.417300
       7327.00        90.2372         1.5426         2.4114       0.422900
       7327.50        91.2401         1.4959         2.4143       0.427100
       7328.00        89.6580         1.4605         2.4154       0.427600
       7328.50        89.8551         1.4344         2.4186       0.422700
       7329.00        89.2086         1.4444         2.4233       0.414400
       7329.50        82.1513         1.5588         2.4254       0.400600
       7330.00        72.7659         1.8037         2.4235       0.379800
       7330.50        71.8899         2.2191         2.4161       0.361800
       7331.00        79.4744         2.3599         2.4017       0.356700
       7331.50        82.6716         2.1420         2.3758       0.371300
       7332.00        83.6351         2.2689         2.3191       0.408000
       7332.50        82.8020         2.8517         2.2137       0.453300
       7333.00        81.6199         3.8815         2.0919       0.485900
       7333.50        83.6274         4.4733         2.0033       0.491600
       7334.00        87.9319         4.1733         1.9683       0.482500
       7334.50        94.6598         2.7764         1.9977       0.462800
       7335.00       100.4984         1.9048         2.0920       0.426800
       7335.50       105.3117         1.6193         2.2303       0.398900
       7336.00       112.5347         1.4039         2.3435       0.394300
       7336.50       108.4670         1.5035         2.3794       0.399200
       7337.00       105.5107         1.8671         2.3738       0.405000
       7337.50       108.5020         1.8717         2.3623       0.413400
       7338.00       102.8348         2.0093         2.3565       0.413000
       7338.50        93.1443         2.2091         2.3604       0.395000
       7339.00        81.6272         2.3587         2.3678       0.370400
       7339.50        71.8371         2.5435         2.3598       0.345600
       7340.00        66.8422         2.6348         2.3286       0.318300
       7340.50        57.9397         2.6661         2.2791       0.298200
       7341.00        57.4190         2.7001         2.2314       0.293000
       7341.50        50.8770         2.7356         2.1973       0.294900
       7342.00        47.5140         2.7351         2.1850       0.293200
       7342.50        46.7602         2.7123         2.1896       0.290600
       7343.00        46.5215         2.6944         2.2029       0.298000
       7343.50        48.5155         2.6491         2.2173       0.308800
       7344.00        49.0716         2.6048         2.2292       0.311500
       7344.50        50.9610         2.5483         2.2394       0.311900
