~Version Information Block
VERS .                  2.0:  CWLS LOG ASCII STANDARD - VERSION 2.0
WRAP .                   NO:  One line per depth step
~Well Information Block
#MNEM.UNIT        Data Type   Information
#---------- ----------------  -----------
STRT .FT            6091.50:  START DEPTH
STOP .FT           14295.50:  STOP DEPTH
STEP .FT               0.50:  STEP
NULL .              -999.25:  NULL VALUE
COMP .                     :  COMPANY
WELL .               STA-35:  WELL
FLD  .                     :  FIELD
LOC  .                     :  LOCATION
CTRY .                     :  COUNTRY
STAT .                     :  STATE
CNTY .                     :  COUNTY
SRVC .                     :  SERVICE COMPANY
DATE .                     :  DATE
API  .                     :  API NUMBER
UWI  .                     :  UNIQUE WELL ID
~Curve Information Block
#MNEM.UNIT         API CODE   Curve Description
#---------- ----------------  -----------------
DEPTH.FT                   :  Depth
GR   .GAPI                 :  Gamma Ray
RT   .OHMM                 :  True Resistivity
RHOB .G/C3                 :  Bulk Density
NPHI .V/V                  :  Neutron Porosity
~Parameter Information Block
#MNEM.UNIT            Value   Description
#---------- ----------------  -----------
PROJECT.            SANTAN_FE:  
~Other Information Block
# 
~A       DEPTH             GR             RT           RHOB           NPHI 
# ...
       7696.50        47.3590         1.4020         2.2080       0.387700
       7697.00        46.9179         1.4484         2.2159       0.392400
       7697.50        45.5404         1.5043         2.2122       0.391700
       7698.00        47.5136         1.5223         2.1952       0.385200
       7698.50        46.4218         1.5459         2.1781       0.380400
       7699.00        45.5218         1.5802         2.1695       0.377100
       7699.50        46.0768         1.6004         2.1640       0.373100
       7700.00        49.2065         1.6055         2.1559       0.372100
       7700.50        49.3170         1.6199         2.1511       0.378600
       7701.00        49.7201         1.6511         2.1548       0.384800
       7701.50        50.1877         1.6678         2.1648       0.385700
       7702.00        48.4497         1.6580         2.1728       0.387400
       7702.50        48.6672         1.6479         2.1727       0.383500
       7703.00        50.0803         1.6392         2.1683       0.367500
       7703.50        51.0032         1.6198         2.1699       0.361200
       7704.00        52.0038         1.5839         2.1794       0.373500
       7704.50        53.1244         1.5011         2.1889       0.387000
       7705.00        51.1839         1.4365         2.1920       0.395000
       7705.50        51.9727         1.4058         2.1892       0.399700
       7706.00        51.4927         1.4060         2.1852       0.397400
       7706.50        53.5285         1.4051         2.1800       0.388600
       7707.00        52.1457         1.3751         2.1762       0.377200
       7707.50        53.2891         1.3198         2.1767       0.362900
       7708.00        49.8038         1.2760         2.1830       0.341200
       7708.50        50.0253         1.3110         2.2080       0.322900
       7709.00        54.9641         1.3417         2.2490       0.345800
       7709.50        59.1902         1.2932         2.2858       0.391700
       7710.00        59.9511         1.2619         2.2925       0.405400
       7710.50        59.6810         1.2618         2.2761       0.397000
       7711.00        57.9281         1.2699         2.2637       0.402300
       7711.50        58.4656         1.2871         2.2610       0.419600
       7712.00        61.0717         1.3087         2.2602       0.424600
       7712.50        64.5341         1.3492         2.2591       0.410900
       7713.00        65.7517         1.3827         2.2612       0.390000
       7713.50        66.3743         1.3746         2.2685       0.383000
       7714.00        65.9592         1.3243         2.2771       0.399700
       7714.50        65.8334         1.2550         2.2862       0.416700
       7715.00        65.6610         1.2139         2.2976       0.409800
       7715.50        65.0218         1.1980         2.3005       0.403700
       7716.00        63.6258         1.1825         2.2892       0.416700
       7716.50        62.8686         1.1728         2.2753       0.424600
       7717.00        66.8453         1.1738         2.2635       0.411700
       7717.50        66.3290         1.1768         2.2519       0.404700
       7718.00        65.6473         1.1830         2.2421       0.408400
       7718.50        65.9882         1.1774         2.2361       0.405100
       7719.00        69.0674         1.1643         2.2321       0.406100
       7719.50        69.8253         1.1587         2.2326       0.421500
       7720.00        74.4992         1.1469         2.2384       0.430900
       7720.50        74.1296         1.1392         2.2451       0.427000
       7721.00        74.2050         1.1312         2.2491       0.419000
       7721.50        73.1830         1.1404         2.2510       0.417900
       7722.00        73.5094         1.1498         2.2512       0.430700
       7722.50        73.3531         1.1539         2.2527       0.439900
       7723.00        73.9692         1.1411         2.2581       0.433700
       7723.50        72.5350         1.1204         2.2607       0.426400
       7724.00        74.1380         1.0868         2.2534       0.425900
       7724.50        76.5674         1.0707         2.2421       0.426300
       7725.00        77.2448         1.0829         2.2364       0.428400
       7725.50        72.8757         1.1078         2.2378       0.431400
       7726.00        69.4358         1.1351         2.2414       0.434400
       7726.50        69.7848         1.1318         2.2436       0.441300
       7727.00        67.8623         1.1321         2.2454       0.442800
       7727.50        69.7613         1.1827         2.2502       0.421200
       7728.00        70.4143         1.2168         2.2577       0.393800
       7728.50        68.1610         1.2323         2.2625       0.391200
       7729.00        64.2352         1.2458         2.2645       0.403300
       7729.50        63.8487         1.2537         2.2634       0.409500
       7730.00        66.4769         1.2667         2.2586       0.411600
       7730.50        67.9416         1.2750         2.2541       0.411100
       7731.00        72.3701         1.2883         2.2559       0.407600
       7731.50        70.4736         1.2985         2.2633       0.407500
       7732.00        70.1263         1.3035         2.2699       0.400800
       7732.50        65.4226         1.3221         2.2691       0.388000
       7733.00        66.3573         1.3352         2.2621       0.395300
       7733.50        67.7574         1.3349         2.2572       0.412300
       7734.00        67.5464         1.3453         2.2585       0.418500
       7734.50        64.9910         1.3566         2.2609       0.418300
       7735.00        67.4789         1.3485         2.2582       0.408100
       7735.50        64.1913         1.3367         2.2559       0.390100
       7736.00        64.2172         1.3315         2.2589       0.378100
       7736.50        66.0744         1.3425         2.2603       0.380400
       7737.00        70.1189         1.3318         2.2573       0.392300
       7737.50        68.9877         1.3190         2.2547       0.398100
       7738.00        67.6010         1.2899         2.2534       0.392000
       7738.50        69.9069         1.2737         2.2506       0.385000
       7739.00        70.0476         1.2756         2.2472       0.388300
       7739.50        68.9092         1.2728         2.2456       0.402500
       7740.00        70.9194         1.2816         2.2436       0.419000
       7740.50        71.0307         1.2717         2.2394       0.430200
       7741.00        71.2468         1.2589         2.2377       0.432300
       7741.50        73.6699         1.2571         2.2430       0.417800
       7742.00        74.4491         1.2366         2.2493       0.392800
       7742.50        67.1270         1.2211         2.2510       0.378700
       7743.00        71.2402         1.2035         2.2534       0.386800
       7743.50        72.6461         1.2009         2.2601       0.405700
       7744.00        74.0227         1.1918         2.2637       0.414000
       7744.50        71.3970         1.1854         2.2613       0.413200
       7745.00        68.5929         1.1838         2.2587       0.416400
       7745.50        69.5435         1.1724         2.2564       0.421300
       7746.00        69.1695         1.1631         2.2517       0.414000
       7746.50        66.8086         1.1614         2.2446       0.401900
       7747.00        68.5537         1.1652         2.2379       0.399300
       7747.50        65.6571         1.1664         2.2322       0.396200
       7748.00        66.3975         1.1640         2.2233       0.386600
       7748.50        68.5820         1.1508         2.2134       0.390300
       7749.00        69.3157         1.1273         2.2117       0.416000
       7749.50        67.4508         1.1089         2.2172       0.448700
