~Version Information Block
VERS .                  2.0:  CWLS LOG ASCII STANDARD - VERSION 2.0
WRAP .                   NO:  One line per depth step
~Well Information Block
#MNEM.UNIT        Data Type   Information
#---------- ----------------  -----------
STRT .FT            6091.50:  START DEPTH
STOP .FT           14295.50:  STOP DEPTH
STEP .FT               0.50:  STEP
NULL .              -999.25:  NULL VALUE
COMP .                     :  COMPANY
WELL .               STA-35:  WELL
FLD  .                     :  FIELD
LOC  .                     :  LOCATION
CTRY .                     :  COUNTRY
STAT .                     :  STATE
CNTY .                     :  COUNTY
SRVC .                     :  SERVICE COMPANY
DATE .                     :  DATE
API  .                     :  API NUMBER
UWI  .                     :  UNIQUE WELL ID
~Curve Information Block
#MNEM.UNIT         API CODE   Curve Description
#---------- ----------------  -----------------
DEPTH.FT                   :  Depth
GR   .GAPI                 :  Gamma Ray
RT   .OHMM                 :  True Resistivity
RHOB .G/C3                 :  Bulk Density
NPHI .V/V                  :  Neutron Porosity
~Parameter Information Block
#MNEM.UNIT            Value   Description
#---------- ----------------  -----------
PROJECT.            SANTAN_FE:  
~Other Information Block
# 
~A       DEPTH             GR             RT           RHOB           NPHI 
# ...
      10425.00        99.3058         1.6417         2.5574       0.313200
      10425.50        99.3125         1.6961         2.5390       0.311600
      10426.00       102.1641         1.7606         2.5263       0.298400
      10426.50       102.0209         1.9052         2.5195       0.282400
      10427.00       100.7712         1.9984         2.5229       0.259800
      10427.50        89.3258         2.1627         2.5300       0.230900
      10428.00        74.5502         2.5477         2.5305       0.205900
      10428.50        65.3311         2.9327         2.5334       0.195600
      10429.00        61.1728         3.0448         2.5380       0.195200
      10429.50        58.5046         3.1567         2.5319       0.196600
      10430.00        57.0724         3.1820         2.5186       0.195000
      10430.50        53.8946         3.2062         2.5176       0.193900
      10431.00        58.8874         3.2459         2.5288       0.198100
      10431.50        59.6319         3.2218         2.5342       0.202400
      10432.00        59.1731         3.1179         2.5348       0.202300
      10432.50        63.8580         2.9741         2.5438       0.205100
      10433.00        67.4830         2.8008         2.5502       0.218100
      10433.50        73.3764         2.5330         2.5413       0.235000
      10434.00        81.3418         2.3081         2.5345       0.249200
      10434.50        82.5042         2.1905         2.5419       0.260300
      10435.00        87.2929         1.9653         2.5512       0.276800
      10435.50        95.8819         1.7606         2.5534       0.291500
      10436.00        92.8347         1.6818         2.5496       0.286300
      10436.50        97.6824         1.7723         2.5474       0.262100
      10437.00        82.5634         2.0919         2.5567       0.238000
      10437.50        70.3387         2.3767         2.5703       0.215000
      10438.00        56.3439         2.5783         2.5651       0.190300
      10438.50        48.2046         2.7503         2.5375       0.170800
      10439.00        41.1404         2.9031         2.5064       0.165700
      10439.50        37.9371         2.6703         2.4809       0.179600
      10440.00        40.6382         2.3836         2.4493       0.200300
      10440.50        40.2377         2.3096         2.4145       0.206200
      10441.00        45.9683         2.3518         2.3968       0.200000
      10441.50        50.2284         2.4476         2.3995       0.198300
      10442.00        53.7397         2.5459         2.4072       0.195900
      10442.50        55.8493         2.6338         2.4159       0.190200
      10443.00        64.4101         2.6947         2.4369       0.194700
      10443.50        72.9826         2.6262         2.4784       0.210600
      10444.00        80.5850         2.4904         2.5267       0.227300
      10444.50        84.8585         2.3911         2.5438       0.238000
      10445.00        84.4919         2.4725         2.5369       0.244300
      10445.50        88.0583         2.4691         2.5307       0.249100
      10446.00        85.6549         2.3983         2.5265       0.250900
      10446.50        85.5227         2.3009         2.5269       0.253800
      10447.00        91.4033         2.1450         2.5377       0.266500
      10447.50        91.1844         2.0001         2.5485       0.278200
      10448.00        89.7080         2.0329         2.5501       0.271700
      10448.50        87.4550         2.1230         2.5452       0.261000
      10449.00        83.5234         2.1665         2.5384       0.257900
      10449.50        85.3979         2.1846         2.5343       0.250700
      10450.00        82.5423         2.3625         2.5366       0.233200
      10450.50        76.1491         2.5504         2.5430       0.222500
      10451.00        71.8820         2.5522         2.5450       0.225800
      10451.50        75.0431         2.4618         2.5355       0.237000
      10452.00        81.6038         2.2850         2.5242       0.244800
      10452.50        82.9395         2.1344         2.5243       0.245000
      10453.00        86.9583         2.1404         2.5318       0.241200
      10453.50        87.1356         2.2567         2.5317       0.238300
      10454.00        81.1786         2.3892         2.5283       0.236000
      10454.50        74.5434         2.5113         2.5308       0.231600
      10455.00        75.0927         2.5009         2.5304       0.225300
      10455.50        78.9620         2.5149         2.5229       0.219500
      10456.00        77.0186         2.5734         2.5141       0.219200
      10456.50        69.8309         2.6072         2.5119       0.220700
      10457.00        69.3633         2.6381         2.5160       0.218300
      10457.50        66.7813         2.6570         2.5214       0.214900
      10458.00        67.0667         2.6612         2.5299       0.215900
      10458.50        70.6335         2.6091         2.5415       0.223700
      10459.00        78.0691         2.5287         2.5487       0.237800
      10459.50        79.7145         2.4004         2.5462       0.251500
      10460.00        82.8038         2.2823         2.5418       0.261900
      10460.50        86.9830         2.0528         2.5395       0.276400
      10461.00        91.6591         1.9075         2.5436       0.293800
      10461.50        89.8458         1.7974         2.5512       0.301700
      10462.00        90.2247         1.8136         2.5601       0.297200
      10462.50        90.7997         1.8810         2.5689       0.284500
      10463.00        91.9349         1.9076         2.5673       0.262300
      10463.50        87.7527         2.1282         2.5603       0.236700
      10464.00        75.1198         2.4926         2.5532       0.220400
      10464.50        66.8836         2.7302         2.5260       0.214200
      10465.00        64.6289         2.7541         2.4912       0.210800
      10465.50        67.1454         2.7785         2.4799       0.207700
      10466.00        62.7045         2.8197         2.4978       0.207200
      10466.50        62.8195         2.8667         2.5235       0.209900
      10467.00        62.5354         2.8528         2.5372       0.217300
      10467.50        68.1875         2.7893         2.5410       0.225400
      10468.00        70.2406         2.7285         2.5437       0.222700
      10468.50        72.9199         2.6889         2.5490       0.216300
      10469.00        71.1713         2.6641         2.5545       0.221100
      10469.50        75.8361         2.6094         2.5508       0.228400
      10470.00        79.5579         2.5209         2.5409       0.230100
      10470.50        80.0309         2.4509         2.5400       0.234300
      10471.00        81.6315         2.3759         2.5485       0.245300
      10471.50        82.0412         2.2850         2.5535       0.261700
      10472.00        82.5685         2.1851         2.5517       0.276900
      10472.50        86.8259         2.0676         2.5497       0.279400
      10473.00        90.1966         1.9664         2.5529       0.271600
      10473.50        91.7618         1.9142         2.5588       0.266500
      10474.00        87.0837         1.8481         2.5635       0.267600
      10474.50        87.5752         1.7752         2.5684       0.268700
      10475.00        88.9373         1.8067         2.5717       0.272000
      10475.50        86.5657         1.8493         2.5684       0.274700
      10476.00        86.5207         1.9189         2.5648       0.268000
      10476.50        85.5682         1.9867         2.5679       0.253200
      10477.00        83.7438         2.2109         2.5699       0.230500
      10477.50        78.3231         2.5807         2.5692       0.205100
      10478.00        69.5269         2.9890         2.5737       0.182300
