~Version Information Block
VERS .                  2.0:  CWLS LOG ASCII STANDARD - VERSION 2.0
WRAP .                   NO:  One line per depth step
~Well Information Block
#MNEM.UNIT        Data Type   Information
#---------- ----------------  -----------
STRT .FT            5000.50:  START DEPTH
STOP .FT           14504.00:  STOP DEPTH
STEP .FT               0.50:  STEP
NULL .              -999.25:  NULL VALUE
COMP .                     :  COMPANY
WELL .               STA-18:  WELL
FLD  .                     :  FIELD
LOC  .                     :  LOCATION
CTRY .                     :  COUNTRY
STAT .                     :  STATE
CNTY .                     :  COUNTY
SRVC .                     :  SERVICE COMPANY
DATE .                     :  DATE
API  .                     :  API NUMBER
UWI  .                     :  UNIQUE WELL ID
~Curve Information Block
#MNEM.UNIT         API CODE   Curve Description
#---------- ----------------  -----------------
DEPTH.FT                   :  DEPTH
GR   .GAPI                 :  Gamma Ray
RT   .OHMM                 :  SEDP
RHOB .G/C3                 :  Bulk Density
NPHI .V/V                  :  Neutron porosity
~Parameter Information Block
#MNEM.UNIT            Value   Description
#---------- ----------------  -----------
PROJECT.            SANTAN_FE:  
~Other Information Block
# 
~A       DEPTH             GR             RT           RHOB           NPHI 
# ...
       5696.00        51.6696         3.6200         2.3765       0.288400
       5696.50        51.2238         3.5600         2.4482       0.302600
       5697.00        49.0228         3.5000         2.4766       0.313500
       5697.50        38.9191         3.5500         2.4800       0.309000
       5698.00        34.6459         3.8500         2.4634       0.289600
       5698.50        33.6189         4.0300         2.4517       0.274400
       5699.00        34.6076         3.9100         2.3837       0.275600
       5699.50        37.5702         3.7100         2.3700       0.299100
       5700.00        40.2289         3.4900         2.3700       0.332400
       5700.50        42.7619         3.1900         2.3451       0.344200
       5701.00        46.3638         2.8900         2.3152       0.345400
       5701.50        50.0310         2.7700         2.2769       0.355700
       5702.00        51.2139         2.8700         2.2369       0.380000
       5702.50        47.7920         3.1800         2.2134       0.400100
       5703.00        39.5086         3.5700         2.2762       0.390900
       5703.50        32.1372         3.8100         2.2817       0.321500
       5704.00        30.1423         3.8000         2.2800       0.274700
       5704.50        34.1649         3.5500         2.3462       0.267300
       5705.00        36.2701         3.2500         2.4344       0.288100
       5705.50        36.4304         2.9100         2.4252       0.341900
       5706.00        36.3842         2.6000         2.3374       0.401300
       5706.50        38.5959         2.5300         2.2870       0.427200
       5707.00        43.9352         2.5200         2.2635       0.412000
       5707.50        50.3172         2.4400         2.2600       0.379200
       5708.00        51.3919         2.4200         2.2600       0.363400
       5708.50        44.8862         2.4400         2.2517       0.362100
       5709.00        45.3725         2.3000         2.2418       0.360500
       5709.50        52.0122         2.0900         2.2400       0.377100
       5710.00        55.7563         1.9700         2.2482       0.393200
       5710.50        56.1111         1.8800         2.2500       0.387400
       5711.00        57.6453         1.8000         2.2665       0.369100
       5711.50        60.9436         1.7200         2.2865       0.356100
       5712.00        68.4415         1.6500         2.2900       0.352900
       5712.50        80.3505         1.6200         2.2735       0.363700
       5713.00        89.0416         1.6000         2.2535       0.370000
       5713.50        87.8795         1.5800         2.2418       0.374300
       5714.00        78.9203         1.5700         2.2318       0.373900
       5714.50        75.5703         1.5600         2.2382       0.358500
       5715.00        82.8230         1.5600         2.2400       0.363300
       5715.50        85.3159         1.5600         2.2482       0.369900
       5716.00        79.1325         1.5600         2.2418       0.371700
       5716.50        72.7160         1.5700         2.2400       0.371900
       5717.00        64.2560         1.5800         2.2318       0.364600
       5717.50        70.0394         1.6000         2.2218       0.357000
       5718.00        76.6564         1.6400         2.2118       0.360800
       5718.50        71.9339         1.6700         2.2100       0.370800
       5719.00        70.9298         1.7000         2.2264       0.381300
       5719.50        69.6323         1.7200         2.2382       0.374000
       5720.00        69.8883         1.7500         2.2728       0.356100
       5720.50        68.0362         1.7700         2.3046       0.341700
       5721.00        67.7716         1.8000         2.3100       0.336300
       5721.50        67.4746         1.8200         2.3100       0.339100
       5722.00        73.2415         1.8400         2.3100       0.350500
       5722.50        77.5441         1.8400         2.3182       0.351400
       5723.00        77.5085         1.8400         2.3200       0.338800
       5723.50        75.6933         1.8400         2.3200       0.325800
       5724.00        72.5635         1.8400         2.3118       0.326900
       5724.50        68.2038         1.8200         2.3018       0.334600
       5725.00        69.7260         1.8100         2.3000       0.333100
       5725.50        67.4424         1.8000         2.3000       0.340800
       5726.00        70.4953         1.8000         2.3000       0.361700
       5726.50        67.3258         1.7900         2.2837       0.389100
       5727.00        72.1315         1.7800         2.2800       0.379500
       5727.50        72.4837         1.7700         2.2882       0.362700
       5728.00        70.0183         1.7800         2.3063       0.381400
       5728.50        71.2482         1.7800         2.3018       0.392500
       5729.00        76.2506         1.7600         2.2918       0.384000
       5729.50        82.0512         1.7400         2.3226       0.389800
       5730.00        84.2606         1.7300         2.3382       0.408700
       5730.50        83.0350         1.7200         2.3319       0.421100
       5731.00        81.0903         1.7300         2.3137       0.418900
       5731.50        77.1008         1.7200         2.2937       0.409000
       5732.00        77.9093         1.7100         2.2819       0.405500
       5732.50        80.3439         1.7000         2.2800       0.407900
       5733.00        80.7539         1.6800         2.2800       0.416000
       5733.50        81.0496         1.6800         2.2800       0.421400
       5734.00        79.4762         1.6800         2.2963       0.430300
       5734.50        77.6954         1.6900         2.3000       0.421000
       5735.00        78.5567         1.6900         2.3000       0.382900
       5735.50        77.8228         1.6800         2.3000       0.348400
       5736.00        74.8226         1.6700         2.3000       0.336700
       5736.50        78.0103         1.6600         2.3000       0.341400
       5737.00        82.2421         1.6400         2.3000       0.355100
       5737.50        87.9081         1.6200         2.3000       0.400200
       5738.00        87.8399         1.6000         2.3000       0.426000
       5738.50        89.7590         1.5800         2.3000       0.425800
       5739.00        89.6907         1.5700         2.2838       0.420300
       5739.50        84.3192         1.5600         2.2800       0.423200
       5740.00        92.1154         1.5200         2.2881       0.440500
       5740.50        95.3011         1.4800         2.3143       0.447100
       5741.00        93.8567         1.4400         2.3362       0.445300
       5741.50        88.4541         1.4100         2.3562       0.454800
       5742.00        91.9741         1.3900         2.3519       0.460700
       5742.50        99.0082         1.4200         2.3257       0.439800
       5743.00        98.8559         1.4300         2.3200       0.422900
       5743.50        96.9452         1.4400         2.3119       0.415900
       5744.00        97.7333         1.5100         2.3019       0.426800
       5744.50        95.6255         1.7000         2.3000       0.429200
       5745.00        83.4788         1.9600         2.3000       0.399900
       5745.50        75.1532         2.1300         2.3000       0.365600
       5746.00        71.2999         2.3000         2.3242       0.334300
       5746.50        66.7638         2.4600         2.3461       0.302200
       5747.00        60.1795         2.3800         2.3500       0.272100
       5747.50        60.2047         2.2400         2.3500       0.259100
       5748.00        57.6446         2.1500         2.3500       0.267700
       5748.50        48.6608         2.1300         2.3419       0.282700
       5749.00        51.1943         2.1100         2.3319       0.300500
