~Version Information Block
VERS .                  2.0:  CWLS LOG ASCII STANDARD - VERSION 2.0
WRAP .                   NO:  One line per depth step
~Well Information Block
#MNEM.UNIT        Data Type   Information
#---------- ----------------  -----------
STRT .FT             350.00:  START DEPTH
STOP .FT           16021.50:  STOP DEPTH
STEP .FT               0.50:  STEP
NULL .              -999.25:  NULL VALUE
COMP .                     :  COMPANY
WELL .               STA-30:  WELL
FLD  .                     :  FIELD
LOC  .                     :  LOCATION
CTRY .                     :  COUNTRY
STAT .                     :  STATE
CNTY .                     :  COUNTY
SRVC .                     :  SERVICE COMPANY
DATE .                     :  DATE
API  .                     :  API NUMBER
UWI  .                     :  UNIQUE WELL ID
~Curve Information Block
#MNEM.UNIT         API CODE   Curve Description
#---------- ----------------  -----------------
DEPTH.FT                   :  
GR   .GAPI                 :  Merged RAW_LOG.GR_17P_1 with RAW_LOG.GR_12P_1 and RAW_LOG.GR_8P_1 and RAW_LOG.GR_6P_1 at 1127.75, 5954.49, 11516.11 F
RT   .OHMM                 :  RT_1 Depth Shifted (Shift Pairs in MATCH_RT set)
RHOB .G/C3                 :  RHOB_1 Depth Shifted (Shift Pairs in MATCH_RHOB set)
NPHI .V/V                  :  NPHI_1 Depth Shifted (Shift Pairs in MATCH_NPHI set)
~Parameter Information Block
#MNEM.UNIT            Value   Description
#---------- ----------------  -----------
PROJECT.            SANTAN_FE:  
~Other Information Block
# 
~A       DEPTH             GR             RT           RHOB           NPHI 
# ...
       6663.00        76.0119         2.1012         2.3024       0.377007
       6663.50        78.1165         2.1001         2.2997       0.374163
       6664.00        74.3358         2.1374         2.2991       0.380759
       6664.50        73.8440         2.1243         2.2988       0.384628
       6665.00        75.5228         2.1096         2.2926       0.388440
       6665.50        74.2118         2.0974         2.2799       0.401315
       6666.00        70.8850         2.0936         2.2654       0.407569
       6666.50        71.9420         2.0865         2.2516       0.399651
       6667.00        70.1420         2.0463         2.2365       0.396563
       6667.50        70.0470         1.9790         2.2217       0.404505
       6668.00        67.8595         1.9481         2.2098       0.416607
       6668.50        67.3232         1.9372         2.1993       0.421554
       6669.00        65.9550         1.9043         2.1930       0.409400
       6669.50        66.4802         1.8788         2.1980       0.393722
       6670.00        68.6672         1.8753         2.2134       0.394031
       6670.50        71.0532         1.8165         2.2330       0.407210
       6671.00        74.8495         1.7486         2.2594       0.416751
       6671.50        79.4758         1.7270         2.2944       0.422509
       6672.00        81.0684         1.7065         2.3235       0.440855
       6672.50        81.6313         1.6825         2.3360       0.467279
       6673.00        80.7228         1.6721         2.3373       0.478906
       6673.50        80.1361         1.6385         2.3383       0.471663
       6674.00        77.4191         1.6434         2.3427       0.456691
       6674.50        73.6323         1.6467         2.3482       0.442465
       6675.00        68.6225         1.7182         2.3563       0.432702
       6675.50        64.9308         1.8409         2.3640       0.424355
       6676.00        59.1728         1.9236         2.3600       0.407791
       6676.50        52.1658         1.9528         2.3500       0.379302
       6677.00        45.5208         2.0309         2.3486       0.349732
       6677.50        42.3669         2.2139         2.3490       0.330539
       6678.00        42.4991         2.1628         2.3335       0.324122
       6678.50        44.6539         2.0488         2.3090       0.328272
       6679.00        50.1014         2.0194         2.2954       0.339081
       6679.50        52.5031         2.0189         2.2921       0.353936
       6680.00        56.0906         2.0192         2.2920       0.369278
       6680.50        58.4671         2.0201         2.3004       0.377292
       6681.00        56.2659         2.0054         2.3138       0.372835
       6681.50        58.2391         1.9918         2.3224       0.363207
       6682.00        61.0531         2.0198         2.3304       0.360381
       6682.50        60.5946         2.0220         2.3364       0.359027
       6683.00        58.6919         1.9950         2.3322       0.344149
       6683.50        57.7945         1.9578         2.3249       0.326021
       6684.00        57.5774         1.9240         2.3214       0.320153
       6684.50        54.9927         1.8903         2.3183       0.317822
       6685.00        47.6596         1.8528         2.3133       0.314685
       6685.50        44.3948         1.8252         2.3034       0.319243
       6686.00        43.5157         1.7882         2.2878       0.325836
       6686.50        43.5334         1.7780         2.2741       0.324604
       6687.00        43.4484         1.7685         2.2659       0.324726
       6687.50        45.4968         1.7609         2.2634       0.330588
       6688.00        47.0928         1.7479         2.2684       0.334717
       6688.50        48.1312         1.7341         2.2748       0.338607
       6689.00        48.8229         1.7081         2.2758       0.348207
       6689.50        49.3977         1.7078         2.2708       0.367136
       6690.00        51.6792         1.7604         2.2621       0.392165
       6690.50        52.3959         1.7571         2.2560       0.403774
       6691.00        50.8376         1.7523         2.2543       0.391610
       6691.50        55.9776         1.7287         2.2525       0.370620
       6692.00        61.7268         1.7716         2.2566       0.355679
       6692.50        61.2458         1.7856         2.2742       0.352594
       6693.00        63.9843         1.8082         2.2964       0.366115
       6693.50        66.5563         1.8247         2.3092       0.390054
       6694.00        67.7201         1.8101         2.3105       0.411393
       6694.50        68.8849         1.7905         2.3099       0.417650
       6695.00        71.5560         1.7707         2.3183       0.410764
       6695.50        75.0080         1.7370         2.3339       0.410059
       6696.00        77.4622         1.6800         2.3451       0.419505
       6696.50        72.9213         1.6190         2.3497       0.429374
       6697.00        75.5024         1.5989         2.3530       0.442769
       6697.50        75.3926         1.6073         2.3533       0.460312
       6698.00        77.1352         1.6266         2.3505       0.469221
       6698.50        76.8672         1.6465         2.3507       0.455897
       6699.00        72.6142         1.6665         2.3518       0.431603
       6699.50        69.0970         1.6334         2.3456       0.400702
       6700.00        65.0314         1.7031         2.3370       0.370774
       6700.50        57.7539         1.8512         2.3298       0.362734
       6701.00        48.7246         2.0034         2.3153       0.361099
       6701.50        39.6818         2.0124         2.2879       0.355796
       6702.00        34.6000         2.0390         2.2517       0.352415
       6702.50        33.7278         2.0620         2.2210       0.348837
       6703.00        33.1533         1.9893         2.2008       0.345176
       6703.50        31.6433         1.9138         2.1829       0.342769
       6704.00        31.5390         1.8378         2.1713       0.333830
       6704.50        36.2864         1.7423         2.1819       0.325188
       6705.00        41.3564         1.8112         2.2150       0.330802
       6705.50        45.4117         1.9190         2.2526       0.347206
       6706.00        52.0384         1.9265         2.2742       0.367381
       6706.50        55.7294         1.9514         2.2801       0.388414
       6707.00        58.9513         1.9408         2.2958       0.408897
       6707.50        63.6541         1.9194         2.3155       0.420908
       6708.00        66.8050         1.8978         2.3225       0.421123
       6708.50        69.8361         1.8475         2.3208       0.419788
       6709.00        69.1835         1.7709         2.3168       0.422792
       6709.50        65.4849         1.7085         2.3168       0.418129
       6710.00        61.5945         1.6428         2.3073       0.400376
       6710.50        57.6195         1.5893         2.2807       0.387304
       6711.00        53.2075         1.5504         2.2482       0.391090
       6711.50        49.8295         1.5065         2.2186       0.394304
       6712.00        47.3767         1.4805         2.1900       0.382980
       6712.50        41.2441         1.4721         2.1659       0.369838
       6713.00        40.7033         1.4771         2.1542       0.366471
       6713.50        40.5291         1.5068         2.1510       0.367424
       6714.00        39.5747         1.5252         2.1509       0.371152
       6714.50        39.9299         1.6994         2.1589       0.382543
       6715.00        43.0024         1.7413         2.1864       0.395472
       6715.50        47.0291         1.7789         2.2229       0.397424
       6716.00        50.7617         1.7359         2.2550       0.383644
