~Version Information Block
VERS .                  2.0:  CWLS LOG ASCII STANDARD - VERSION 2.0
WRAP .                   NO:  One line per depth step
~Well Information Block
#MNEM.UNIT        Data Type   Information
#---------- ----------------  -----------
STRT .FT            5000.50:  START DEPTH
STOP .FT           14504.00:  STOP DEPTH
STEP .FT               0.50:  STEP
NULL .              -999.25:  NULL VALUE
COMP .                     :  COMPANY
WELL .               STA-18:  WELL
FLD  .                     :  FIELD
LOC  .                     :  LOCATION
CTRY .                     :  COUNTRY
STAT .                     :  STATE
CNTY .                     :  COUNTY
SRVC .                     :  SERVICE COMPANY
DATE .                     :  DATE
API  .                     :  API NUMBER
UWI  .                     :  UNIQUE WELL ID
~Curve Information Block
#MNEM.UNIT         API CODE   Curve Description
#---------- ----------------  -----------------
DEPTH.FT                   :  DEPTH
GR   .GAPI                 :  Gamma Ray
RT   .OHMM                 :  SEDP
RHOB .G/C3                 :  Bulk Density
NPHI .V/V                  :  Neutron porosity
~Parameter Information Block
#MNEM.UNIT            Value   Description
#---------- ----------------  -----------
PROJECT.            SANTAN_FE:  
~Other Information Block
# 
~A       DEPTH             GR             RT           RHOB           NPHI 
# ...
      10725.00        78.4200         3.0800         2.5002       0.210500
      10725.50        83.0500         3.1000         2.5077       0.195200
      10726.00        86.5100         3.1300         2.5244       0.174600
      10726.50        79.9500         3.1600         2.5224       0.167300
      10727.00        76.7600         3.2200         2.5132       0.167900
      10727.50        77.6700         3.2600         2.5247       0.171200
      10728.00        74.3500         3.2900         2.5294       0.193300
      10728.50        79.0400         3.3200         2.5146       0.200100
      10729.00        77.2700         3.3300         2.4959       0.187500
      10729.50        81.9400         3.3400         2.5051       0.193700
      10730.00        85.4500         3.3500         2.5174       0.201100
      10730.50        81.6500         3.3300         2.5204       0.198400
      10731.00        78.3300         3.3300         2.5278       0.191600
      10731.50        75.7500         3.3700         2.5357       0.188000
      10732.00        75.3100         3.4000         2.5084       0.198800
      10732.50        76.7100         3.4100         2.4711       0.200800
      10733.00        76.4000         3.3900         2.4778       0.189700
      10733.50        78.5500         3.3800         2.5234       0.185500
      10734.00        79.0200         3.3600         2.5165       0.180200
      10734.50        77.4600         3.3300         2.4950       0.184400
      10735.00        76.6700         3.2800         2.4911       0.194200
      10735.50        78.2400         3.1600         2.5056       0.205600
      10736.00        79.8900         3.0800         2.5187       0.205800
      10736.50        79.6800         3.0000         2.5375       0.195500
      10737.00        78.8100         2.9000         2.5658       0.197600
      10737.50        80.3800         2.8000         2.5264       0.204100
      10738.00        82.4500         2.7500         2.5024       0.221400
      10738.50        85.8600         2.7500         2.5061       0.226000
      10739.00        95.5400         2.6500         2.5698       0.229100
      10739.50        93.5300         2.7100         2.6030       0.225500
      10740.00        93.6600         2.8400         2.5842       0.210700
      10740.50        96.4700         2.9000         2.5443       0.208300
      10741.00        89.1400         2.8800         2.4865       0.214400
      10741.50        88.6900         2.8100         2.4716       0.218700
      10742.00        90.2000         2.7300         2.4845       0.224500
      10742.50        92.2900         2.6800         2.4832       0.231200
      10743.00        90.4000         2.5800         2.4894       0.240700
      10743.50        92.6100         2.4700         2.5036       0.253400
      10744.00        97.7900         2.3300         2.4946       0.268400
      10744.50       104.7500         2.1700         2.4909       0.280300
      10745.00       105.0200         2.1000         2.4986       0.287300
      10745.50       107.0000         2.1600         2.5087       0.290300
      10746.00       106.1600         2.2200         2.5158       0.291400
      10746.50       107.0400         2.1300         2.5045       0.292100
      10747.00       111.9600         1.9600         2.5030       0.295600
      10747.50       110.9600         1.8300         2.5233       0.302400
      10748.00       107.8700         1.7900         2.5310       0.310600
      10748.50       111.7000         1.8000         2.5357       0.321200
      10749.00       117.2500         1.8000         2.5244       0.329000
      10749.50       124.1300         1.8000         2.5200       0.329400
      10750.00       117.5700         1.8500         2.5200       0.322400
      10750.50       119.5300         1.9500         2.5189       0.308100
      10751.00       108.1000         2.1100         2.5076       0.288100
      10751.50       104.8200         2.4700         2.4774       0.265600
      10752.00        96.2300         2.6600         2.4633       0.248200
      10752.50        89.9000         2.8300         2.4691       0.232100
      10753.00        84.9700         2.9400         2.4779       0.216000
      10753.50        81.3600         2.9700         2.4800       0.195200
      10754.00        77.9700         2.9500         2.4813       0.185100
      10754.50        80.6900         2.8700         2.4879       0.184100
      10755.00        90.0800         2.8100         2.4926       0.199100
      10755.50       112.5100         2.7400         2.5059       0.231000
      10756.00       110.7000         2.6800         2.5100       0.262100
      10756.50       111.2400         2.7100         2.5127       0.285600
      10757.00       105.2900         2.8100         2.5259       0.282000
      10757.50       100.8100         2.9400         2.5286       0.262100
      10758.00        98.7200         3.0100         2.5220       0.240600
      10758.50        92.7600         3.0100         2.5214       0.225800
      10759.00        93.4700         3.0100         2.5266       0.218300
      10759.50        85.9000         3.0800         2.5220       0.208800
      10760.00        82.5600         3.1200         2.5215       0.201700
      10760.50        78.4700         3.0900         2.5280       0.197000
      10761.00        89.2900         3.0100         2.5285       0.199100
      10761.50       101.1400         2.9100         2.5189       0.211100
      10762.00       109.4100         2.8200         2.5039       0.223900
      10762.50       113.7000         2.7200         2.5016       0.251300
      10763.00       100.8700         2.6300         2.5097       0.277700
      10763.50        95.4100         2.6200         2.5165       0.288700
      10764.00        86.1400         2.6000         2.5086       0.288200
      10764.50        83.9800      -999.2500         2.4938       0.288600
      10765.00        76.2700      -999.2500         2.4866       0.280600
      10765.50        69.6900      -999.2500         2.4636       0.267400
      10766.00        65.6700      -999.2500         2.4178       0.253800
      10766.50        64.7000      -999.2500         2.3920       0.240400
      10767.00        71.6500      -999.2500         2.3836       0.233500
      10767.50        70.4300      -999.2500         2.3917       0.224400
      10768.00        70.5400      -999.2500         2.4099       0.215900
      10768.50        70.6200      -999.2500         2.4263       0.218100
      10769.00        74.9600      -999.2500         2.4263       0.238000
      10769.50        73.9000      -999.2500         2.4043       0.264000
      10770.00        73.5700      -999.2500         2.3691       0.283100
      10770.50        71.4400      -999.2500         2.3600       0.290400
      10771.00        81.8200      -999.2500         2.3676       0.281700
      10771.50        84.1700      -999.2500         2.4083       0.256500
      10772.00        87.7700      -999.2500         2.4756       0.243200
      10772.50        93.1300      -999.2500         2.5251       0.248700
      10773.00       101.9900      -999.2500         2.5465       0.256400
      10773.50       109.0500      -999.2500         2.5500       0.252700
      10774.00       110.2800      -999.2500      -999.2500       0.250600
      10774.50       112.6000      -999.2500      -999.2500       0.257100
      10775.00       112.8000      -999.2500      -999.2500       0.264000
      10775.50       114.8800      -999.2500      -999.2500       0.264400
      10776.00       118.3500      -999.2500      -999.2500       0.278600
      10776.50       118.6100      -999.2500      -999.2500       0.301400
      10777.00       118.0800      -999.2500      -999.2500       0.318300
      10777.50       116.2900      -999.2500      -999.2500       0.314300
      10778.00       112.9200      -999.2500      -999.2500       0.295800
