~Version Information Block
VERS .                  2.0:  CWLS LOG ASCII STANDARD - VERSION 2.0
WRAP .                   NO:  One line per depth step
~Well Information Block
#MNEM.UNIT        Data Type   Information
#---------- ----------------  -----------
STRT .FT            3811.50:  START DEPTH
STOP .FT            9515.50:  STOP DEPTH
STEP .FT               0.50:  STEP
NULL .              -999.25:  NULL VALUE
COMP .                     :  COMPANY
WELL .                STA-6:  WELL
FLD  .                     :  FIELD
LOC  .                     :  LOCATION
CTRY .                     :  COUNTRY
STAT .                     :  STATE
CNTY .                     :  COUNTY
SRVC .                     :  SERVICE COMPANY
DATE .                     :  DATE
API  .                     :  API NUMBER
UWI  .                     :  UNIQUE WELL ID
~Curve Information Block
#MNEM.UNIT         API CODE   Curve Description
#---------- ----------------  -----------------
DEPTH.FT                   :  DEPTH
GR   .GAPI                 :  Gamma Ray
RT   .OHMM                 :  Deep resistivity
RHOB .G/C3                 :  Bulk Density
NPHI .V/V                  :  Neutron porosity
DT   .US/F                 :  Sonic
~Parameter Information Block
#MNEM.UNIT            Value   Description
#---------- ----------------  -----------
PROJECT.            SANTAN_FE:  
~Other Information Block
# 
~A       DEPTH             GR             RT           RHOB           NPHI             DT 
# ...
       6214.50       107.4500         1.4100         2.3200       0.390000       121.3000
       6215.00       109.7100         1.3700         2.3000       0.400000       121.2500
       6215.50       109.6800         1.4000         2.3100       0.390000       121.7000
       6216.00       110.8700         1.3700         2.3300       0.400000       121.9000
       6216.50       112.6200         1.3800         2.3400       0.400000       122.1000
       6217.00       111.2800         1.4100         2.3500       0.390000       120.7500
       6217.50       102.5000         1.4600         2.3300       0.370000       117.5000
       6218.00        92.4100         1.5400         2.3100       0.330000       115.7000
       6218.50        79.4700         1.8100         2.2700       0.320000       114.8000
       6219.00        72.7700         2.2800         2.2500       0.290000       114.3500
       6219.50        69.6500         2.5300         2.2200       0.310000       114.4000
       6220.00        74.7100         2.5200         2.2400       0.300000       115.0000
       6220.50        78.1300         2.5000         2.2500       0.320000       115.5000
       6221.00        79.0200         2.4300         2.2200       0.320000       117.5000
       6221.50        74.1100         2.3900         2.2200       0.340000       119.3000
       6222.00        73.6800         2.3900         2.2100       0.360000       119.0000
       6222.50        72.0400         2.3700         2.2000       0.370000       118.3000
       6223.00        75.3400         2.3200         2.2000       0.370000       118.6500
       6223.50        72.6500         2.2700         2.1900       0.350000       119.0500
       6224.00        76.6700         2.2900         2.2000       0.350000       119.8000
       6224.50        79.0200         2.3000         2.2000       0.350000       120.7000
       6225.00        82.2000         2.2700         2.1900       0.360000       121.1500
       6225.50        80.1400         2.2800         2.1600       0.350000       122.8500
       6226.00        76.7500         2.3200         2.1300       0.340000       123.5500
       6226.50        75.3000         2.3700         2.1300       0.340000       123.5000
       6227.00        72.2500         2.3800         2.1200       0.360000       124.0000
       6227.50        74.3100         2.4400         2.1200       0.370000       125.0500
       6228.00        72.5300         2.5000         2.1100       0.370000       125.3000
       6228.50        75.5200         2.4600         2.1100       0.340000       126.0000
       6229.00        71.1600         2.5800         2.1100       0.330000       127.3000
       6229.50        69.7000         2.6600         2.1000       0.310000       124.8000
       6230.00        65.2200         2.6900         2.1000       0.310000       124.6000
       6230.50        66.8300         2.7100         2.1000       0.330000       125.3000
       6231.00        65.4900         2.5600         2.0900       0.350000       129.3000
       6231.50        67.0200         2.5400         2.0700       0.360000       123.5500
       6232.00        68.5800         2.5100         2.0900       0.350000       113.7000
       6232.50        77.8600         2.1600         2.1500       0.340000       109.0000
       6233.00        91.4000         2.4700         2.2500       0.350000       106.7000
       6233.50        98.8100         2.1900         2.3000       0.370000       116.1000
       6234.00       112.1300         1.4700         2.3000       0.380000       122.6500
       6234.50       111.3800         1.1700         2.3100       0.380000       123.5000
       6235.00       120.3500         1.1000         2.2600       0.370000       122.9000
       6235.50       114.2800         1.1400         2.2500       0.370000       121.9000
       6236.00       113.2400         1.1100         2.2600       0.350000       121.8000
       6236.50       109.5900         1.0300         2.2700       0.350000       122.4000
       6237.00       107.8900         1.0400         2.3000       0.350000       121.8500
       6237.50       107.2900         1.1300         2.3100       0.390000       121.5000
       6238.00       107.4100         1.1400         2.3200       0.420000       121.3500
       6238.50       109.6800         1.1300         2.3200       0.410000       120.2000
       6239.00       116.8200         1.2200         2.3200       0.390000       118.7000
       6239.50       116.2600         1.2900         2.3200       0.380000       118.6000
       6240.00       113.9500         1.3300         2.3300       0.410000       118.2000
       6240.50       102.8800         1.3200         2.3300       0.400000       116.8000
       6241.00        96.0900         1.3700         2.3300       0.390000       113.6000
       6241.50        80.8600         1.5200         2.3200       0.360000       102.0500
       6242.00        73.0100         1.9700         2.3700       0.320000        93.6000
       6242.50        62.6900         2.6000         2.4200       0.300000        95.2500
       6243.00        62.2700         2.8400         2.4300       0.300000        97.2000
       6243.50        62.1600         2.4000         2.3600       0.310000       101.1000
       6244.00        61.4900         2.8400         2.2800       0.330000       118.7000
       6244.50        60.9100         3.0100         2.2600       0.330000       115.3000
       6245.00        60.4600         3.1600         2.2400       0.300000       113.4500
       6245.50        59.1600         3.2600         2.2700       0.260000       110.6000
       6246.00        58.8600         3.2600         2.3100       0.250000       102.3000
       6246.50        63.3300         2.5800         2.3200       0.280000       100.2000
       6247.00        72.0700         2.3700         2.3100       0.330000       109.5000
       6247.50        84.7700         2.2700         2.3000       0.370000       110.7000
       6248.00        93.8900         1.9300         2.3100       0.410000       114.0500
       6248.50       103.1900         1.6600         2.3200       0.410000       117.7000
       6249.00       109.4000         1.5900         2.3300       0.420000       119.3000
       6249.50       114.3200         1.5700         2.3300       0.410000       118.8500
       6250.00       114.6200         1.5000         2.3300       0.400000       119.0000
       6250.50       113.6300         1.4700         2.3300       0.400000       120.3500
       6251.00       115.9700         1.4600         2.3200       0.410000       118.9000
       6251.50       116.8700         1.4900         2.3100       0.410000       120.8000
       6252.00       123.1300         1.5300         2.3000       0.430000       121.1000
       6252.50       121.7100         1.5500         2.3000       0.410000       121.4000
       6253.00       130.0100         1.4900         2.3000       0.410000       122.3000
       6253.50       128.5400         1.4500         2.3200       0.410000       123.3000
       6254.00       128.5400         1.4300         2.3200       0.430000       123.2000
       6254.50       126.0700         1.4000         2.3300       0.420000       123.6000
       6255.00       127.0500         1.4000         2.3300       0.410000       123.9500
       6255.50       125.9000         1.3700         2.3600       0.420000       123.7000
       6256.00       123.7900         1.3500         2.3700       0.410000       123.4000
       6256.50       120.8800         1.3900         2.3600       0.400000       123.5000
       6257.00       123.3500         1.4000         2.3400       0.400000       123.3500
       6257.50       121.3300         1.4900         2.3300       0.410000       123.1000
       6258.00       120.6700         1.5300         2.3200       0.400000       121.1000
       6258.50       116.7100         1.4600         2.3400       0.360000       119.8500
