~Version Information Block
VERS .                  2.0:  CWLS LOG ASCII STANDARD - VERSION 2.0
WRAP .                   NO:  One line per depth step
~Well Information Block
#MNEM.UNIT        Data Type   Information
#---------- ----------------  -----------
STRT .FT            4880.50:  START DEPTH
STOP .FT           10428.00:  STOP DEPTH
STEP .FT               0.50:  STEP
NULL .              -999.25:  NULL VALUE
COMP .                     :  COMPANY
WELL .                STA-3:  WELL
FLD  .                     :  FIELD
LOC  .                     :  LOCATION
CTRY .                     :  COUNTRY
STAT .                     :  STATE
CNTY .                     :  COUNTY
SRVC .                     :  SERVICE COMPANY
DATE .                     :  DATE
API  .                     :  API NUMBER
UWI  .                     :  UNIQUE WELL ID
~Curve Information Block
#MNEM.UNIT         API CODE   Curve Description
#---------- ----------------  -----------------
DEPTH.FT                   :  DEPTH
GR   .GAPI                 :  Gamma Ray
RT   .OHMM                 :  Deep resistivity
RHOB .G/C3                 :  Bulk Density
NPHI .V/V                  :  Neutron porosity
DT   .US/F                 :  Sonic
~Parameter Information Block
#MNEM.UNIT            Value   Description
#---------- ----------------  -----------
PROJECT.            SANTAN_FE:  
~Other Information Block
# 
~A       DEPTH             GR             RT           RHOB           NPHI             DT 
# ...
       8218.00       106.5973         2.6608         2.5493       0.259800        90.2000
       8218.50       106.5211         2.4087         2.5481       0.257000        89.3000
       8219.00       101.8849         2.5124         2.5617       0.240400        87.4000
       8219.50        89.8892         3.2094         2.5827       0.205600        83.3000
       8220.00        78.4110         4.5993         2.5927       0.174800        79.0500
       8220.50        73.4511         6.1405         2.5825       0.166300        76.5500
       8221.00        71.1571         5.3320         2.5527       0.166100        75.2000
       8221.50        73.9849         4.7722         2.5173       0.178700        75.2000
       8222.00        72.4657         3.9936         2.5101       0.175800        77.6500
       8222.50        71.3932         4.5030         2.5084       0.179700        78.4000
       8223.00        67.5897         4.2004         2.5171       0.178800        79.4000
       8223.50        70.5443         3.8187         2.5204       0.189500        80.8500
       8224.00        75.2382         3.8143         2.5209       0.200700        78.7000
       8224.50        77.4900         3.6050         2.5073       0.207000        78.7000
       8225.00        80.5137         3.7710         2.5256       0.198700        77.4500
       8225.50        77.9044         3.6754         2.5496       0.187200        76.8000
       8226.00        81.3302         4.1390         2.5599       0.183000        78.5000
       8226.50        85.7786         3.6873         2.5477       0.195700        78.3000
       8227.00        93.7293         3.3303         2.5530       0.203200        79.6000
       8227.50        97.8385         3.3198         2.5593       0.219500        81.2000
       8228.00        95.4015         3.2336         2.5590       0.227500        81.3500
       8228.50        91.8462         3.0928         2.5330       0.233600        82.8000
       8229.00        92.2158         3.1188         2.5300       0.229300        84.4000
       8229.50        97.6306         2.9448         2.5339       0.226600        85.1500
       8230.00       107.6292         2.7129         2.5409       0.232000        85.8500
       8230.50       104.4488         2.5730         2.5407       0.242700        86.4000
       8231.00       101.2867         2.6357         2.5468       0.241100        87.2000
       8231.50        97.4196         2.6142         2.5447       0.240100        87.1500
       8232.00       105.8073         2.5103         2.5565       0.240900        88.7000
       8232.50       112.5297         2.2986         2.5686       0.251700        89.7000
       8233.00       118.4364         2.1787         2.5692       0.257100        91.1000
       8233.50       112.8932         2.1489         2.5807       0.267900        92.5500
       8234.00       107.1148         2.0515         2.5751       0.280700        91.6000
       8234.50        96.7624         1.9832         2.5771       0.285600        88.8000
       8235.00        96.3583         2.5782         2.5903       0.260900        86.5000
       8235.50        92.9711         3.3853         2.6198       0.229800        82.8000
       8236.00        86.8281         3.8168         2.5977       0.213000        79.5000
       8236.50        80.6581         4.3411         2.5588       0.202300        78.8000
       8237.00        77.0050         3.9813         2.5384       0.199600        79.2000
       8237.50        79.3759         3.8459         2.5217       0.192600        80.8500
       8238.00        80.2779         3.7268         2.5020       0.196600        81.6500
       8238.50        78.1352         3.6757         2.5069       0.201800        82.6000
       8239.00        74.8388         3.5502         2.4774       0.202900        82.5500
       8239.50        71.6812         3.5863         2.4693       0.192400        83.5500
       8240.00        77.7784         3.3906         2.4848       0.185600        84.8000
       8240.50        89.4632         3.3491         2.5252       0.199700        85.4000
       8241.00       107.4970         3.0107         2.5220       0.230000        88.0000
       8241.50       119.5944         2.5983         2.5119       0.257000        90.0000
       8242.00       124.1592         2.4504         2.4893       0.286800        94.2000
       8242.50       121.3938         2.2506         2.4687       0.284700        98.2000
       8243.00       121.7097         2.4142         2.4583       0.295900        99.4000
       8243.50       125.0107         2.2371         2.4706       0.300400       102.7000
       8244.00       132.3403         1.7271         2.4501       0.319100       103.7000
       8244.50       128.5013         2.2925         2.4190       0.321600       106.4500
       8245.00       128.4502         2.8270         2.3874       0.318000       104.8000
       8245.50       124.0209         2.6575         2.4203       0.315700       101.9000
       8246.00       128.3996         2.1731         2.4566       0.302000        99.5500
       8246.50       123.8296         1.9459         2.5085       0.291600        96.7000
       8247.00       115.8554         1.7173         2.5281       0.278900        95.0000
       8247.50       112.9373         1.9490         2.5240       0.284000        93.9000
       8248.00       111.0039         2.4175         2.5227       0.267200        92.7500
       8248.50       113.4301         2.3128         2.5144       0.260000        89.5000
       8249.00       104.5884         2.4513         2.5168       0.230300        87.0500
       8249.50        91.8263         3.4277         2.5063       0.210400        85.5500
       8250.00        77.2875         3.7239         2.4536       0.195600        86.4000
       8250.50        66.2123         3.1557         2.3792       0.205000        89.2000
       8251.00        64.5483         3.0770         2.3201       0.221400        90.9000
       8251.50        64.2956         2.9742         2.2943       0.227000        91.5500
       8252.00        64.1609         3.0016         2.2916       0.230800        92.2000
       8252.50        61.2082         2.7073         2.2783       0.224800        93.0000
       8253.00        59.4197         2.5376         2.2781       0.226500        92.0500
       8253.50        67.8768         2.6951         2.3257       0.212100        90.0000
       8254.00        84.2762         3.0706         2.4104       0.216600        87.5000
       8254.50        97.9909         3.1763         2.4956       0.212200        85.6500
       8255.00        98.7911         3.0613         2.5517       0.224400        85.1000
       8255.50        96.4525         2.8693         2.5695       0.226800        84.7000
       8256.00        96.9559         2.8952         2.5761       0.239200        85.3500
       8256.50       102.9331         2.8935         2.5475       0.242500        85.8000
       8257.00       110.6757         2.7214         2.5570       0.240700        87.3000
       8257.50       113.2883         2.4873         2.5333       0.245100        88.5000
       8258.00       113.9372         2.3949         2.5377       0.247500        88.0500
       8258.50       101.9388         2.4676         2.5372       0.243100        85.8000
       8259.00        97.1971         2.9972         2.5568       0.227200        82.6500
       8259.50        87.9789         3.7092         2.5650       0.202700        80.0500
       8260.00        85.5564         4.2058         2.5731       0.189200        79.0000
       8260.50        86.5925         4.6377         2.5376       0.192200        79.1000
       8261.00        86.3979         3.7680         2.5166       0.199300        80.1000
       8261.50        91.5119         3.7474         2.4734       0.208000        82.2000
       8262.00        90.2236         4.0456         2.4706       0.212500        84.2000
