~Version Information Block
VERS .                  2.0:  CWLS LOG ASCII STANDARD - VERSION 2.0
WRAP .                   NO:  One line per depth step
~Well Information Block
#MNEM.UNIT        Data Type   Information
#---------- ----------------  -----------
STRT .FT            6415.50:  START DEPTH
STOP .FT           16132.50:  STOP DEPTH
STEP .FT               0.50:  STEP
NULL .              -999.25:  NULL VALUE
COMP .                     :  COMPANY
WELL .               STA-33:  WELL
FLD  .                     :  FIELD
LOC  .                     :  LOCATION
CTRY .                     :  COUNTRY
STAT .                     :  STATE
CNTY .                     :  COUNTY
SRVC .                     :  SERVICE COMPANY
DATE .                     :  DATE
API  .                     :  API NUMBER
UWI  .                     :  UNIQUE WELL ID
~Curve Information Block
#MNEM.UNIT         API CODE   Curve Description
#---------- ----------------  -----------------
DEPTH.FT                   :  Depth
GR   .GAPI                 :  Gamma Ray
RT   .OHMM                 :  True Resistivity
RHOB .G/C3                 :  Bulk Density
NPHI .V/V                  :  Neutron Porosity
~Parameter Information Block
#MNEM.UNIT            Value   Description
#---------- ----------------  -----------
PROJECT.            SANTAN_FE:  
~Other Information Block
# 
~A       DEPTH             GR             RT           RHOB           NPHI 
# ...
       8341.50        77.1168         1.1741         2.3386       0.422500
       8342.00        73.2242         1.3754         2.3491       0.371700
       8342.50        66.5843         1.7742         2.3858       0.291400
       8343.00        54.6708         3.2533         2.4478       0.228200
       8343.50        47.5432         5.9129         2.5168       0.203300
       8344.00        48.0355         6.6344         2.5583       0.221700
       8344.50        52.4065         5.5734         2.5338       0.266800
       8345.00        55.3945         4.1663         2.4423       0.310100
       8345.50        58.3836         2.8694         2.3401       0.335400
       8346.00        61.7391         2.3583         2.2861       0.342100
       8346.50        65.3822         2.0104         2.2772       0.338500
       8347.00        63.0518         1.7774         2.2800       0.338300
       8347.50        62.7889         1.6417         2.2820       0.341200
       8348.00        62.9085         1.5657         2.2814       0.333700
       8348.50        59.0805         1.5816         2.2743       0.316700
       8349.00        54.9593         1.6473         2.2604       0.306500
       8349.50        53.0067         1.7173         2.2429       0.307000
       8350.00        49.4061         1.7689         2.2240       0.310900
       8350.50        49.2407         1.7927         2.2074       0.316500
       8351.00        48.4848         1.8199         2.1985       0.317700
       8351.50        50.5681         1.8295         2.1998       0.315300
       8352.00        51.8662         1.8185         2.2091       0.322200
       8352.50        55.2853         1.7654         2.2222       0.335500
       8353.00        58.5055         1.6837         2.2367       0.341000
       8353.50        61.8686         1.6004         2.2539       0.335900
       8354.00        63.5736         1.5348         2.2726       0.331800
       8354.50        64.1787         1.4747         2.2859       0.335100
       8355.00        65.7765         1.4101         2.2930       0.340000
       8355.50        66.3503         1.3668         2.3003       0.343900
       8356.00        71.6393         1.3326         2.3087       0.349400
       8356.50        72.0180         1.3061         2.3125       0.355000
       8357.00        69.1311         1.2832         2.3148       0.359400
       8357.50        68.2237         1.2641         2.3224       0.364100
       8358.00        71.6030         1.2570         2.3296       0.369000
       8358.50        73.7266         1.2604         2.3317       0.376000
       8359.00        76.2283         1.2573         2.3327       0.378200
       8359.50        72.3016         1.2530         2.3368       0.365700
       8360.00        71.3545         1.2675         2.3412       0.351000
       8360.50        67.2084         1.2864         2.3412       0.345100
       8361.00        70.3603         1.2905         2.3360       0.343500
       8361.50        70.5873         1.3038         2.3291       0.349800
       8362.00        70.3663         1.3036         2.3267       0.358500
       8362.50        72.8666         1.2913         2.3295       0.360100
       8363.00        74.1286         1.3268         2.3297       0.354000
       8363.50        67.9033         1.3962         2.3251       0.342700
       8364.00        63.0543         1.4330         2.3238       0.336800
       8364.50        63.4571         1.4340         2.3311       0.339500
       8365.00        62.2423         1.4279         2.3363       0.342000
       8365.50        62.7057         1.4399         2.3293       0.343700
       8366.00        62.3771         1.4670         2.3150       0.344800
       8366.50        63.0266         1.5009         2.3064       0.346800
       8367.00        63.0673         1.5269         2.3061       0.354300
       8367.50        65.0505         1.5347         2.3074       0.358400
       8368.00        62.9077         1.5424         2.3090       0.353000
       8368.50        59.8421         1.5700         2.3112       0.348300
       8369.00        61.7414         1.5997         2.3122       0.349200
       8369.50        64.3459         1.6161         2.3122       0.345400
       8370.00        69.3374         1.6248         2.3131       0.330400
       8370.50        69.7215         1.6229         2.3162       0.315200
       8371.00        69.3243         1.6075         2.3208       0.311000
       8371.50        70.7915         1.5822         2.3246       0.323200
       8372.00        71.9504         1.5589         2.3304       0.347200
       8372.50        71.8908         1.5186         2.3422       0.365300
       8373.00        77.1385         1.4363         2.3513       0.373800
       8373.50        79.0711         1.3775         2.3548       0.380400
       8374.00        79.0924         1.3589         2.3571       0.387300
       8374.50        78.2845         1.3138         2.3596       0.393100
       8375.00        80.3256         1.2983         2.3633       0.392900
       8375.50        81.3277         1.3060         2.3679       0.389100
       8376.00        80.3693         1.3218         2.3724       0.389500
       8376.50        83.4521         1.3489         2.3762       0.390200
       8377.00        83.0963         1.3833         2.3757       0.389300
       8377.50        78.5608         1.4340         2.3705       0.388400
       8378.00        77.2160         1.5027         2.3631       0.390400
       8378.50        70.6066         1.5843         2.3571       0.396300
       8379.00        73.4452         1.6221         2.3540       0.401700
       8379.50        73.3179         1.5965         2.3497       0.402200
       8380.00        76.5698         1.4799         2.3476       0.396200
       8380.50        83.9296         1.3655         2.3539       0.382800
       8381.00        89.7320         1.3272         2.3617       0.370900
       8381.50        89.2391         1.2986         2.3664       0.375100
       8382.00        88.7122         1.2701         2.3687       0.387100
       8382.50        87.5004         1.2336         2.3699       0.387000
       8383.00        85.4021         1.2051         2.3740       0.373700
       8383.50        82.2035         1.2017         2.3813       0.357400
       8384.00        79.2924         1.2535         2.3852       0.344000
       8384.50        79.2180         1.3447         2.3852       0.341800
       8385.00        71.0280         1.4552         2.3831       0.342900
       8385.50        64.1284         1.5641         2.3739       0.340700
       8386.00        59.9489         1.6589         2.3591       0.338300
       8386.50        56.2847         1.7503         2.3406       0.340500
       8387.00        52.6395         1.8340         2.3162       0.349700
       8387.50        51.3008         1.9000         2.2907       0.359200
       8388.00        48.9224         1.9358         2.2754       0.358500
       8388.50        51.3539         1.9437         2.2717       0.349800
       8389.00        50.9658         1.9222         2.2737       0.338300
       8389.50        54.3288         1.8824         2.2918       0.327300
       8390.00        59.1588         1.8440         2.3160       0.326700
       8390.50        62.1245         1.7900         2.3293       0.341700
       8391.00        61.2994         1.7235         2.3334       0.366300
       8391.50        61.6707         1.6575         2.3362       0.386200
       8392.00        64.6668         1.6157         2.3399       0.386300
       8392.50        66.1947         1.5991         2.3435       0.374500
       8393.00        66.0877         1.5829         2.3479       0.373200
       8393.50        69.2988         1.5696         2.3524       0.381800
       8394.00        68.1934         1.5645         2.3511       0.386300
       8394.50        68.6198         1.5626         2.3441       0.381800
