~Version Information Block
VERS .                  2.0:  CWLS LOG ASCII STANDARD - VERSION 2.0
WRAP .                   NO:  One line per depth step
~Well Information Block
#MNEM.UNIT        Data Type   Information
#---------- ----------------  -----------
STRT .FT            6415.50:  START DEPTH
STOP .FT           16132.50:  STOP DEPTH
STEP .FT               0.50:  STEP
NULL .              -999.25:  NULL VALUE
COMP .                     :  COMPANY
WELL .               STA-33:  WELL
FLD  .                     :  FIELD
LOC  .                     :  LOCATION
CTRY .                     :  COUNTRY
STAT .                     :  STATE
CNTY .                     :  COUNTY
SRVC .                     :  SERVICE COMPANY
DATE .                     :  DATE
API  .                     :  API NUMBER
UWI  .                     :  UNIQUE WELL ID
~Curve Information Block
#MNEM.UNIT         API CODE   Curve Description
#---------- ----------------  -----------------
DEPTH.FT                   :  Depth
GR   .GAPI                 :  Gamma Ray
RT   .OHMM                 :  True Resistivity
RHOB .G/C3                 :  Bulk Density
NPHI .V/V                  :  Neutron Porosity
~Parameter Information Block
#MNEM.UNIT            Value   Description
#---------- ----------------  -----------
PROJECT.            SANTAN_FE:  
~Other Information Block
# 
~A       DEPTH             GR             RT           RHOB           NPHI 
# ...
       9625.50        84.0781         2.2577         2.4334       0.315200
       9626.00        86.2199         2.2242         2.4440       0.313300
       9626.50        86.8474         2.2132         2.4542       0.312600
       9627.00        86.3328         2.1537         2.4620       0.319700
       9627.50        88.5846         2.1554         2.4684       0.329200
       9628.00        88.4225         2.1583         2.4720       0.335800
       9628.50        88.6842         2.1563         2.4700       0.340500
       9629.00        88.7434         2.1794         2.4702       0.342700
       9629.50        88.7385         2.1872         2.4699       0.336600
       9630.00        90.3973         2.2031         2.4566       0.319300
       9630.50        82.3271         2.2458         2.4404       0.306700
       9631.00        82.1740         2.2738         2.4355       0.302200
       9631.50        84.7100         2.3108         2.4350       0.301600
       9632.00        86.0317         2.3386         2.4322       0.302800
       9632.50        82.1689         2.3402         2.4305       0.301000
       9633.00        82.9173         2.3470         2.4304       0.295100
       9633.50        82.4006         2.3626         2.4326       0.289300
       9634.00        82.9614         2.3808         2.4343       0.284100
       9634.50        81.5696         2.3756         2.4350       0.282800
       9635.00        81.2024         2.3815         2.4365       0.293200
       9635.50        81.1120         2.3937         2.4396       0.303100
       9636.00        79.0065         2.3961         2.4442       0.302300
       9636.50        80.0909         2.3795         2.4486       0.298400
       9637.00        82.1949         2.3770         2.4523       0.297400
       9637.50        79.4622         2.3798         2.4572       0.302200
       9638.00        80.7911         2.3709         2.4618       0.309800
       9638.50        78.8129         2.3886         2.4620       0.309100
       9639.00        80.4849         2.3922         2.4597       0.303500
       9639.50        85.7072         2.4164         2.4597       0.300800
       9640.00        81.4861         2.4173         2.4638       0.296200
       9640.50        78.3740         2.4497         2.4705       0.283900
       9641.00        72.0983         2.4981         2.4758       0.272800
       9641.50        71.2655         2.5654         2.4775       0.267300
       9642.00        67.4810         2.6030         2.4702       0.258500
       9642.50        68.0402         2.6289         2.4596       0.244200
       9643.00        64.8767         2.6647         2.4561       0.238700
       9643.50        66.5037         2.6844         2.4519       0.243000
       9644.00        62.9406         2.7060         2.4408       0.243400
       9644.50        60.3532         2.7210         2.4287       0.243700
       9645.00        60.8009         2.7216         2.4241       0.248500
       9645.50        59.3414         2.7152         2.4246       0.251200
       9646.00        62.0152         2.6888         2.4211       0.251700
       9646.50        62.8219         2.6693         2.4191       0.257300
       9647.00        62.0794         2.6498         2.4264       0.266500
       9647.50        63.9984         2.6121         2.4366       0.271300
       9648.00        67.9056         2.5758         2.4434       0.272600
       9648.50        68.5609         2.5699         2.4492       0.273100
       9649.00        73.6383         2.6016         2.4497       0.266800
       9649.50        69.2844         2.6317         2.4402       0.258800
       9650.00        74.8052         2.6497         2.4318       0.263700
       9650.50        79.5101         2.6758         2.4400       0.274300
       9651.00        77.0131         2.7007         2.4529       0.271200
       9651.50        77.1427         2.7203         2.4611       0.260200
       9652.00        75.0276         2.7305         2.4681       0.254300
       9652.50        75.6361         2.7622         2.4706       0.252900
       9653.00        72.0753         2.8086         2.4671       0.251600
       9653.50        75.2112         2.8279         2.4638       0.250200
       9654.00        78.5239         2.8552         2.4627       0.250000
       9654.50        75.0625         2.8851         2.4623       0.246600
       9655.00        71.8704         2.9204         2.4616       0.239200
       9655.50        74.0241         2.9281         2.4591       0.235100
       9656.00        72.0056         2.9182         2.4562       0.235000
       9656.50        69.8102         2.9246         2.4597       0.235100
       9657.00        69.5929         2.9373         2.4680       0.236900
       9657.50        68.7700         2.9190         2.4717       0.240700
       9658.00        68.5325         2.8744         2.4705       0.247200
       9658.50        74.4966         2.7887         2.4685       0.263300
       9659.00        74.2450         2.6755         2.4644       0.287800
       9659.50        80.1175         2.5831         2.4626       0.310400
       9660.00        86.2639         2.4826         2.4672       0.324100
       9660.50        88.8080         2.2944         2.4746       0.332900
       9661.00        88.1658         2.1204         2.4794       0.338900
       9661.50        93.5671         2.0621         2.4824       0.332900
       9662.00        92.1116         2.1547         2.4834       0.318900
       9662.50        88.6524         2.2122         2.4825       0.311300
       9663.00        82.2653         2.2398         2.4843       0.310900
       9663.50        79.8037         2.2589         2.4857       0.304900
       9664.00        80.9136         2.3028         2.4824       0.290900
       9664.50        79.7032         2.3619         2.4798       0.279200
       9665.00        74.6679         2.3994         2.4803       0.269600
       9665.50        74.4663         2.4382         2.4820       0.262000
       9666.00        73.5780         2.4701         2.4827       0.264100
       9666.50        73.5069         2.4524         2.4797       0.275400
       9667.00        75.5823         2.4758         2.4785       0.287000
       9667.50        75.4678         2.4791         2.4806       0.291500
       9668.00        79.0652         2.4556         2.4789       0.288900
       9668.50        81.9914         2.4364         2.4760       0.287700
       9669.00        79.0071         2.4210         2.4818       0.294100
       9669.50        78.4666         2.3937         2.4936       0.302400
       9670.00        80.0004         2.4012         2.4973       0.301200
       9670.50        80.6583         2.4205         2.4897       0.293700
       9671.00        78.3392         2.4374         2.4868       0.293200
       9671.50        79.7222         2.4342         2.4898       0.294700
       9672.00        83.7953         2.4320         2.4862       0.295700
       9672.50        82.7652         2.4631         2.4772       0.298600
       9673.00        83.3007         2.5202         2.4718       0.302000
       9673.50        82.9053         2.5248         2.4707       0.305800
       9674.00        81.4418         2.5099         2.4734       0.312000
       9674.50        82.3635         2.5060         2.4829       0.318100
       9675.00        84.7312         2.4644         2.4928       0.320800
       9675.50        86.9212         2.4319         2.4918       0.326700
       9676.00        87.0167         2.4469         2.4812       0.333600
       9676.50        87.0725         2.4840         2.4729       0.333300
       9677.00        86.7490         2.4261         2.4719       0.333800
       9677.50        85.7679         2.3251         2.4787       0.338800
       9678.00        86.6872         2.2773         2.4904       0.345900
       9678.50        86.9418         2.2683         2.4942       0.352600
