~Version Information Block
VERS .                  2.0:  CWLS LOG ASCII STANDARD - VERSION 2.0
WRAP .                   NO:  One line per depth step
~Well Information Block
#MNEM.UNIT        Data Type   Information
#---------- ----------------  -----------
STRT .FT            4582.50:  START DEPTH
STOP .FT           10844.50:  STOP DEPTH
STEP .FT               0.50:  STEP
NULL .              -999.25:  NULL VALUE
COMP .                     :  COMPANY
WELL .               STA-34:  WELL
FLD  .                     :  FIELD
LOC  .                     :  LOCATION
CTRY .                     :  COUNTRY
STAT .                     :  STATE
CNTY .                     :  COUNTY
SRVC .                     :  SERVICE COMPANY
DATE .                     :  DATE
API  .                     :  API NUMBER
UWI  .                     :  UNIQUE WELL ID
~Curve Information Block
#MNEM.UNIT         API CODE   Curve Description
#---------- ----------------  -----------------
DEPTH.FT                   :  Depth
GR   .GAPI                 :  Gamma Ray
RT   .OHMM                 :  True Resistivity
RHOB .G/C3                 :  Bulk Density
NPHI .V/V                  :  Neutron Porosity
~Parameter Information Block
#MNEM.UNIT            Value   Description
#---------- ----------------  -----------
PROJECT.            SANTAN_FE:  
~Other Information Block
# 
~A       DEPTH             GR             RT           RHOB           NPHI 
# ...
       7043.50        66.9910         3.3952         2.5418       0.236000
       7044.00        68.3828         3.1559         2.5002       0.236100
       7044.50        69.9734         3.1245         2.4837       0.228400
       7045.00        70.7364         3.1069         2.4887       0.219900
       7045.50        70.4581         3.0070         2.5030       0.208800
       7046.00        69.5864         2.9311         2.5198       0.190500
       7046.50        58.4785         3.0869         2.5454       0.169000
       7047.00        56.4289         3.2665         2.5789       0.162600
       7047.50        61.1280         3.1708         2.5964       0.180900
       7048.00        70.8385         2.8911         2.5804       0.202800
       7048.50        75.7431         2.7674         2.5440       0.211800
       7049.00        74.7981         2.7388         2.5203       0.221700
       7049.50        79.4250         2.7308         2.5080       0.232100
       7050.00        78.7854         2.6839         2.4982       0.231700
       7050.50        80.8069         2.6054         2.5045       0.229200
       7051.00        83.5947         2.5591         2.5168       0.235400
       7051.50        79.1793         2.5330         2.5164       0.240700
       7052.00        76.0131         2.4410         2.5149       0.243500
       7052.50        79.3343         2.2520         2.5224       0.256200
       7053.00        87.0338         1.9897         2.5266       0.274800
       7053.50        96.2833         1.7758         2.5209       0.288500
       7054.00        97.4214         1.8039         2.5154       0.288900
       7054.50        91.7669         2.0020         2.5205       0.279900
       7055.00        88.3478         2.1104         2.5328       0.273400
       7055.50        87.1491         2.0471         2.5395       0.277000
       7056.00        86.1199         1.9399         2.5350       0.283600
       7056.50        87.6364         1.9242         2.5269       0.278600
       7057.00        88.3050         2.0192         2.5231       0.270700
       7057.50        86.2222         2.1594         2.5213       0.272200
       7058.00        81.2764         2.1995         2.5174       0.276700
       7058.50        84.2107         2.0834         2.5110       0.281400
       7059.00        88.9530         1.9852         2.5098       0.286200
       7059.50        90.2488         1.9423         2.5246       0.284600
       7060.00        87.9626         1.9717         2.5492       0.271900
       7060.50        87.8943         1.9175         2.5631       0.256000
       7061.00        77.4596         1.9721         2.5740       0.245200
       7061.50        60.8807         2.1563         2.6036       0.233800
       7062.00        50.2373         2.4383         2.6252       0.226400
       7062.50        58.0809         2.6974         2.6108       0.236100
       7063.00        67.5634         2.7709         2.5785       0.256900
       7063.50        78.3312         2.3520         2.5478       0.275000
       7064.00        89.0731         1.9849         2.5249       0.287500
       7064.50        91.3082         1.9188         2.5172       0.294600
       7065.00        91.1045         1.9371         2.5231       0.291500
       7065.50        87.2639         1.9643         2.5326       0.279800
       7066.00        86.4006         1.9714         2.5329       0.275300
       7066.50        88.0158         1.9389         2.5271       0.286700
       7067.00        88.3502         1.8771         2.5236       0.299100
       7067.50        88.3492         1.8100         2.5260       0.303000
       7068.00        88.9755         1.8271         2.5296       0.303900
       7068.50        90.3300         1.9046         2.5258       0.294500
       7069.00        90.0643         1.9264         2.5171       0.270500
       7069.50        82.8767         2.1103         2.5156       0.250500
       7070.00        74.2761         2.3619         2.5209       0.242300
       7070.50        70.0206         2.5574         2.5174       0.237900
       7071.00        75.3518         2.6518         2.4929       0.238000
       7071.50        81.7459         2.6350         2.4562       0.251700
       7072.00        89.3276         2.4814         2.4272       0.277700
       7072.50       103.0152         2.3013         2.4112       0.300100
       7073.00       112.6657         1.9558         2.4099       0.306000
       7073.50       112.5049         1.5130         2.4327       0.299500
       7074.00       106.2154         1.6465         2.4664       0.290800
       7074.50        99.7379         1.9578         2.4829       0.285500
       7075.00        95.1098         2.1280         2.4839       0.283600
       7075.50        91.4039         2.1522         2.4857       0.287600
       7076.00        89.5683         2.0572         2.4883       0.295600
       7076.50        89.4355         1.9317         2.4835       0.302800
       7077.00        90.9707         1.8310         2.4782       0.309700
       7077.50        92.2741         1.8018         2.4861       0.312300
       7078.00        90.1531         1.8694         2.4993       0.303900
       7078.50        87.4560         1.9620         2.5037       0.290700
       7079.00        86.6336         2.0510         2.5038       0.282900
       7079.50        86.4367         2.0615         2.5037       0.279400
       7080.00        84.6488         2.0643         2.5001       0.275200
       7080.50        84.1147         2.0832         2.4945       0.270100
       7081.00        83.3602         2.1504         2.4914       0.264800
       7081.50        85.6937         2.2091         2.4902       0.262100
       7082.00        82.9918         2.2172         2.4927       0.264900
       7082.50        80.2746         2.1795         2.4989       0.270600
       7083.00        80.6018         2.1405         2.5006       0.278900
       7083.50        81.4139         2.1023         2.4903       0.285900
       7084.00        81.6586         2.0569         2.4733       0.279400
       7084.50        81.0337         2.0273         2.4681       0.267100
       7085.00        80.5205         1.9936         2.4754       0.272300
       7085.50        81.6982         1.9513         2.4770       0.293000
       7086.00        83.3950         1.9490         2.4659       0.306000
       7086.50        87.0321         1.9910         2.4571       0.301100
       7087.00        85.0844         2.0707         2.4588       0.287300
       7087.50        79.5768         2.2570         2.4649       0.275500
       7088.00        76.4202         2.4660         2.4709       0.269700
       7088.50        76.9498         2.5237         2.4753       0.264900
       7089.00        78.9949         2.4780         2.4764       0.258400
       7089.50        81.7302         2.4440         2.4742       0.258100
       7090.00        83.3239         2.4288         2.4721       0.262400
       7090.50        85.2771         2.3466         2.4700       0.267100
       7091.00        89.8082         2.2514         2.4713       0.282500
       7091.50        93.7278         2.1395         2.4825       0.300700
       7092.00        87.3086         2.0979         2.4969       0.300200
       7092.50        86.3390         2.1564         2.5007       0.278400
       7093.00        81.3785         2.3045         2.4904       0.248800
       7093.50        69.9049         2.5174         2.4743       0.226800
       7094.00        55.6379         2.6517         2.4584       0.220000
       7094.50        53.8579         2.6539         2.4412       0.220900
       7095.00        51.5577         2.5643         2.4148       0.223300
       7095.50        48.4961         2.4378         2.3855       0.220800
       7096.00        46.9464         2.3401         2.3675       0.216600
       7096.50        42.9774         2.2694         2.3570       0.215200
