~Version Information Block
VERS .                  2.0:  CWLS LOG ASCII STANDARD - VERSION 2.0
WRAP .                   NO:  One line per depth step
~Well Information Block
#MNEM.UNIT        Data Type   Information
#---------- ----------------  -----------
STRT .FT            4880.50:  START DEPTH
STOP .FT           10428.00:  STOP DEPTH
STEP .FT               0.50:  STEP
NULL .              -999.25:  NULL VALUE
COMP .                     :  COMPANY
WELL .                STA-3:  WELL
FLD  .                     :  FIELD
LOC  .                     :  LOCATION
CTRY .                     :  COUNTRY
STAT .                     :  STATE
CNTY .                     :  COUNTY
SRVC .                     :  SERVICE COMPANY
DATE .                     :  DATE
API  .                     :  API NUMBER
UWI  .                     :  UNIQUE WELL ID
~Curve Information Block
#MNEM.UNIT         API CODE   Curve Description
#---------- ----------------  -----------------
DEPTH.FT                   :  DEPTH
GR   .GAPI                 :  Gamma Ray
RT   .OHMM                 :  Deep resistivity
RHOB .G/C3                 :  Bulk Density
NPHI .V/V                  :  Neutron porosity
DT   .US/F                 :  Sonic
~Parameter Information Block
#MNEM.UNIT            Value   Description
#---------- ----------------  -----------
PROJECT.            SANTAN_FE:  
~Other Information Block
# 
~A       DEPTH             GR             RT           RHOB           NPHI             DT 
# ...
       6438.00        95.3220         1.0566         2.3347       0.314200       113.3000
       6438.50        95.4294         1.0520         2.3393       0.316600       115.1000
       6439.00        98.2126         1.0567         2.3292       0.340600       116.9000
       6439.50        95.9988         0.9702         2.3305       0.347000       117.1500
       6440.00        98.7073         0.9284         2.3253       0.355300       118.2000
       6440.50        95.0279         0.9394         2.3349       0.346000       118.4000
       6441.00       100.7359         0.9968         2.3307       0.354400       118.4000
       6441.50        97.1401         0.9603         2.3424       0.364300       118.7000
       6442.00       100.0878         0.9017         2.3475       0.369700       120.1000
       6442.50       103.9125         0.9195         2.3672       0.376200       120.1000
       6443.00       105.4863         0.9029         2.3662       0.382900       120.0000
       6443.50       109.1337         0.9009         2.3685       0.360400       119.7000
       6444.00       107.4842         0.9521         2.3733       0.343300       119.8000
       6444.50       105.7777         0.9579         2.3786       0.320500       119.9500
       6445.00       100.4930         0.9353         2.3779       0.340500       118.3000
       6445.50        93.9957         0.9733         2.3812       0.345700       121.5000
       6446.00        94.9234         0.9374         2.3798       0.376900       120.4000
       6446.50        98.4125         0.8479         2.3674       0.386200       121.1000
       6447.00        98.6461         0.8253         2.3601       0.422200       119.9000
       6447.50        95.6495         0.8254         2.3813       0.394300       111.7500
       6448.00        87.3590         0.8777         2.4280       0.324200        95.9000
       6448.50        75.1820         1.2394         2.5246       0.219400        81.3500
       6449.00        64.3502         3.1928         2.6195       0.146600        72.3000
       6449.50        52.0235         5.5143         2.6614       0.127900        71.9000
       6450.00        50.8180         4.8650         2.6112       0.154700        76.5000
       6450.50        54.8281         3.8580         2.4795       0.202100        83.3000
       6451.00        66.2006         2.3085         2.3801       0.249600        92.5500
       6451.50        74.0196         1.7529         2.3384       0.267200       101.5000
       6452.00        75.5241         1.5057         2.3550       0.280700       106.1000
       6452.50        77.9501         1.1490         2.3649       0.301800       105.4500
       6453.00        78.4268         1.0603         2.3451       0.335000       106.6500
       6453.50        80.7093         1.1225         2.3585       0.343300       107.3000
       6454.00        77.8468         1.1399         2.3562       0.320000       106.1000
       6454.50        77.6876         1.3204         2.3619       0.290900       104.9500
       6455.00        76.2318         1.3884         2.3508       0.266900       102.8000
       6455.50        70.1128         1.4152         2.3371       0.270100       103.5500
       6456.00        66.7945         1.4608         2.3339       0.264400       102.9000
       6456.50        63.4459         1.5241         2.3392       0.273800       102.7000
       6457.00        65.5809         1.5900         2.3304       0.267200       101.8000
       6457.50        63.8659         1.6575         2.3129       0.270700       101.4500
       6458.00        60.8823         1.7366         2.2890       0.271100       101.2000
       6458.50        55.6269         1.8476         2.2593       0.269200       101.4000
       6459.00        55.2285         1.9430         2.2524       0.268100       101.3000
       6459.50        54.6196         1.9671         2.2680       0.278300       100.2500
       6460.00        56.9534         1.9444         2.2881       0.298700       101.8000
       6460.50        55.0753         1.8568         2.3005       0.294100       101.5000
       6461.00        56.8289         1.7811         2.2903       0.300200       102.0500
       6461.50        56.0134         1.7229         2.2881       0.304200       102.4000
       6462.00        60.3913         1.5991         2.3178       0.325500       101.5000
       6462.50        60.7800         1.5643         2.3200       0.329000       102.2500
       6463.00        62.6890         1.5556         2.3379       0.323500       105.8000
       6463.50        62.6890         1.4960         2.3512       0.310400       106.3000
       6464.00        61.9017         1.4382         2.3523       0.300400       106.8000
       6464.50        63.9025         1.4207         2.3586       0.301500       105.2500
       6465.00        64.6298         1.4402         2.3604       0.302000       104.7000
       6465.50        71.1147         1.4796         2.3727       0.292100       104.0000
       6466.00        72.8135         1.4878         2.3679       0.283000       103.4500
       6466.50        76.4233         1.5002         2.3722       0.282000       103.2500
       6467.00        75.6269         1.5081         2.3672       0.279900       102.9000
       6467.50        79.1095         1.5228         2.3655       0.279800       103.6000
       6468.00        79.5907         1.4923         2.3675       0.275800       103.5500
       6468.50        79.8936         1.4500         2.3899       0.282900       104.1000
       6469.00        78.9220         1.4347         2.3985       0.283800       104.3000
       6469.50        83.1575         1.3818         2.4119       0.282700       104.8500
       6470.00        85.8300         1.3746         2.4047       0.289000       104.9000
       6470.50        85.8436         1.3831         2.4183       0.299500       104.6000
       6471.00        81.6419         1.3939         2.4246       0.290900       103.8500
       6471.50        85.3345         1.4417         2.4353       0.283500       103.3000
       6472.00        89.2090         1.5230         2.4356       0.290600       104.6000
       6472.50        97.5642         1.3646         2.4356       0.337600       106.2000
       6473.00        96.8131         1.1226         2.4345       0.361700       106.0500
       6473.50        93.4425         1.2365         2.4470       0.338200       105.4000
       6474.00        82.9276         1.6482         2.4388       0.284200       103.5000
       6474.50        80.3852         1.7240         2.4454       0.259300       101.5000
       6475.00        84.7493         1.6216         2.4295       0.265000       101.2000
       6475.50        89.8998         1.6787         2.4266       0.279900       101.0500
       6476.00        91.4066         1.7205         2.4141       0.283700       101.7000
       6476.50        90.8133         1.7669         2.3987       0.283100       101.4000
       6477.00        91.5090         1.7437         2.3907       0.275600       101.5500
       6477.50        91.6863         1.7100         2.3879       0.281300       100.9000
       6478.00        91.9449         1.7867         2.3932       0.272900        99.9500
       6478.50        89.0537         1.9319         2.4012       0.272500        99.3500
       6479.00        94.0021         1.9970         2.4156       0.273300        99.1000
       6479.50        95.1148         1.8668         2.4296       0.281000        99.6500
       6480.00        96.3243         1.7066         2.4241       0.289300       100.8500
       6480.50        93.9640         1.6372         2.3954       0.280500       103.3000
       6481.00        97.4256         1.6788         2.3705       0.291100       106.1000
       6481.50       104.2682         1.5484         2.3772       0.318400       108.4500
       6482.00       103.4064         1.2838         2.3934       0.342100       108.9000
