~Version Information Block
VERS .                  2.0:  CWLS LOG ASCII STANDARD - VERSION 2.0
WRAP .                   NO:  One line per depth step
~Well Information Block
#MNEM.UNIT        Data Type   Information
#---------- ----------------  -----------
STRT .FT             350.00:  START DEPTH
STOP .FT           16021.50:  STOP DEPTH
STEP .FT               0.50:  STEP
NULL .              -999.25:  NULL VALUE
COMP .                     :  COMPANY
WELL .               STA-30:  WELL
FLD  .                     :  FIELD
LOC  .                     :  LOCATION
CTRY .                     :  COUNTRY
STAT .                     :  STATE
CNTY .                     :  COUNTY
SRVC .                     :  SERVICE COMPANY
DATE .                     :  DATE
API  .                     :  API NUMBER
UWI  .                     :  UNIQUE WELL ID
~Curve Information Block
#MNEM.UNIT         API CODE   Curve Description
#---------- ----------------  -----------------
DEPTH.FT                   :  
GR   .GAPI                 :  Merged RAW_LOG.GR_17P_1 with RAW_LOG.GR_12P_1 and RAW_LOG.GR_8P_1 and RAW_LOG.GR_6P_1 at 1127.75, 5954.49, 11516.11 F
RT   .OHMM                 :  RT_1 Depth Shifted (Shift Pairs in MATCH_RT set)
RHOB .G/C3                 :  RHOB_1 Depth Shifted (Shift Pairs in MATCH_RHOB set)
NPHI .V/V                  :  NPHI_1 Depth Shifted (Shift Pairs in MATCH_NPHI set)
~Parameter Information Block
#MNEM.UNIT            Value   Description
#---------- ----------------  -----------
PROJECT.            SANTAN_FE:  
~Other Information Block
# 
~A       DEPTH             GR             RT           RHOB           NPHI 
# ...
       5646.50        74.0066         1.6291         2.2992       0.441193
       5647.00        73.2300         1.6281         2.3011       0.447729
       5647.50        72.5507         1.6767         2.3015       0.455996
       5648.00        71.6434         1.7349         2.2993       0.459892
       5648.50        71.0576         1.7373         2.2950       0.460836
       5649.00        71.1507         1.7527         2.2923       0.458951
       5649.50        70.7407         1.8360         2.2941       0.449785
       5650.00        69.1033         1.8897         2.2981       0.432259
       5650.50        67.6020         2.0594         2.2986       0.412896
       5651.00        66.7256         2.3710         2.2938       0.398629
       5651.50        64.9042         2.7070         2.2876       0.386690
       5652.00        62.0669         3.1681         2.2884       0.366895
       5652.50        57.7000         4.9037         2.3085       0.336414
       5653.00        52.0209         7.8689         2.3571       0.295963
       5653.50        45.3774        13.0031         2.4277       0.246990
       5654.00        39.2679        17.5143         2.4999       0.198565
       5654.50        34.7778        19.4797         2.5559       0.163531
       5655.00        32.4223        20.3137         2.5888       0.145502
       5655.50        31.5264        20.9939         2.5941       0.141576
       5656.00        32.0678        22.1335         2.5679       0.148937
       5656.50        33.8039        24.9155         2.5165       0.166707
       5657.00        36.5965        27.6842         2.4551       0.198292
       5657.50        39.8032        29.7874         2.3935       0.244104
       5658.00        43.2435        14.8251         2.3356       0.295543
       5658.50        46.4246         8.5711         2.2917       0.340711
       5659.00        49.3726         6.7153         2.2707       0.369880
       5659.50        51.6291         5.3373         2.2686       0.380091
       5660.00        53.8375         4.1234         2.2737       0.379107
       5660.50        56.3454         3.4000         2.2787       0.378533
       5661.00        58.3076         3.0632         2.2837       0.381594
       5661.50        59.7878         2.6875         2.2890       0.387805
       5662.00        61.4913         2.2955         2.2927       0.395609
       5662.50        63.2206         2.0135         2.2943       0.399192
       5663.00        64.3684         1.8755         2.2954       0.398319
       5663.50        64.4254         1.8313         2.2953       0.401156
       5664.00        65.4504         1.7791         2.2915       0.410460
       5664.50        65.7112         1.7907         2.2849       0.421466
       5665.00        65.7108         1.8087         2.2806       0.430598
       5665.50        66.6198         1.7813         2.2817       0.435463
       5666.00        68.9260         1.7836         2.2875       0.433210
       5666.50        69.5310         1.8361         2.2953       0.425834
       5667.00        71.1019         1.9161         2.3020       0.420314
       5667.50        72.7975         1.9519         2.3065       0.418549
       5668.00        74.0668         1.9197         2.3098       0.417647
       5668.50        74.9859         1.9008         2.3120       0.419130
       5669.00        77.1694         1.8786         2.3121       0.424651
       5669.50        78.5295         1.8586         2.3104       0.429957
       5670.00        79.7809         1.8757         2.3087       0.435339
       5670.50        80.5855         1.8723         2.3081       0.446106
       5671.00        81.0293         1.8047         2.3074       0.460924
       5671.50        81.2546         1.7117         2.3055       0.475505
       5672.00        81.1759         1.6487         2.3029       0.489000
       5672.50        80.6451         1.6271         2.3005       0.499700
       5673.00        78.9487         1.6742         2.2983       0.503700
       5673.50        76.7773         1.8222         2.2948       0.499260
       5674.00        73.4906         1.7840         2.2895       0.487840
       5674.50        70.2740         1.8315         2.2842       0.473920
       5675.00        66.0401         1.9146         2.2811       0.456980
       5675.50        61.6056         1.9835         2.2791       0.435620
       5676.00        56.4640         2.1127         2.2749       0.414220
       5676.50        51.4609         2.1794         2.2712       0.394440
       5677.00        46.7757         2.2733         2.2752       0.377280
       5677.50        43.2533         2.3631         2.2849       0.368300
       5678.00        41.0237         2.4392         2.2899       0.368420
       5678.50        40.8333         2.4059         2.2903       0.372920
       5679.00        42.1244         2.3020         2.2976       0.379020
       5679.50        43.9770         2.1850         2.3119       0.382320
       5680.00        46.8595         2.1756         2.3195       0.378940
       5680.50        50.3239         2.1304         2.3135       0.371640
       5681.00        52.9405         2.0756         2.3035       0.363260
       5681.50        54.8012         2.0435         2.2981       0.354340
       5682.00        55.6872         2.0153         2.2951       0.348900
       5682.50        55.4997         1.9885         2.2900       0.349940
       5683.00        54.6884         1.9418         2.2841       0.352060
       5683.50        54.7628         1.9214         2.2821       0.350840
       5684.00        54.9107         1.9132         2.2870       0.349120
       5684.50        55.6479         1.9116         2.2956       0.348640
       5685.00        56.5329         1.8995         2.3013       0.346540
       5685.50        58.0207         1.8806         2.3009       0.343300
       5686.00        58.3798         1.8694         2.2960       0.342840
       5686.50        59.7335         1.8839         2.2884       0.344900
       5687.00        61.0007         1.8694         2.2774       0.345840
       5687.50        62.0527         1.8392         2.2635       0.346300
       5688.00        62.4475         1.7992         2.2498       0.349860
       5688.50        63.7130         1.7793         2.2405       0.355600
       5689.00        63.6200         1.7665         2.2369       0.359460
       5689.50        63.7136         1.7443         2.2379       0.362260
       5690.00        63.9469         1.7341         2.2412       0.367160
       5690.50        64.3194         1.7337         2.2465       0.372260
       5691.00        64.4856         1.7485         2.2542       0.374140
       5691.50        65.2077         1.7669         2.2645       0.374980
       5692.00        65.4090         1.7789         2.2756       0.376340
       5692.50        65.7337         1.7915         2.2852       0.377920
       5693.00        65.9428         1.8295         2.2917       0.382580
       5693.50        65.4645         1.8303         2.2954       0.393160
       5694.00        65.4598         1.8238         2.2979       0.407140
       5694.50        66.0624         1.8081         2.3015       0.418960
       5695.00        65.8362         1.8026         2.3065       0.425140
       5695.50        66.1410         1.8358         2.3103       0.427440
       5696.00        68.0125         1.8606         2.3098       0.429000
       5696.50        68.5215         1.8602         2.3047       0.431680
       5697.00        68.6894         1.8615         2.2974       0.439700
       5697.50        69.2671         1.8548         2.2902       0.455360
       5698.00        69.0765         1.8198         2.2850       0.471020
       5698.50        67.8946         1.8909         2.2855       0.477480
       5699.00        68.7354         1.9440         2.2933       0.474740
       5699.50        69.0803         1.9379         2.3024       0.466940
