~Version Information Block
VERS .                  2.0:  CWLS LOG ASCII STANDARD - VERSION 2.0
WRAP .                   NO:  One line per depth step
~Well Information Block
#MNEM.UNIT        Data Type   Information
#---------- ----------------  -----------
STRT .FT            6415.50:  START DEPTH
STOP .FT           16132.50:  STOP DEPTH
STEP .FT               0.50:  STEP
NULL .              -999.25:  NULL VALUE
COMP .                     :  COMPANY
WELL .               STA-33:  WELL
FLD  .                     :  FIELD
LOC  .                     :  LOCATION
CTRY .                     :  COUNTRY
STAT .                     :  STATE
CNTY .                     :  COUNTY
SRVC .                     :  SERVICE COMPANY
DATE .                     :  DATE
API  .                     :  API NUMBER
UWI  .                     :  UNIQUE WELL ID
~Curve Information Block
#MNEM.UNIT         API CODE   Curve Description
#---------- ----------------  -----------------
DEPTH.FT                   :  Depth
GR   .GAPI                 :  Gamma Ray
RT   .OHMM                 :  True Resistivity
RHOB .G/C3                 :  Bulk Density
NPHI .V/V                  :  Neutron Porosity
~Parameter Information Block
#MNEM.UNIT            Value   Description
#---------- ----------------  -----------
PROJECT.            SANTAN_FE:  
~Other Information Block
# 
~A       DEPTH             GR             RT           RHOB           NPHI 
# ...
      15403.50        75.4857         4.4244         2.5944       0.128700
      15404.00        73.3176         4.4092         2.6020       0.132500
      15404.50        76.9670         4.3822         2.6068       0.134200
      15405.00        77.5124         4.3433         2.6048       0.131900
      15405.50        75.9935         4.3422         2.6041       0.127500
      15406.00        77.9158         4.3730         2.6033       0.123800
      15406.50        73.0330         4.4609         2.6000       0.121600
      15407.00        67.9153         4.5371         2.5992       0.119500
      15407.50        65.6858         4.8106         2.5971       0.115600
      15408.00        62.4761         4.8319         2.5943       0.112400
      15408.50        63.4948         4.8224         2.5994       0.113300
      15409.00        64.1962         4.8268         2.6061       0.116100
      15409.50        64.4562         4.8086         2.6060       0.117100
      15410.00        66.2719         4.7572         2.6042       0.118000
      15410.50        68.2908         4.6985         2.6020       0.118300
      15411.00        69.4961         4.6781         2.5991       0.116300
      15411.50        70.3221         4.7287         2.6005       0.115000
      15412.00        66.1503         4.8443         2.6011       0.114800
      15412.50        62.2516         4.9157         2.5974       0.114400
      15413.00        60.8220         4.9326         2.5918       0.116100
      15413.50        63.2506         4.9391         2.5863       0.117400
      15414.00        69.7425         4.8981         2.5906       0.113400
      15414.50        68.7063         5.0188         2.6072       0.106900
      15415.00        60.6637         5.2738         2.6190       0.102800
      15415.50        60.3122         5.4492         2.6218       0.104600
      15416.00        58.9649         5.4676         2.6239       0.110800
      15416.50        61.6230         5.2566         2.6217       0.117100
      15417.00        67.7681         4.9673         2.6138       0.123200
      15417.50        70.9006         4.7351         2.6007       0.128600
      15418.00        73.7062         4.5608         2.5881       0.131400
      15418.50        76.6642         4.4242         2.5880       0.132600
      15419.00        79.0058         4.3465         2.5959       0.134800
      15419.50        79.8093         4.2883         2.6009       0.134200
      15420.00        79.3662         4.2696         2.6029       0.128300
      15420.50        82.7780         4.2815         2.6078       0.120000
      15421.00        75.4935         4.4230         2.6122       0.112400
      15421.50        67.2348         4.7272         2.6146       0.108900
      15422.00        58.5521         5.0106         2.6289       0.112000
      15422.50        56.4425         5.1210         2.6427       0.117700
      15423.00        57.4451         5.0336         2.6237       0.120800
      15423.50        56.2932         4.9020         2.5886       0.121500
      15424.00        54.4613         4.8222         2.5618       0.122700
      15424.50        55.3575         4.7687         2.5478       0.125600
      15425.00        54.9727         4.6888         2.5388       0.128100
      15425.50        56.3111         4.6367         2.5343       0.128000
      15426.00        58.5161         4.7173         2.5405       0.125100
      15426.50        61.9096         4.8475         2.5544       0.121300
      15427.00        62.9939         4.9052         2.5608       0.121100
      15427.50        65.5211         4.8507         2.5509       0.125500
      15428.00        66.0691         4.7491         2.5415       0.129100
      15428.50        67.8462         4.6383         2.5451       0.127300
      15429.00        68.2813         4.5353         2.5525       0.125000
      15429.50        70.5833         4.4945         2.5546       0.126500
      15430.00        69.7065         4.4890         2.5508       0.128800
      15430.50        70.2908         4.4605         2.5499       0.129900
      15431.00        68.7664         4.4765         2.5585       0.131900
      15431.50        69.1140         4.4561         2.5612       0.134400
      15432.00        70.5547         4.4385         2.5480       0.134300
      15432.50        67.2521         4.4673         2.5307       0.131500
      15433.00        61.5210         4.5171         2.5300       0.129200
      15433.50        64.0900         4.5269         2.5466       0.130200
      15434.00        67.4116         4.5110         2.5581       0.131900
      15434.50        68.8429         4.5611         2.5513       0.132200
      15435.00        68.3518         4.6652         2.5436       0.133700
      15435.50        65.1756         4.8125         2.5485       0.135400
      15436.00        66.9496         4.7278         2.5475       0.135100
      15436.50        70.1272         4.6211         2.5367       0.134300
      15437.00        75.2978         4.4606         2.5391       0.132800
      15437.50        78.4892         4.4052         2.5531       0.130700
      15438.00        82.5002         4.3421         2.5600       0.129800
      15438.50        81.7551         4.2896         2.5642       0.131200
      15439.00        83.1131         4.1929         2.5712       0.134700
      15439.50        89.2453         4.0840         2.5740       0.140100
      15440.00        89.3204         3.9989         2.5784       0.146700
      15440.50        92.5126         3.9242         2.5893       0.151700
      15441.00        94.6681         3.8861         2.5952       0.153500
      15441.50        92.6294         3.9491         2.5952       0.150600
      15442.00        90.6260         4.1062         2.5983       0.142700
      15442.50        83.9242         4.3433         2.6044       0.134500
      15443.00        69.8588         4.4785         2.6086       0.132300
      15443.50        56.7119         4.5131         2.5983       0.136400
      15444.00        51.8408         4.5131         2.5701       0.141600
      15444.50        51.2498         4.5213         2.5410       0.143200
      15445.00        50.7653         4.5522         2.5232       0.141400
      15445.50        49.7889         4.4707         2.5162       0.140400
      15446.00        50.9958         4.1877         2.5114       0.143300
      15446.50        52.1407         3.8121         2.4945       0.147600
      15447.00        48.1376         3.6002         2.4712       0.149900
      15447.50        46.5020         3.5552         2.4586       0.150200
      15448.00        42.4782         3.5545         2.4486       0.150900
      15448.50        42.9329         3.5771         2.4272       0.152600
      15449.00        45.6057         3.6161         2.4059       0.151900
      15449.50        49.6452         3.6860         2.4141       0.147900
      15450.00        49.1394         3.7352         2.4309       0.143300
      15450.50        49.2775         3.7690         2.4379       0.141500
      15451.00        49.0663         3.7525         2.4448       0.142800
      15451.50        51.8273         3.6619         2.4522       0.144500
      15452.00        47.2103         3.5176         2.4465       0.145200
      15452.50        44.0776         3.4634         2.4275       0.145300
      15453.00        45.6325         3.4487         2.4035       0.144400
      15453.50        49.6560         3.6191         2.3824       0.144100
      15454.00        52.1857         3.9114         2.3844       0.146400
      15454.50        53.4347         4.0415         2.4136       0.150200
      15455.00        51.6506         4.0842         2.4431       0.152700
      15455.50        48.7981         4.0571         2.4549       0.154200
      15456.00        49.7386         4.0159         2.4616       0.157500
      15456.50        45.8529         4.0161         2.4666       0.159500
