~Version Information Block
VERS .                  2.0:  CWLS LOG ASCII STANDARD - VERSION 2.0
WRAP .                   NO:  One line per depth step
~Well Information Block
#MNEM.UNIT        Data Type   Information
#---------- ----------------  -----------
STRT .FT            6091.50:  START DEPTH
STOP .FT           14295.50:  STOP DEPTH
STEP .FT               0.50:  STEP
NULL .              -999.25:  NULL VALUE
COMP .                     :  COMPANY
WELL .               STA-35:  WELL
FLD  .                     :  FIELD
LOC  .                     :  LOCATION
CTRY .                     :  COUNTRY
STAT .                     :  STATE
CNTY .                     :  COUNTY
SRVC .                     :  SERVICE COMPANY
DATE .                     :  DATE
API  .                     :  API NUMBER
UWI  .                     :  UNIQUE WELL ID
~Curve Information Block
#MNEM.UNIT         API CODE   Curve Description
#---------- ----------------  -----------------
DEPTH.FT                   :  Depth
GR   .GAPI                 :  Gamma Ray
RT   .OHMM                 :  True Resistivity
RHOB .G/C3                 :  Bulk Density
NPHI .V/V                  :  Neutron Porosity
~Parameter Information Block
#MNEM.UNIT            Value   Description
#---------- ----------------  -----------
PROJECT.            SANTAN_FE:  
~Other Information Block
# 
~A       DEPTH             GR             RT           RHOB           NPHI 
# ...
       8766.50        55.6853         2.3599         2.3801       0.289000
       8767.00        53.2422         2.3634         2.3949       0.285400
       8767.50        57.5108         2.1163         2.3946       0.291100
       8768.00        59.2060         2.0195         2.3843       0.294300
       8768.50        62.9702         2.0104         2.3868       0.290700
       8769.00        65.5747         2.0028         2.4050       0.287300
       8769.50        61.4365         1.9976         2.4238       0.290000
       8770.00        59.4409         1.9801         2.4325       0.288800
       8770.50        59.3762         1.9727         2.4267       0.281800
       8771.00        58.8296         1.9815         2.4185       0.280300
       8771.50        61.1412         1.9992         2.4179       0.283600
       8772.00        63.4524         2.0358         2.4205       0.287900
       8772.50        63.7802         2.0482         2.4193       0.296300
       8773.00        65.7595         2.0243         2.4148       0.302800
       8773.50        70.4975         2.0021         2.4170       0.297700
       8774.00        67.4985         2.0091         2.4347       0.288300
       8774.50        69.0411         2.0816         2.4561       0.287300
       8775.00        65.2495         2.1659         2.4646       0.289300
       8775.50        68.5865         2.2443         2.4647       0.281900
       8776.00        73.7637         2.2946         2.4746       0.274400
       8776.50        75.7511         2.2864         2.4912       0.280500
       8777.00        75.7787         2.2613         2.4913       0.298000
       8777.50        77.6449         2.1931         2.4713       0.314200
       8778.00        75.1108         2.0897         2.4505       0.321500
       8778.50        75.4422         2.0192         2.4463       0.322900
       8779.00        76.9962         1.9893         2.4493       0.322700
       8779.50        76.5434         1.9967         2.4494       0.312500
       8780.00        75.8288         2.0228         2.4503       0.290900
       8780.50        70.2484         2.0477         2.4493       0.274100
       8781.00        67.3846         2.0698         2.4338       0.273500
       8781.50        62.9854         2.0767         2.4105       0.276800
       8782.00        64.5244         2.1174         2.3965       0.278600
       8782.50        66.5308         2.1261         2.4011       0.282800
       8783.00        67.5829         2.1023         2.4147       0.283300
       8783.50        69.5803         2.0924         2.4198       0.276200
       8784.00        70.2970         2.0922         2.4118       0.269900
       8784.50        69.0038         2.1208         2.4054       0.271100
       8785.00        67.5907         2.1449         2.4062       0.274600
       8785.50        66.7528         2.1475         2.4077       0.275700
       8786.00        66.1812         2.1354         2.4086       0.277100
       8786.50        66.8489         2.1192         2.4061       0.284500
       8787.00        66.9837         2.1053         2.3943       0.294000
       8787.50        64.9312         2.0885         2.3788       0.298100
       8788.00        63.7993         2.0763         2.3688       0.295700
       8788.50        62.8950         2.0739         2.3604       0.289500
       8789.00        62.9343         2.0819         2.3481       0.283900
       8789.50        60.3104         2.0954         2.3382       0.280900
       8790.00        60.3010         2.1010         2.3399       0.279700
       8790.50        57.3040         2.1020         2.3456       0.284700
       8791.00        59.6818         2.0973         2.3431       0.294100
       8791.50        60.6462         2.1001         2.3362       0.298100
       8792.00        59.2071         2.0994         2.3327       0.298400
       8792.50        59.7770         2.1008         2.3322       0.299400
       8793.00        60.9987         2.1304         2.3346       0.296400
       8793.50        66.2605         2.1519         2.3391       0.292000
       8794.00        66.5509         2.1358         2.3417       0.290900
       8794.50        67.5764         2.1164         2.3399       0.291700
       8795.00        64.8964         2.1099         2.3341       0.292500
       8795.50        66.0611         2.0888         2.3296       0.290100
       8796.00        64.1472         2.0598         2.3292       0.288600
       8796.50        64.7227         2.0414         2.3279       0.295300
       8797.00        66.7683         2.0196         2.3215       0.302000
       8797.50        65.4107         1.9785         2.3242       0.301500
       8798.00        67.7910         1.9835         2.3499       0.296600
       8798.50        69.1245         2.0040         2.3810       0.284100
       8799.00        65.5519         2.0286         2.4027       0.272100
       8799.50        65.6469         2.0995         2.4165       0.270500
       8800.00        65.8909         2.1907         2.4258       0.272900
       8800.50        65.0922         2.2719         2.4301       0.270700
       8801.00        65.0230         2.3557         2.4253       0.267400
       8801.50        64.0303         2.4104         2.4139       0.265100
       8802.00        68.1688         2.4233         2.4100       0.261900
       8802.50        64.9493         2.4234         2.4139       0.260600
       8803.00        64.5648         2.4037         2.4189       0.263200
       8803.50        68.1794         2.3710         2.4243       0.267400
       8804.00        67.8385         2.3344         2.4261       0.270500
       8804.50        66.7752         2.3111         2.4230       0.274500
       8805.00        66.5681         2.2940         2.4193       0.279800
       8805.50        66.0298         2.2771         2.4155       0.280600
       8806.00        64.1659         2.2730         2.4106       0.277500
       8806.50        64.5115         2.2921         2.4084       0.270600
       8807.00        65.5748         2.3235         2.4130       0.261000
       8807.50        62.9953         2.3335         2.4232       0.254800
       8808.00        63.9451         2.3180         2.4308       0.253300
       8808.50        64.7198         2.2947         2.4235       0.257200
       8809.00        61.0004         2.2864         2.4012       0.264300
       8809.50        63.5582         2.2821         2.3805       0.267900
       8810.00        65.8009         2.2812         2.3755       0.268100
       8810.50        64.8677         2.2849         2.3814       0.268200
       8811.00        64.8038         2.2932         2.3861       0.268700
       8811.50        64.0129         2.3166         2.3873       0.269500
       8812.00        60.7275         2.3330         2.3883       0.269600
       8812.50        58.8291         2.3301         2.3882       0.267600
       8813.00        60.1156         2.3000         2.3892       0.264700
       8813.50        58.8694         2.4580         2.3976       0.263300
       8814.00        62.0893         2.5096         2.4046       0.261600
       8814.50        59.6976         2.4841         2.4045       0.256700
       8815.00        60.6835         2.4950         2.4070       0.252400
       8815.50        61.0998         2.4371         2.4054       0.253800
       8816.00        59.9121         2.4190         2.3959       0.259600
       8816.50        62.3343         2.4350         2.3891       0.267700
       8817.00        68.1532         2.3976         2.3865       0.281000
       8817.50        66.9186         2.3814         2.3790       0.293200
       8818.00        69.1132         2.3569         2.3662       0.291300
       8818.50        68.4953         2.3523         2.3588       0.281700
       8819.00        69.4289         2.3894         2.3615       0.282500
       8819.50        70.6550         2.4374         2.3668       0.288800
