~Version Information Block
VERS .                  2.0:  CWLS LOG ASCII STANDARD - VERSION 2.0
WRAP .                   NO:  One line per depth step
~Well Information Block
#MNEM.UNIT        Data Type   Information
#---------- ----------------  -----------
STRT .FT             780.00:  START DEPTH
STOP .FT            8996.00:  STOP DEPTH
STEP .FT               0.50:  STEP
NULL .              -999.25:  NULL VALUE
COMP .                     :  COMPANY
WELL .                STA-4:  WELL
FLD  .                     :  FIELD
LOC  .                     :  LOCATION
CTRY .                     :  COUNTRY
STAT .                     :  STATE
CNTY .                     :  COUNTY
SRVC .                     :  SERVICE COMPANY
DATE .                     :  DATE
API  .                     :  API NUMBER
UWI  .                     :  UNIQUE WELL ID
~Curve Information Block
#MNEM.UNIT         API CODE   Curve Description
#---------- ----------------  -----------------
DEPTH.FT                   :  DEPTH
GR   .GAPI                 :  Gamma Ray
RT   .OHMM                 :  SEDP
RHOB .G/C3                 :  Bulk Density
NPHI .V/V                  :  Neutron porosity
~Parameter Information Block
#MNEM.UNIT            Value   Description
#---------- ----------------  -----------
PROJECT.            SANTAN_FE:  
~Other Information Block
# 
~A       DEPTH             GR             RT           RHOB           NPHI 
# ...
       3508.50        98.2800         1.5800         2.2300       0.517100
       3509.00        96.3500         1.5700         2.1800       0.509000
       3509.50        93.3700         1.5700         2.1700       0.512500
       3510.00        87.8900         1.5600         2.1600       0.519700
       3510.50        86.0800         1.5700         2.1500       0.526500
       3511.00        84.8600         1.5800         2.1400       0.528700
       3511.50        85.2000         1.5800         2.1400       0.532200
       3512.00        84.9800         1.5800         2.1300       0.545100
       3512.50        81.4800         1.5700         2.1300       0.546700
       3513.00        81.8500         1.5700         2.1300       0.536700
       3513.50        90.7000         1.5800         2.1200       0.526600
       3514.00        91.5200         1.6000         2.1200       0.525900
       3514.50        84.5600         1.6000         2.1200       0.530000
       3515.00        85.5100         1.6000         2.1200       0.533700
       3515.50        93.0100         1.6200         2.1300       0.534900
       3516.00        96.0700         1.6300         2.1400       0.536700
       3516.50        95.5600         1.6000         2.1400       0.538800
       3517.00        91.4900         1.5900         2.1400       0.540900
       3517.50        91.4800         1.6000         2.1500       0.543400
       3518.00        91.4900         1.6200         2.1700       0.546900
       3518.50        90.5700         1.6400         2.1700       0.548900
       3519.00        82.7000         1.6800         2.1600       0.551100
       3519.50        80.0400         1.7200         2.1500       0.556300
       3520.00        86.5300         1.7000         2.1400       0.552700
       3520.50        88.6600         1.6700         2.1400       0.543400
       3521.00        88.7100         1.6700         2.1400       0.533800
       3521.50        84.3900         1.6600         2.1500       0.531400
       3522.00        81.9300         1.6700         2.1500       0.536800
       3522.50        81.7600         1.6800         2.1600       0.540200
       3523.00        81.3200         1.6400         2.1700       0.544500
       3523.50        80.8400         1.6200         2.1700       0.547400
       3524.00        84.5200         1.6200         2.1700       0.556500
       3524.50        88.2100         1.6400         2.1700       0.557500
       3525.00        85.7500         1.6300         2.1600       0.552500
       3525.50        83.9800         1.6100         2.1600       0.548100
       3526.00        92.2800         1.5900         2.1600       0.548000
       3526.50        93.5500         1.5800         2.1700       0.545600
       3527.00        90.1600         1.5700         2.1700       0.540900
       3527.50        85.4500         1.5700         2.1700       0.532500
       3528.00        86.3800         1.5500         2.1700       0.529600
       3528.50        87.3800         1.5500         2.1700       0.531800
       3529.00        87.8300         1.5300         2.1700       0.526700
       3529.50        88.1100         1.4800         2.1600       0.518600
       3530.00        88.3000         1.5000         2.1600       0.522400
       3530.50        86.6000         1.5200         2.1500       0.534300
       3531.00        84.8400         1.5300         2.1400       0.540900
       3531.50        88.4300         1.5200         2.1400       0.548700
       3532.00        92.7600         1.5000         2.1400       0.558500
       3532.50        93.0900         1.4900         2.1500       0.559500
       3533.00        87.8800         1.5100         2.1500       0.563800
       3533.50        88.4200         1.5100         2.1500       0.565100
       3534.00        93.9800         1.5100         2.1500       0.556800
       3534.50        94.3600         1.4900         2.1500       0.528800
       3535.00        87.2500         1.5000         2.1500       0.511100
       3535.50        90.5300         1.5000         2.1500       0.496000
       3536.00        91.1000         1.5100         2.1500       0.493700
       3536.50        88.4400         1.5100         2.1500       0.500400
       3537.00        91.1200         1.5100         2.1500       0.524600
       3537.50        90.6100         1.5100         2.1500       0.532300
       3538.00        86.1300         1.5200         2.1500       0.526300
       3538.50        94.9900         1.5300         2.1500       0.522500
       3539.00        96.2000         1.5600         2.1600       0.520800
       3539.50        80.7600         1.6100         2.1600       0.519300
       3540.00        77.6900         1.6500         2.1600       0.520000
       3540.50        78.9800         1.6600         2.1600       0.525300
       3541.00        77.0100         1.6900         2.1600       0.518400
       3541.50        68.1600         1.7500         2.1600       0.499500
       3542.00        66.6000         1.9600         2.1600       0.489700
       3542.50        76.2400         2.0000         2.1600       0.481000
       3543.00        74.8200         1.9500         2.1600       0.469900
       3543.50        70.5900         1.8600         2.1800       0.460300
       3544.00        72.1000         1.7700         2.1600       0.456700
       3544.50        71.7900         1.6700         2.1200       0.460900
       3545.00        58.6000         1.5900         2.0900       0.459000
       3545.50        57.3400         1.5300         2.0600       0.453100
       3546.00        65.7900         1.4800         2.0100       0.453200
       3546.50        64.3800         1.4600         1.9900       0.456600
       3547.00        60.1000         1.4700         1.9700       0.450000
       3547.50        61.6100         1.5500         1.9500       0.448700
       3548.00        64.6300         1.4500         1.9400       0.451200
       3548.50        71.9900         1.4100         1.9400       0.453400
       3549.00        66.0600         1.4100         1.9400       0.453800
       3549.50        64.5500         1.3900         1.9500       0.458300
       3550.00        67.0200         1.3800         1.9800       0.461400
       3550.50        70.0400         1.3800         1.9900       0.456500
       3551.00        76.3700         1.3900         2.0100       0.441600
       3551.50        72.1500         1.3900         2.0200       0.438300
       3552.00        69.3800         1.4000         2.0400       0.443900
       3552.50        64.4800         1.3900         2.0700       0.456600
       3553.00        72.3200         1.3600         2.0800       0.453900
       3553.50        82.3500         1.3600         2.0900       0.440500
       3554.00        78.8800         1.3600         2.1100       0.433700
       3554.50        76.3400         1.3600         2.1100       0.425000
       3555.00        76.5300         1.3600         2.1100       0.425400
       3555.50        76.1100         1.3700         2.1100       0.433800
       3556.00        76.5600         1.4100         2.1100       0.447800
       3556.50        73.7000         1.3900         2.1100       0.454800
       3557.00        72.7900         1.3700         2.1100       0.460300
       3557.50        73.1300         1.3700         2.1000       0.464100
       3558.00        75.9500         1.4000         2.1100       0.467600
       3558.50        78.4900         1.4000         2.1100       0.472500
       3559.00        77.6000         1.3800         2.1000       0.472300
       3559.50        76.0400         1.3900         2.0700       0.468900
       3560.00        75.2700         1.4000         2.0500       0.466000
       3560.50        82.1600         1.4200         2.0400       0.467700
       3561.00        82.5400         1.4300         2.0300       0.471400
       3561.50        76.9200         1.4400         2.0300       0.473900
