~Version Information Block
VERS .                  2.0:  CWLS LOG ASCII STANDARD - VERSION 2.0
WRAP .                   NO:  One line per depth step
~Well Information Block
#MNEM.UNIT        Data Type   Information
#---------- ----------------  -----------
STRT .FT            3742.00:  START DEPTH
STOP .FT            8440.00:  STOP DEPTH
STEP .FT               0.50:  STEP
NULL .              -999.25:  NULL VALUE
COMP .                     :  COMPANY
WELL .                STA-2:  WELL
FLD  .                     :  FIELD
LOC  .                     :  LOCATION
CTRY .                     :  COUNTRY
STAT .                     :  STATE
CNTY .                     :  COUNTY
SRVC .                     :  SERVICE COMPANY
DATE .                     :  DATE
API  .                     :  API NUMBER
UWI  .                     :  UNIQUE WELL ID
~Curve Information Block
#MNEM.UNIT         API CODE   Curve Description
#---------- ----------------  -----------------
DEPTH.FT                   :  DEPTH
GR   .GAPI                 :  Gamma Ray
RT   .OHMM                 :  Deep resistivity
RHOB .G/C3                 :  Bulk Density
NPHI .V/V                  :  Neutron porosity
DT   .US/F                 :  Sonic
~Parameter Information Block
#MNEM.UNIT            Value   Description
#---------- ----------------  -----------
PROJECT.            SANTAN_FE:  
~Other Information Block
# 
~A       DEPTH             GR             RT           RHOB           NPHI             DT 
# ...
       4587.50        92.0500         1.9700         2.3000       0.370000       117.8000
       4588.00        83.1600         1.9200         2.2900       0.360000       114.1000
       4588.50        75.8800         2.0400         2.3000       0.340000       113.4500
       4589.00        75.6100         2.2400         2.2900       0.340000       113.9500
       4589.50        69.9400         2.1300         2.2700       0.340000       115.2000
       4590.00        62.4400         1.9600         2.2500       0.330000       115.5000
       4590.50        55.7900         2.0500         2.2100       0.330000       115.1500
       4591.00        56.3300         1.8200         2.2000       0.330000       115.8000
       4591.50        61.9600         1.9700         2.2400       0.340000       116.3000
       4592.00        72.6700         2.3700         2.2700       0.330000       116.9000
       4592.50        84.0000         2.1300         2.3000       0.340000       118.5500
       4593.00        91.2100         1.5300         2.3000       0.360000       119.8500
       4593.50        91.9400         1.5100         2.3100       0.390000       121.6500
       4594.00        90.2300         1.4400         2.3100       0.380000       122.0000
       4594.50        91.6900         1.5000         2.3100       0.370000       122.0500
       4595.00        93.2100         1.5900         2.3000       0.370000       120.9500
       4595.50        94.5700         1.6600         2.2800       0.370000       119.2000
       4596.00        89.0500         1.6800         2.2700       0.370000       117.2000
       4596.50        78.6500         1.8600         2.2500       0.340000       115.4000
       4597.00        72.6000         2.0200         2.2300       0.330000       114.6000
       4597.50        69.0000         1.9200         2.2400       0.320000       114.5500
       4598.00        73.9700         1.9800         2.2400       0.330000       114.2000
       4598.50        72.6800         1.9100         2.2600       0.320000       113.9000
       4599.00        76.9200         1.8200         2.2900       0.330000       113.1000
       4599.50        73.9200         1.9000         2.3100       0.330000       113.1500
       4600.00        77.8000         1.8600         2.3000       0.340000       113.3500
       4600.50        75.6000         1.8200         2.3100       0.340000       113.2500
       4601.00        81.7900         1.8500         2.3100       0.360000       114.1000
       4601.50        82.7900         1.8500         2.3100       0.380000       116.9000
       4602.00        89.3300         1.4700         2.3200       0.390000       119.4000
       4602.50        90.1300         1.5300         2.3000       0.370000       120.8500
       4603.00        87.7900         1.5300         2.3000       0.380000       121.8000
       4603.50        86.1300         1.6200         2.2800       0.370000       121.2500
       4604.00        81.4200         1.4200         2.2800       0.360000       120.2000
       4604.50        77.5200         1.6400         2.2700       0.340000       118.7000
       4605.00        65.7400         1.7400         2.2200       0.330000       119.7000
       4605.50        58.4100         1.7000         2.1700       0.320000       120.7500
       4606.00        52.3800         1.7100         2.1300       0.330000       121.9500
       4606.50        51.5300         1.6600         2.1300       0.310000       123.0000
       4607.00        52.4600         1.5200         2.1300       0.310000       122.7000
       4607.50        52.5800         1.5400         2.1100       0.310000       121.4000
       4608.00        58.2000         1.5700         2.1100       0.320000       120.9000
       4608.50        65.9800         1.5600         2.1400       0.350000       121.6000
       4609.00        77.0900         1.5300         2.1900       0.350000       121.2500
       4609.50        80.5600         1.4100         2.2100       0.350000       120.6000
       4610.00        77.1800         1.4400         2.2200       0.350000       122.3000
       4610.50        69.5900         1.4700         2.1900       0.330000       122.7500
       4611.00        66.0900         1.5500         2.1800       0.340000       122.6000
       4611.50        71.8800         1.5100         2.1800       0.350000       122.8500
       4612.00        77.7600         1.4000         2.2000       0.360000       122.4000
       4612.50        77.5500         1.4400         2.2200       0.380000       124.5000
       4613.00        72.0300         1.4900         2.2000       0.400000       124.9000
       4613.50        64.2600         1.3600         2.1500       0.420000       125.4500
       4614.00        58.2200         1.6900         2.1000       0.400000       126.2500
       4614.50        49.0100         1.5300         2.0800       0.370000       126.5000
       4615.00        48.9000         1.3900         2.0700       0.350000       127.2500
       4615.50        46.6200         1.3600         2.0600       0.330000       126.2000
       4616.00        49.2800         1.4300         2.0600       0.320000       124.4500
       4616.50        55.7800         1.4300         2.1000       0.330000       122.4500
       4617.00        63.6300         1.4800         2.1500       0.340000       120.7500
       4617.50        74.4900         1.4400         2.2000       0.350000       119.8000
       4618.00        82.7600         1.4800         2.2300       0.370000       119.7000
       4618.50        91.6100         1.3500         2.2500       0.370000       121.0500
       4619.00        94.9500         1.2500         2.2600       0.390000       122.5500
       4619.50        94.2200         1.1700         2.2800       0.410000       123.7000
       4620.00        97.0900         1.1300         2.2700       0.410000       126.6000
       4620.50       100.2300         1.1500         2.2600       0.410000       129.7000
       4621.00       104.2400         1.2000         2.2500       0.420000       133.0000
       4621.50       104.6100         1.1000         2.2500       0.430000       133.7500
       4622.00       106.2200         1.0100         2.2500       0.420000       133.6500
       4622.50       111.3500         1.0200         2.2600       0.390000       133.2000
       4623.00       115.1800         0.9800         2.2500       0.450000       133.3000
       4623.50       125.2700         1.0400         2.2000       0.560000       130.4000
       4624.00       124.5600         0.5800         2.2100       0.550000       114.8500
       4624.50       111.8600         0.7900         2.3100       0.410000        94.9500
       4625.00        81.5000         1.4300         2.5300       0.200000        78.3500
       4625.50        51.1700         2.0400         2.5700       0.130000        70.7500
       4626.00        38.0800         2.2900         2.3600       0.170000        75.5000
       4626.50        35.4300         1.5100         2.1800       0.260000        94.6000
       4627.00        41.4400         2.3800         2.1100       0.330000       116.8000
       4627.50        46.5000         1.9700         2.0900       0.350000       120.6500
       4628.00        53.0900         1.4400         2.1100       0.350000       118.9500
       4628.50        54.3300         1.3400         2.1200       0.340000       118.4000
       4629.00        50.9900         1.4100         2.1400       0.330000       117.4000
       4629.50        52.1500         1.4400         2.1600       0.320000       121.3000
       4630.00        61.2600         1.4700         2.2000       0.340000       118.6000
       4630.50        72.6200         1.5500         2.2300       0.360000       117.6500
       4631.00        77.8800         1.5600         2.2600       0.370000       118.5000
       4631.50        79.8300         1.6000         2.2700       0.360000       118.7000
