~Version Information Block
VERS .                  2.0:  CWLS LOG ASCII STANDARD - VERSION 2.0
WRAP .                   NO:  One line per depth step
~Well Information Block
#MNEM.UNIT        Data Type   Information
#---------- ----------------  -----------
STRT .FT            6415.50:  START DEPTH
STOP .FT           16132.50:  STOP DEPTH
STEP .FT               0.50:  STEP
NULL .              -999.25:  NULL VALUE
COMP .                     :  COMPANY
WELL .               STA-33:  WELL
FLD  .                     :  FIELD
LOC  .                     :  LOCATION
CTRY .                     :  COUNTRY
STAT .                     :  STATE
CNTY .                     :  COUNTY
SRVC .                     :  SERVICE COMPANY
DATE .                     :  DATE
API  .                     :  API NUMBER
UWI  .                     :  UNIQUE WELL ID
~Curve Information Block
#MNEM.UNIT         API CODE   Curve Description
#---------- ----------------  -----------------
DEPTH.FT                   :  Depth
GR   .GAPI                 :  Gamma Ray
RT   .OHMM                 :  True Resistivity
RHOB .G/C3                 :  Bulk Density
NPHI .V/V                  :  Neutron Porosity
~Parameter Information Block
#MNEM.UNIT            Value   Description
#---------- ----------------  -----------
PROJECT.            SANTAN_FE:  
~Other Information Block
# 
~A       DEPTH             GR             RT           RHOB           NPHI 
# ...
      10267.50        75.4652         2.5839         2.5064       0.258300
      10268.00        74.7304         2.5466         2.5031       0.268900
      10268.50        79.3508         2.5231         2.4947       0.277600
      10269.00        84.1382         2.4690         2.4869       0.281200
      10269.50        83.3878         2.3155         2.4823       0.281700
      10270.00        90.9813         2.1794         2.4844       0.285500
      10270.50        86.5470         2.2744         2.4942       0.287700
      10271.00        86.0088         2.3225         2.5003       0.288500
      10271.50        86.8611         2.2613         2.5015       0.296700
      10272.00        88.5693         2.1685         2.5062       0.303000
      10272.50        92.9336         2.2097         2.5111       0.299200
      10273.00        94.6841         2.2900         2.5073       0.295500
      10273.50        89.1113         2.3309         2.5033       0.291000
      10274.00        85.3300         2.3880         2.5069       0.274700
      10274.50        80.7767         2.4154         2.5098       0.254100
      10275.00        74.4807         2.6406         2.5045       0.242300
      10275.50        67.0416         2.8522         2.4916       0.235400
      10276.00        61.3672         2.9835         2.4770       0.225000
      10276.50        57.5066         3.0769         2.4656       0.215500
      10277.00        58.3764         3.1934         2.4582       0.213200
      10277.50        59.2502         3.3222         2.4539       0.212800
      10278.00        59.1835         3.4832         2.4535       0.207100
      10278.50        55.4012         3.6698         2.4558       0.196400
      10279.00        54.0965         3.9778         2.4632       0.171300
      10279.50        54.6940         4.3402         2.4825       0.141900
      10280.00        49.9944         4.5120         2.5185       0.132200
      10280.50        46.6545         4.6662         2.5606       0.137400
      10281.00        45.0745         4.7369         2.5764       0.155500
      10281.50        43.6539         4.6346         2.5441       0.171400
      10282.00        47.7043         4.3093         2.4781       0.185000
      10282.50        51.8381         4.0877         2.4278       0.197000
      10283.00        53.8160         3.8793         2.4180       0.202300
      10283.50        54.0001         3.7356         2.4285       0.202000
      10284.00        56.3816         3.5801         2.4440       0.201100
      10284.50        56.4157         3.4702         2.4585       0.200300
      10285.00        54.8425         3.2617         2.4655       0.199300
      10285.50        53.8225         3.0960         2.4641       0.200300
      10286.00        53.4679         2.9505         2.4606       0.204400
      10286.50        53.0609         2.7962         2.4578       0.210800
      10287.00        54.4347         2.6858         2.4526       0.218700
      10287.50        57.0043         2.6609         2.4471       0.227300
      10288.00        60.9188         2.6504         2.4481       0.235300
      10288.50        66.8471         2.6424         2.4534       0.241600
      10289.00        70.3513         2.6331         2.4600       0.241900
      10289.50        73.6226         2.6186         2.4703       0.233500
      10290.00        71.8391         2.6222         2.4768       0.229100
      10290.50        71.6064         2.6413         2.4726       0.235300
      10291.00        68.0055         2.6238         2.4674       0.240000
      10291.50        65.4701         2.6062         2.4656       0.238500
      10292.00        65.2281         2.6214         2.4632       0.235900
      10292.50        63.7645         2.6347         2.4591       0.230700
      10293.00        61.9846         2.6309         2.4564       0.222700
      10293.50        62.1416         2.6465         2.4606       0.220600
      10294.00        63.9118         2.6662         2.4736       0.226900
      10294.50        65.4815         2.6820         2.4812       0.234400
      10295.00        64.4320         2.6879         2.4796       0.238300
      10295.50        68.1676         2.6650         2.4779       0.243300
      10296.00        72.7400         2.5979         2.4779       0.252600
      10296.50        76.4341         2.5089         2.4785       0.263100
      10297.00        77.6385         2.4482         2.4839       0.271700
      10297.50        79.1818         2.3469         2.4913       0.281200
      10298.00        82.3622         2.2657         2.4974       0.284500
      10298.50        85.7961         2.2999         2.5014       0.278500
      10299.00        81.2185         2.3240         2.5010       0.268400
      10299.50        71.0180         2.4385         2.4992       0.249300
      10300.00        63.7828         2.5408         2.4935       0.221100
      10300.50        57.6737         2.6722         2.4805       0.200700
      10301.00        50.8500         2.9591         2.4687       0.179300
      10301.50        46.5449         3.7649         2.4845       0.139900
      10302.00        34.5668         5.3215         2.5555       0.092800
      10302.50        31.4234         7.3394         2.6463       0.055900
      10303.00        26.7836         9.8999         2.6976       0.036800
      10303.50        24.8265        12.1835         2.7102       0.032800
      10304.00        23.2773        17.7723         2.7171       0.039500
      10304.50        29.6203        39.6199         2.7259       0.055300
      10305.00        39.1177       198.4184         2.7189       0.078300
      10305.50        43.7530        76.8689         2.7006       0.095600
      10306.00        42.5595        82.5340         2.6915       0.099000
      10306.50        39.5132        62.9909         2.6899       0.096900
      10307.00        38.2002       100.0739         2.6825       0.101700
      10307.50        42.5225       330.3529         2.6621       0.112400
      10308.00        47.2183       310.0763         2.6252       0.126700
      10308.50        55.5858        50.3543         2.5778       0.147900
      10309.00        61.8118        17.8290         2.5333       0.178000
      10309.50        76.2554         9.9119         2.5005       0.210900
      10310.00        83.0388         6.5832         2.4812       0.233700
      10310.50        80.1129         4.9715         2.4783       0.240800
      10311.00        83.9633         4.3568         2.4893       0.243700
      10311.50        83.9998         3.8473         2.5033       0.252100
      10312.00        86.9632         3.2579         2.5093       0.262900
      10312.50        89.8369         2.8963         2.5130       0.267500
      10313.00        91.1023         2.7313         2.5171       0.267100
      10313.50        87.7285         2.7564         2.5134       0.267200
      10314.00        85.8937         2.7389         2.5077       0.260400
      10314.50        82.0480         2.7503         2.5098       0.248900
      10315.00        78.1589         2.7465         2.5123       0.246800
      10315.50        80.2349         2.7192         2.5107       0.246400
      10316.00        81.6617         2.7286         2.5105       0.234200
      10316.50        80.0607         2.7951         2.5084       0.220200
      10317.00        72.4779         2.8492         2.5041       0.217100
      10317.50        69.6741         2.8661         2.5073       0.219200
      10318.00        64.8088         2.8555         2.5086       0.218700
      10318.50        66.4074         2.8511         2.4927       0.221200
      10319.00        70.0101         2.8734         2.4759       0.227900
      10319.50        73.9350         2.8967         2.4760       0.231200
      10320.00        73.6866         2.9246         2.4857       0.231600
      10320.50        71.4797         2.9509         2.4874       0.230700
