~Version Information Block
VERS .                  2.0:  CWLS LOG ASCII STANDARD - VERSION 2.0
WRAP .                   NO:  One line per depth step
~Well Information Block
#MNEM.UNIT        Data Type   Information
#---------- ----------------  -----------
STRT .FT            3811.50:  START DEPTH
STOP .FT            9515.50:  STOP DEPTH
STEP .FT               0.50:  STEP
NULL .              -999.25:  NULL VALUE
COMP .                     :  COMPANY
WELL .                STA-6:  WELL
FLD  .                     :  FIELD
LOC  .                     :  LOCATION
CTRY .                     :  COUNTRY
STAT .                     :  STATE
CNTY .                     :  COUNTY
SRVC .                     :  SERVICE COMPANY
DATE .                     :  DATE
API  .                     :  API NUMBER
UWI  .                     :  UNIQUE WELL ID
~Curve Information Block
#MNEM.UNIT         API CODE   Curve Description
#---------- ----------------  -----------------
DEPTH.FT                   :  DEPTH
GR   .GAPI                 :  Gamma Ray
RT   .OHMM                 :  Deep resistivity
RHOB .G/C3                 :  Bulk Density
NPHI .V/V                  :  Neutron porosity
DT   .US/F                 :  Sonic
~Parameter Information Block
#MNEM.UNIT            Value   Description
#---------- ----------------  -----------
PROJECT.            SANTAN_FE:  
~Other Information Block
# 
~A       DEPTH             GR             RT           RHOB           NPHI             DT 
# ...
       4434.50        95.8300         1.6100         2.2300       0.390000       126.4500
       4435.00        98.8700         1.6200         2.2400       0.400000       126.2000
       4435.50        97.9500         1.6200         2.2600       0.390000       125.6000
       4436.00        98.8000         1.6100         2.2600       0.390000       125.8000
       4436.50        98.8000         1.6200         2.2700       0.380000       125.2000
       4437.00        96.4200         1.5700         2.2600       0.380000       125.8000
       4437.50        93.5000         1.5700         2.2500       0.390000       125.8000
       4438.00        93.6500         1.5600         2.2500       0.420000       126.1000
       4438.50        98.4800         1.5300         2.2500       0.440000       126.1000
       4439.00       105.5200         1.5000         2.2600       0.430000       126.5000
       4439.50       108.2500         1.4600         2.2700       0.420000       127.3000
       4440.00       112.4800         1.4400         2.2600       0.420000       128.6000
       4440.50       111.3700         1.3700         2.2500       0.450000       130.6000
       4441.00       109.7900         1.3100         2.2400       0.450000       132.1000
       4441.50       105.0000         1.3000         2.2400       0.490000       132.3000
       4442.00       106.7900         1.2900         2.2500       0.470000       131.8500
       4442.50       108.3100         1.5100         2.2500       0.480000       130.8500
       4443.00       107.3400         1.5700         2.2400       0.430000       129.0000
       4443.50       109.6400         1.4800         2.2500       0.420000       128.3000
       4444.00       107.9700         1.4400         2.2500       0.400000       129.0500
       4444.50       106.3000         1.4100         2.2500       0.410000       129.3000
       4445.00       103.5800         1.3900         2.2300       0.430000       129.3000
       4445.50       107.1800         1.3500         2.2300       0.440000       129.9500
       4446.00       112.9700         1.3300         2.2300       0.440000       129.8500
       4446.50       109.7700         1.3100         2.2300       0.470000       130.0000
       4447.00       107.0600         1.3000         2.2300       0.470000       129.9000
       4447.50       103.9500         1.3000         2.2400       0.460000       129.8500
       4448.00       104.7000         1.2600         2.2500       0.450000       129.6000
       4448.50       105.5900         1.2500         2.2500       0.430000       129.5000
       4449.00       107.0700         1.2500         2.2500       0.460000       129.7000
       4449.50       115.0600         1.2700         2.2500       0.480000       129.8000
       4450.00       117.9400         1.2900         2.2400       0.500000       130.2000
       4450.50       114.8900         1.2400         2.2400       0.460000       131.0500
       4451.00       112.4500         1.2600         2.2400       0.440000       131.1000
       4451.50       109.0800         1.2800         2.2300       0.440000       131.3500
       4452.00       117.1100         1.2800         2.2200       0.450000       131.1000
       4452.50       127.0300         1.2800         2.2200       0.460000       131.3000
       4453.00       134.9700         1.2800         2.2200       0.450000       131.0000
       4453.50       134.1800         1.3000         2.2200       0.460000       130.5000
       4454.00       123.0300         1.3300         2.2400       0.450000       129.5000
       4454.50       112.8800         1.3500         2.2500       0.450000       128.1000
       4455.00       103.3700         1.3700         2.2600       0.430000       126.5000
       4455.50        94.3300         1.4500         2.2700       0.410000       124.8000
       4456.00        91.3400         1.5500         2.2700       0.390000       120.5000
       4456.50        94.3100         1.6000         2.2600       0.370000       121.2000
       4457.00       100.1900         1.5800         2.2500       0.390000       124.5000
       4457.50       103.8100         1.4300         2.2600       0.400000       126.7500
       4458.00       105.2600         1.3200         2.2600       0.420000       128.5000
       4458.50       107.5700         1.3300         2.2600       0.430000       130.5500
       4459.00       106.8500         1.3300         2.2600       0.430000       130.0000
       4459.50       107.0000         1.3200         2.2500       0.440000       129.4000
       4460.00       104.6300         1.3000         2.2600       0.450000       128.8000
       4460.50       109.2800         1.2800         2.2700       0.460000       129.4500
       4461.00       114.2300         1.3000         2.2800       0.450000       129.2000
       4461.50       117.0500         1.3200         2.2700       0.430000       128.6000
       4462.00       114.5500         1.3100         2.2600       0.420000       128.2000
       4462.50       108.7800         1.2700         2.2600       0.410000       126.8000
       4463.00       109.2800         1.3400         2.2700       0.410000       121.9000
       4463.50       115.1500         1.4600         2.2600       0.420000       119.8000
       4464.00       113.7300         1.4700         2.2600       0.450000       117.6000
       4464.50       105.4300         1.5100         2.2600       0.460000       115.7500
       4465.00        89.2000         1.5800         2.2900       0.470000       114.2000
       4465.50        76.2100         1.9700         2.3900       0.400000       103.3000
       4466.00        60.0600         3.3900         2.5500       0.300000        87.1500
       4466.50        44.3900         4.0400         2.7000       0.210000        70.0000
       4467.00        35.4100         7.6000         2.6800       0.170000        95.3000
       4467.50        30.1700         6.5700         2.6100       0.160000        75.7000
       4468.00        28.3800         6.0600         2.5000       0.190000        81.3000
       4468.50        23.3400        10.1300         2.4400       0.210000        83.7500
       4469.00        25.8400         5.8400         2.4100       0.240000        87.2000
       4469.50        32.5300         4.3100         2.3900       0.270000        80.6000
       4470.00        43.2700         3.5600         2.3200       0.310000        85.0500
       4470.50        58.9400         4.5100         2.2500       0.340000       100.6500
       4471.00        74.4200         2.4200         2.2100       0.350000       125.7000
       4471.50        90.6600         2.4900         2.2200       0.350000       131.7000
       4472.00        97.9600         2.3500         2.2400       0.350000       138.6000
       4472.50       100.3600         2.1900         2.2600       0.350000       121.2000
       4473.00        95.6800         2.0300         2.2500       0.330000       120.4000
       4473.50        87.8200         2.1100         2.2400       0.320000       118.3500
       4474.00        83.8300         2.1700         2.2400       0.310000       120.0000
       4474.50        82.5200         2.1400         2.2300       0.320000       122.2000
       4475.00        82.0700         2.0500         2.2400       0.330000       123.5000
       4475.50        77.4100         2.0200         2.2400       0.320000       122.0500
       4476.00        75.3300         1.9900         2.2500       0.320000       121.8000
       4476.50        77.7700         1.9800         2.2600       0.310000       121.7000
       4477.00        81.4900         1.9900         2.2600       0.310000       121.4500
       4477.50        84.4400         1.9000         2.2600       0.330000       121.5000
       4478.00        82.4100         1.8200         2.2700       0.350000       121.7000
       4478.50        84.9800         1.8100         2.2900       0.360000       121.2500
