~Version Information Block
VERS .                  2.0:  CWLS LOG ASCII STANDARD - VERSION 2.0
WRAP .                   NO:  One line per depth step
~Well Information Block
#MNEM.UNIT        Data Type   Information
#---------- ----------------  -----------
STRT .FT            5000.50:  START DEPTH
STOP .FT           14504.00:  STOP DEPTH
STEP .FT               0.50:  STEP
NULL .              -999.25:  NULL VALUE
COMP .                     :  COMPANY
WELL .               STA-18:  WELL
FLD  .                     :  FIELD
LOC  .                     :  LOCATION
CTRY .                     :  COUNTRY
STAT .                     :  STATE
CNTY .                     :  COUNTY
SRVC .                     :  SERVICE COMPANY
DATE .                     :  DATE
API  .                     :  API NUMBER
UWI  .                     :  UNIQUE WELL ID
~Curve Information Block
#MNEM.UNIT         API CODE   Curve Description
#---------- ----------------  -----------------
DEPTH.FT                   :  DEPTH
GR   .GAPI                 :  Gamma Ray
RT   .OHMM                 :  SEDP
RHOB .G/C3                 :  Bulk Density
NPHI .V/V                  :  Neutron porosity
~Parameter Information Block
#MNEM.UNIT            Value   Description
#---------- ----------------  -----------
PROJECT.            SANTAN_FE:  
~Other Information Block
# 
~A       DEPTH             GR             RT           RHOB           NPHI 
# ...
      13828.00       128.5700         3.5900         2.6198       0.207600
      13828.50       127.1700         3.6200         2.6275       0.208100
      13829.00       126.7700         3.5500         2.6181       0.207800
      13829.50       115.9300         3.4500         2.5962       0.206100
      13830.00       118.4800         3.4300         2.6073       0.206300
      13830.50       124.3300         3.4900         2.6086       0.209600
      13831.00       120.8500         3.5500         2.5942       0.215100
      13831.50       126.9500         3.5400         2.5838       0.222000
      13832.00       125.5500         3.4700         2.5854       0.225400
      13832.50       117.8000         3.3800         2.5857       0.216800
      13833.00       118.5000         3.3800         2.5831       0.198400
      13833.50       124.6200         3.3800         2.5924       0.196000
      13834.00       128.3300         3.3600         2.6224       0.201500
      13834.50       123.7700         3.3900         2.6362       0.212600
      13835.00       122.6000         3.4200         2.6345       0.214500
      13835.50       121.3100         3.4400         2.6230       0.214600
      13836.00       124.2500         3.4800         2.6093       0.215300
      13836.50       128.4800         3.5200         2.6011       0.216100
      13837.00       128.4800         3.5800         2.6000       0.216900
      13837.50       130.0100         3.6600         2.6000       0.217600
      13838.00       128.0100         3.7200         2.6000       0.217700
      13838.50       120.2900         3.8100         2.6000       0.217700
      13839.00       109.7100         3.9500         2.5974       0.213600
      13839.50        96.9200         4.2500         2.5898       0.189900
      13840.00        93.0000         4.9500         2.5815       0.162700
      13840.50       100.8300         5.4300         2.6077       0.135600
      13841.00       103.2500         5.7100         2.6411       0.112500
      13841.50       103.5000         5.8900         2.6456       0.109100
      13842.00       104.0700         6.0400         2.6155       0.109100
      13842.50       107.4200         5.9900         2.5991       0.112000
      13843.00       107.9000         5.8300         2.5911       0.128700
      13843.50       111.7200         5.5900         2.5827       0.147900
      13844.00       110.9000         5.3200         2.5971       0.164100
      13844.50       104.6200         4.7600         2.6000       0.166500
      13845.00        91.1300         4.3500         2.6125       0.166500
      13845.50        94.5600         4.1700         2.6272       0.163600
      13846.00       100.2000         4.2100         2.6103       0.149800
      13846.50        98.0000         4.3500         2.6062       0.147400
      13847.00       103.4900         4.6100         2.5942       0.147400
      13847.50       107.7100         4.7200         2.5903       0.148600
      13848.00       111.8300         4.6500         2.5860       0.155100
      13848.50       116.7800         4.5700         2.5938       0.159900
      13849.00       116.4300         4.5400         2.6158       0.163700
      13849.50       104.8000         4.3900         2.6114       0.166800
      13850.00        98.8900         4.3400         2.6025       0.168000
      13850.50       101.5300         4.3800         2.5917       0.169000
      13851.00       106.5900         4.5100         2.5900       0.169900
      13851.50       109.8700         4.6100         2.5973       0.169800
      13852.00       109.1100         4.5500         2.6156       0.168700
      13852.50       107.2400         4.3300         2.6319       0.167300
      13853.00       107.9600         4.2800         2.6355       0.165600
      13853.50       113.6200         4.2400         2.6273       0.164300
      13854.00       112.5600         4.2000         2.6209       0.163000
      13854.50       106.6300         4.2200         2.6200       0.161900
      13855.00       110.4900         4.3700         2.6165       0.160600
      13855.50       109.3400         4.5400         2.6109       0.159300
      13856.00       112.9100         4.5400         2.6170       0.160700
      13856.50       115.1100         4.4300         2.6317       0.174200
      13857.00       113.0900         4.3200         2.6357       0.181600
      13857.50       109.4500         4.3600         2.6275       0.174900
      13858.00        96.2700         4.7000         2.6209       0.137700
      13858.50        91.9500         5.2000         2.6166       0.131400
      13859.00        93.5400         5.4600         2.6109       0.131400
      13859.50       101.8100         5.3100         2.6067       0.134700
      13860.00       103.0700         5.0200         2.5976       0.151000
      13860.50       101.5600         4.8800         2.5942       0.153800
      13861.00       101.9900         4.8000         2.5991       0.154200
      13861.50       101.0100         4.7400         2.6032       0.157300
      13862.00        98.5800         4.6500         2.6123       0.162300
      13862.50       101.9300         4.6100         2.6191       0.161300
      13863.00       105.8400         4.6500         2.6137       0.155200
      13863.50       104.5000         4.6300         2.5956       0.151200
      13864.00       105.4100         4.5900         2.5850       0.150600
      13864.50       107.4400         4.5900         2.5860       0.150600
      13865.00       113.1800         4.4800         2.5810       0.151800
      13865.50       115.3300         4.3000         2.5830       0.161200
      13866.00       112.8600         4.1600         2.5891       0.180600
      13866.50       112.1600         4.1300         2.5900       0.187300
      13867.00       114.5800         4.1400         2.5930       0.186500
      13867.50       115.8300         4.2200         2.6020       0.185900
      13868.00       116.4500         4.2500         2.6119       0.186600
      13868.50       113.2700         4.2200         2.6133       0.188500
      13869.00       109.9300         4.1500         2.5991       0.188000
      13869.50       111.8900         4.1900         2.5967       0.185000
      13870.00       119.6700         4.2600         2.6052       0.182800
      13870.50       115.1900         4.3400         2.5982       0.181100
      13871.00       119.8200         4.3400         2.5910       0.172700
      13871.50       112.6000         4.2800         2.5928       0.164500
      13872.00       111.9300         4.2700         2.5935       0.163300
      13872.50       109.0700         4.3000         2.5793       0.163300
      13873.00       100.9400         4.3700         2.5764       0.164700
      13873.50       109.8000         4.3300         2.5933       0.171700
      13874.00       111.8600         4.1700         2.6080       0.172900
      13874.50       115.8100         3.9800         2.6048       0.174200
      13875.00       111.4900         3.8400         2.5868       0.184400
      13875.50       110.0900         3.8300         2.5746       0.204900
      13876.00       116.9800         3.8700         2.5790       0.208100
      13876.50       126.2500         3.9400         2.5775       0.207900
      13877.00       121.4000         4.0100         2.5760       0.206500
      13877.50       117.6200         3.9100         2.5879       0.205100
      13878.00       110.1900         3.7800         2.5875       0.204900
      13878.50       117.2000         3.7600         2.5810       0.204000
      13879.00       109.3800         3.8500         2.5848       0.196400
      13879.50       109.0300         3.9200         2.5955       0.178900
      13880.00       111.3100         4.0900         2.5863       0.176100
      13880.50       109.5400         4.2900         2.5744       0.177000
      13881.00       111.7100         4.4800         2.5789       0.181700
