~Version Information Block
VERS .                  2.0:  CWLS LOG ASCII STANDARD - VERSION 2.0
WRAP .                   NO:  One line per depth step
~Well Information Block
#MNEM.UNIT        Data Type   Information
#---------- ----------------  -----------
STRT .FT             224.00:  START DEPTH
STOP .FT            7977.50:  STOP DEPTH
STEP .FT               0.50:  STEP
NULL .              -999.25:  NULL VALUE
COMP .                     :  COMPANY
WELL .               STA-22:  WELL
FLD  .                     :  FIELD
LOC  .                     :  LOCATION
CTRY .                     :  COUNTRY
STAT .                     :  STATE
CNTY .                     :  COUNTY
SRVC .                     :  SERVICE COMPANY
DATE .                     :  DATE
API  .                     :  API NUMBER
UWI  .                     :  UNIQUE WELL ID
~Curve Information Block
#MNEM.UNIT         API CODE   Curve Description
#---------- ----------------  -----------------
DEPTH.FT                   :  DEPTH
GR   .GAPI                 :  Gamma Ray
RT   .OHMM                 :  RESDE
RHOB .G/C3                 :  Bulk Density
NPHI .V/V                  :  Thermal Neutron Porosity (Ratio Method) in Selected Lithology
~Parameter Information Block
#MNEM.UNIT            Value   Description
#---------- ----------------  -----------
PROJECT.            SANTAN_FE:  
~Other Information Block
# 
~A       DEPTH             GR             RT           RHOB           NPHI 
# ...
       6323.00        82.2500         1.3168         2.2500       0.417900
       6323.50        83.5100         1.2937         2.2548       0.425900
       6324.00        84.0800         1.2418         2.2649       0.441900
       6324.50        83.7500         1.1892         2.2800       0.456000
       6325.00        85.3800         1.1581         2.3053       0.453800
       6325.50        87.1900         1.1328         2.3200       0.437600
       6326.00        89.7900         1.1311         2.3200       0.430200
       6326.50        91.9400         1.1293         2.3147       0.436300
       6327.00        94.9000         1.1046         2.3100       0.440000
       6327.50        93.8000         1.0802         2.3155       0.440000
       6328.00        92.0600         1.0606         2.3367       0.443400
       6328.50        89.3600         1.0365         2.3669       0.455300
       6329.00        88.4400         1.0200         2.3628       0.456100
       6329.50        88.7000         1.1023         2.3326       0.430500
       6330.00        85.2600         1.4203         2.2671       0.395500
       6330.50        77.7900         1.8048         2.2002       0.371000
       6331.00        67.5800         1.9265         2.1619       0.357800
       6331.50        59.6100         1.9368         2.1500       0.351500
       6332.00        54.7400         1.9732         2.1624       0.350000
       6332.50        49.5500         1.9740         2.1637       0.342100
       6333.00        50.4900         1.9600         2.1536       0.336800
       6333.50        54.0800         1.9652         2.1436       0.342700
       6334.00        59.6700         1.9848         2.1335       0.352800
       6334.50        60.1000         1.9911         2.1432       0.358700
       6335.00        58.5700         1.9518         2.1567       0.360000
       6335.50        57.3200         1.9181         2.1600       0.364300
       6336.00        58.6700         1.9050         2.1600       0.360200
       6336.50        61.0500         1.8756         2.1600       0.347900
       6337.00        62.0200         1.8461         2.1740       0.332200
       6337.50        61.5900         1.8167         2.1800       0.331200
       6338.00        60.8100         1.7854         2.1728       0.342400
       6338.50        60.4200         1.7350         2.1555       0.349000
       6339.00        62.7900         1.6679         2.1646       0.340600
       6339.50        65.8900         1.6270         2.1700       0.331900
       6340.00        69.3100         1.5303         2.1924       0.339600
       6340.50        69.1600         0.9119         2.2151       0.367700
       6341.00        69.1200         0.9100         2.2276       0.401300
       6341.50        71.4600         0.8620         2.2146       0.412500
       6342.00        75.7600         0.8600         2.2178       0.410800
       6342.50        81.5600         0.8784         2.2121       0.420200
       6343.00        86.8900         0.9071         2.2020       0.449200
       6343.50        90.0300         0.8393         2.1920       0.461900
       6344.00        90.5100         0.8300         2.1981       0.455400
       6344.50        87.8000         0.8638         2.2246       0.445300
       6345.00        88.8800         0.9444         2.2548       0.435200
       6345.50        91.8700         0.9600         2.2767       0.430600
       6346.00        95.4400         0.9521         2.2800       0.418900
       6346.50        96.9300         0.9654         2.2885       0.411100
       6347.00        97.2900         0.9700         2.2986       0.410000
       6347.50        98.7600         0.9700         2.3000       0.421400
       6348.00       101.5200         0.9700         2.3087       0.429100
       6348.50       103.4400         0.9631         2.3100       0.430000
       6349.00       101.0900         1.0006         2.3189       0.418200
       6349.50        97.4300         1.0594         2.3290       0.416700
       6350.00        94.3500         1.0928         2.3119       0.425700
       6350.50        93.2000         1.1186         2.3191       0.435800
       6351.00        91.8700         1.1660         2.3200       0.427400
       6351.50        88.6800         1.2482         2.3386       0.408100
       6352.00        83.1500         1.4093         2.3306       0.406700
       6352.50        80.0300         1.5235         2.3300       0.409800
       6353.00        82.5900         1.4022         2.3300       0.422800
       6353.50        90.6000         1.2267         2.3396       0.410300
       6354.00        98.4600         1.1447         2.3400       0.413500
       6354.50       100.8800         1.1225         2.3302       0.419800
       6355.00       102.3900         1.1200         2.3300       0.433400
       6355.50       102.9600         1.1283         2.3399       0.433200
       6356.00       104.9200         1.1127         2.3400       0.430000
       6356.50       104.2900         1.0919         2.3499       0.436900
       6357.00       103.0900         1.0711         2.3402       0.446700
       6357.50       103.0800         1.0601         2.3495       0.443500
       6358.00       101.9500         1.0700         2.3300       0.454100
       6358.50        98.6100         1.0693         2.3296       0.466700
       6359.00        98.6300         1.0589         2.3195       0.461600
       6359.50       102.8900         1.0485         2.3100       0.431500
       6360.00       105.6000         1.0381         2.3100       0.413400
       6360.50       102.6800         1.0323         2.3107       0.419100
       6361.00       100.2500         1.0773         2.3200       0.449100
       6361.50       100.4600         1.2444         2.3200       0.466600
       6362.00        99.5200         1.5460         2.3200       0.461500
       6362.50        94.3000         1.8980         2.3200       0.444100
       6363.00        88.5600         2.0280         2.3189       0.423100
       6363.50        85.8100         2.0502         2.3124       0.397200
       6364.00        90.4700         1.8763         2.3326       0.381700
       6364.50        97.9600         1.5870         2.3555       0.369700
       6365.00       107.4300         1.4071         2.3914       0.343700
       6365.50       115.3900         1.3222         2.3939       0.310200
       6366.00       127.3100         1.2826         2.3568       0.301100
       6366.50       132.7200         1.3109         2.3383       0.314600
       6367.00       129.4400         1.4020         2.3335       0.352800
       6367.50       115.4900         1.4917         2.3482       0.356100
       6368.00       104.9200         1.4933         2.3381       0.354900
       6368.50       100.4900         1.4428         2.3300       0.347500
       6369.00        99.6900         1.3758         2.3279       0.353900
       6369.50        96.5200         1.3219         2.3200       0.350800
       6370.00        90.9500         1.3708         2.3155       0.340700
       6370.50        85.1800         1.4966         2.2977       0.333900
       6371.00        81.6400         1.5847         2.2804       0.337800
       6371.50        79.5300         1.5991         2.2475       0.343500
       6372.00        79.6300         1.5649         2.2323       0.355700
       6372.50        80.2600         1.4924         2.2100       0.363800
       6373.00        82.7200         1.4556         2.1992       0.372000
       6373.50        82.9600         1.4344         2.1700       0.366100
       6374.00        81.4000         1.3926         2.1671       0.370100
       6374.50        80.7600         1.3514         2.1630       0.384400
       6375.00        81.1200         1.3058         2.1821       0.412900
       6375.50        82.4800         1.2965         2.2162       0.435600
       6376.00        82.0900         1.4052         2.2396       0.421000
