~Version Information Block
VERS .                  2.0:  CWLS LOG ASCII STANDARD - VERSION 2.0
WRAP .                   NO:  One line per depth step
~Well Information Block
#MNEM.UNIT        Data Type   Information
#---------- ----------------  -----------
STRT .FT            4880.50:  START DEPTH
STOP .FT           10428.00:  STOP DEPTH
STEP .FT               0.50:  STEP
NULL .              -999.25:  NULL VALUE
COMP .                     :  COMPANY
WELL .                STA-3:  WELL
FLD  .                     :  FIELD
LOC  .                     :  LOCATION
CTRY .                     :  COUNTRY
STAT .                     :  STATE
CNTY .                     :  COUNTY
SRVC .                     :  SERVICE COMPANY
DATE .                     :  DATE
API  .                     :  API NUMBER
UWI  .                     :  UNIQUE WELL ID
~Curve Information Block
#MNEM.UNIT         API CODE   Curve Description
#---------- ----------------  -----------------
DEPTH.FT                   :  DEPTH
GR   .GAPI                 :  Gamma Ray
RT   .OHMM                 :  Deep resistivity
RHOB .G/C3                 :  Bulk Density
NPHI .V/V                  :  Neutron porosity
DT   .US/F                 :  Sonic
~Parameter Information Block
#MNEM.UNIT            Value   Description
#---------- ----------------  -----------
PROJECT.            SANTAN_FE:  
~Other Information Block
# 
~A       DEPTH             GR             RT           RHOB           NPHI             DT 
# ...
       5370.00       104.5869         1.4060         2.2572       0.383200       122.3000
       5370.50       101.1780         1.4957         2.2386       0.368000       122.3000
       5371.00        98.1917         1.6287         2.2369       0.358600       121.0000
       5371.50        92.9911         1.6609         2.2407       0.353000       118.6000
       5372.00        92.8101         1.7976         2.2520       0.342200       117.9000
       5372.50        86.5506         2.0339         2.2522       0.351300       114.9000
       5373.00        87.1206         2.1837         2.2525       0.336600       113.9500
       5373.50        82.3948         2.2792         2.2516       0.332500       112.0000
       5374.00        81.9105         2.4908         2.2552       0.322100       108.9000
       5374.50        79.3574         2.5034         2.2794       0.352400       104.4500
       5375.00        82.7702         2.8393         2.2856       0.358900        99.4000
       5375.50        78.4222         2.6026         2.3277       0.338600        94.5000
       5376.00        77.7572         2.2150         2.3759       0.278200        90.4000
       5376.50        72.6118         2.5684         2.4235       0.241300        81.9500
       5377.00        77.0806         4.1239         2.3723       0.258100        78.8000
       5377.50        76.5220         2.7601         2.3322       0.309400        85.8000
       5378.00        82.5206         1.7681         2.3135       0.348400        96.0000
       5378.50        82.5115         1.6422         2.3024       0.372400       109.4000
       5379.00        84.2065         1.5770         2.2897       0.370100       117.5000
       5379.50        79.1479         1.5995         2.2799       0.384600       116.5500
       5380.00        79.3025         1.6536         2.2845       0.379600       117.3000
       5380.50        79.9832         1.5811         2.2738       0.374800       117.1000
       5381.00        84.4090         1.5585         2.2798       0.356000       117.3000
       5381.50        87.2644         1.5717         2.2794       0.363300       120.0500
       5382.00        90.9872         1.5484         2.2923       0.366300       120.6000
       5382.50        93.9669         1.4137         2.2913       0.372900       121.1000
       5383.00        92.1854         1.4227         2.2936       0.371500       121.4500
       5383.50        92.4739         1.3942         2.2912       0.364100       122.0000
       5384.00        90.9131         1.3664         2.2997       0.363600       122.0000
       5384.50        92.8702         1.3383         2.3005       0.370400       122.7000
       5385.00       100.9625         1.3214         2.3045       0.385100       123.5000
       5385.50       100.0211         1.3108         2.3119       0.398000       123.8000
       5386.00       107.7338         1.2823         2.3288       0.392000       124.4500
       5386.50       105.0349         1.2515         2.3269       0.382300       125.6000
       5387.00       104.0211         1.2302         2.3341       0.390500       125.8000
       5387.50        99.7550         1.2110         2.3472       0.411700       124.8000
       5388.00        93.2534         1.2593         2.3607       0.429600       122.5000
       5388.50        85.5599         1.4310         2.3541       0.412900       117.8000
       5389.00        73.3893         1.8256         2.3268       0.366100       117.1500
       5389.50        66.3713         2.5178         2.2983       0.318000       113.8000
       5390.00        67.0808         2.7866         2.2638       0.299900       112.2500
       5390.50        64.3202         2.7403         2.2324       0.298900       114.2000
       5391.00        63.1614         2.7321         2.2123       0.336600       114.5000
       5391.50        62.9245         2.5321         2.2116       0.346400       115.5000
       5392.00        66.4044         2.2138         2.2276       0.367200       132.9000
       5392.50        66.9714         2.2367         2.2389       0.346100       129.3500
       5393.00        67.3501         2.3844         2.2224       0.331600       125.6000
       5393.50        64.2880         2.4624         2.1886       0.315500       123.8500
       5394.00        63.2236         2.9026         2.1883       0.319400       119.6000
       5394.50        60.5276         3.8676         2.2292       0.299900       110.0500
       5395.00        63.2816         3.5741         2.2611       0.287000       110.7000
       5395.50        58.9784         3.4711         2.2186       0.271700       111.1000
       5396.00        56.3880         3.0919         2.1365       0.273400       118.9000
       5396.50        53.1034         3.0324         2.0789       0.294100       130.0500
       5397.00        53.8128         2.7539         2.0499       0.310700       132.7500
       5397.50        55.3901         2.7824         2.0466       0.331300       133.4000
       5398.00        54.7307         3.1651         2.0570       0.334100       126.9000
       5398.50        54.0730         3.0411         2.0726       0.345700       125.1000
       5399.00        55.3274         2.7821         2.0786       0.368400       122.9000
       5399.50        56.8427         2.7604         2.0776       0.364100       123.6000
       5400.00        60.0324         2.6780         2.0625       0.343500       124.4000
       5400.50        62.0522         2.6022         2.0524       0.347800       124.5000
       5401.00        58.4109         2.8140         2.0390       0.353800       125.4500
       5401.50        52.1591         2.9268         2.0489       0.358200       124.7000
       5402.00        49.9302         3.1057         2.0960       0.337900       124.4000
       5402.50        60.2772         2.5749         2.1755       0.329900       123.4000
       5403.00        73.3324         1.9570         2.2620       0.343900       123.4000
       5403.50        83.5941         1.5729         2.2894       0.357500       118.6000
       5404.00        87.2469         1.3833         2.3030       0.389600       118.3000
       5404.50        93.9454         1.8960         2.3317       0.393200       118.2000
       5405.00       103.5165         1.6048         2.3475       0.400400       117.9500
       5405.50       112.2376         1.2397         2.3571       0.381500       122.5000
       5406.00       111.3863         1.1963         2.3312       0.375100       123.4500
       5406.50       107.7057         1.2369         2.3328       0.372300       123.6000
       5407.00       104.5055         1.2551         2.3256       0.390500       124.0000
       5407.50       104.3637         1.2866         2.3273       0.406600       124.4000
       5408.00       108.2852         1.2540         2.3073       0.407000       125.3000
       5408.50       106.1983         1.2224         2.2972       0.400900       126.6000
       5409.00       103.6475         1.2459         2.2958       0.408300       125.7000
       5409.50        99.2536         1.2711         2.2976       0.434600       124.5500
       5410.00       100.7095         1.2858         2.3070       0.441800       122.2000
       5410.50       101.4157         1.2719         2.3261       0.455000       121.3000
       5411.00        96.3456         1.3426         2.3594       0.441400       121.1000
       5411.50        90.4958         1.4569         2.4037       0.436200       107.5000
       5412.00        86.5443         1.7244         2.4409       0.380700       100.0000
       5412.50        79.9664         2.4274         2.4460       0.334000        99.1000
       5413.00        78.1540         3.3128         2.4057       0.305800       100.2500
       5413.50        84.9433         2.4987         2.3781       0.324300       108.7000
       5414.00        97.9905         1.6010         2.3787       0.359500       116.2500
