~Version Information Block
VERS .                  2.0:  CWLS LOG ASCII STANDARD - VERSION 2.0
WRAP .                   NO:  One line per depth step
~Well Information Block
#MNEM.UNIT        Data Type   Information
#---------- ----------------  -----------
STRT .FT             728.00:  START DEPTH
STOP .FT           10480.50:  STOP DEPTH
STEP .FT               0.50:  STEP
NULL .              -999.25:  NULL VALUE
COMP .                     :  COMPANY
WELL .               STA-21:  WELL
FLD  .                     :  FIELD
LOC  .                     :  LOCATION
CTRY .                     :  COUNTRY
STAT .                     :  STATE
CNTY .                     :  COUNTY
SRVC .                     :  SERVICE COMPANY
DATE .                     :  DATE
API  .                     :  API NUMBER
UWI  .                     :  UNIQUE WELL ID
~Curve Information Block
#MNEM.UNIT         API CODE   Curve Description
#---------- ----------------  -----------------
DEPTH.FT                   :  DEPTH
GR   .GAPI                 :  Gamma Ray
RT   .OHMM                 :  RESDE
RHOB .G/C3                 :  Bulk Density
NPHI .V/V                  :  Thermal Neutron Porosity (Ratio Method) in Selected Lithology
~Parameter Information Block
#MNEM.UNIT            Value   Description
#---------- ----------------  -----------
PROJECT.            SANTAN_FE:  
~Other Information Block
# 
~A       DEPTH             GR             RT           RHOB           NPHI 
# ...
        781.50      -999.2500      -999.2500      -999.2500         0.7595
        782.00        30.2000      -999.2500      -999.2500         0.7901
        782.50        31.4900      -999.2500      -999.2500         0.7745
        783.00        32.1000      -999.2500      -999.2500         0.6825
        783.50        34.1400      -999.2500      -999.2500         0.6118
        784.00        36.7800      -999.2500      -999.2500         0.5781
        784.50        39.1500      -999.2500      -999.2500         0.5772
        785.00        41.7800      -999.2500      -999.2500         0.6044
        785.50        44.4300      -999.2500      -999.2500         0.6411
        786.00        47.4100      -999.2500      -999.2500         0.6517
        786.50        48.5000      -999.2500      -999.2500         0.6302
        787.00        49.3900      -999.2500      -999.2500         0.5962
        787.50        50.4100      -999.2500      -999.2500         0.5657
        788.00        51.7900      -999.2500      -999.2500         0.5647
        788.50        52.5400      -999.2500      -999.2500         0.5962
        789.00        53.0700      -999.2500      -999.2500         0.6600
        789.50        52.8000      -999.2500      -999.2500         0.6694
        790.00        51.8900      -999.2500      -999.2500         0.6535
        790.50        49.4500      -999.2500      -999.2500         0.6236
        791.00        47.5400      -999.2500      -999.2500         0.5789
        791.50        45.7800      -999.2500      -999.2500         0.5571
        792.00        44.9600      -999.2500      -999.2500         0.5411
        792.50        44.5600      -999.2500      -999.2500         0.5317
        793.00        45.5000      -999.2500      -999.2500         0.5480
        793.50        46.9800      -999.2500      -999.2500         0.5822
        794.00        48.2900      -999.2500      -999.2500         0.6442
        794.50        48.9600      -999.2500      -999.2500         0.6751
        795.00        50.1200      -999.2500      -999.2500         0.6768
        795.50        51.2100      -999.2500      -999.2500         0.6351
        796.00        52.3600      -999.2500      -999.2500         0.5958
        796.50        52.9000      -999.2500      -999.2500         0.5782
        797.00        53.5200      -999.2500      -999.2500         0.5822
        797.50        53.9600      -999.2500      -999.2500         0.6194
        798.00        54.6400      -999.2500      -999.2500         0.6338
        798.50        54.7800      -999.2500      -999.2500         0.6372
        799.00        54.2000      -999.2500      -999.2500         0.6223
        799.50        52.5000      -999.2500      -999.2500         0.6306
        800.00        50.7900      -999.2500      -999.2500         0.6325
        800.50        51.1200      -999.2500      -999.2500         0.6244
        801.00        51.8600      -999.2500      -999.2500         0.6007
        801.50        52.7100      -999.2500      -999.2500         0.6105
        802.00        52.3300      -999.2500      -999.2500         0.6718
        802.50        52.6300      -999.2500      -999.2500         0.7048
        803.00        53.4400      -999.2500      -999.2500         0.6848
        803.50        54.0300      -999.2500      -999.2500         0.6575
        804.00        54.6900      -999.2500      -999.2500         0.6568
        804.50        53.9800      -999.2500      -999.2500         0.6875
        805.00        52.2200      -999.2500      -999.2500         0.6760
        805.50        49.3500      -999.2500      -999.2500         0.6033
        806.00        46.5300      -999.2500      -999.2500         0.5550
        806.50        43.3100      -999.2500      -999.2500         0.5709
        807.00        41.6300      -999.2500      -999.2500         0.5725
        807.50        41.4800      -999.2500      -999.2500         0.5669
        808.00        43.5500      -999.2500      -999.2500         0.5597
        808.50        46.1300      -999.2500      -999.2500         0.5778
        809.00        50.3900      -999.2500      -999.2500         0.5925
        809.50        55.0300      -999.2500      -999.2500         0.6095
        810.00        58.8800      -999.2500         1.7091         0.6386
        810.50        60.8200      -999.2500         1.6580         0.6682
        811.00        61.1600         1.8075         1.6098         0.6964
        811.50        60.5000         1.8493         1.5871         0.7096
        812.00        57.6700         1.8307         1.5825         0.7045
        812.50        53.9300         1.8182         1.5850         0.6699
        813.00        51.5600         1.8152         1.5949         0.5885
        813.50        51.7100         1.8444         1.6253         0.5468
        814.00        53.2500         1.8519         1.6830         0.5336
        814.50        53.3700         1.8633         1.7409         0.5425
        815.00        52.1600         1.8967         1.7618         0.5653
        815.50        51.3400         1.9066         1.7558         0.5713
        816.00        50.6200         1.8913         1.7349         0.5757
        816.50        49.9700         1.8067         1.7210         0.5786
        817.00        48.2600         1.7196         1.7200         0.5778
        817.50        44.6000         1.6531         1.7279         0.5696
        818.00        41.2600         1.6411         1.7427         0.5497
        818.50        38.6200         1.6496         1.7557         0.5374
        819.00        38.5600         1.6611         1.7615         0.5325
        819.50        38.8900         1.6532         1.7612         0.5371
        820.00        39.8000         1.6410         1.7556         0.5534
        820.50        41.0100         1.6359         1.7453         0.5803
        821.00        42.0000         1.6258         1.7337         0.6092
        821.50        42.5600         1.6096         1.7244         0.6078
        822.00        42.6600         1.5982         1.7245         0.5924
        822.50        43.0200         1.6047         1.7373         0.5843
        823.00        43.1400         1.6366         1.7608         0.5838
        823.50        43.6800         1.6833         1.7910         0.5818
        824.00        44.9500         1.7199         1.8256         0.5698
        824.50        47.1700         1.7349         1.8605         0.5500
        825.00        50.9900         1.7329         1.8954         0.5402
        825.50        55.3300         1.7242         1.9303         0.5424
        826.00        59.7500         1.7116         1.9485         0.5598
        826.50        62.4900         1.6940         1.9471         0.5738
        827.00        63.9200         1.6793         1.9389         0.5739
        827.50        63.5900         1.6718         1.9402         0.5541
        828.00        62.7600         1.6699         1.9565         0.5429
        828.50        62.4700         1.6519         1.9755         0.5480
        829.00        63.4300         1.6289         1.9825         0.5569
        829.50        65.3700         1.6093         1.9834         0.5666
        830.00        67.1100         1.5864         1.9878         0.5644
        830.50        67.6400         1.5570         1.9895         0.5404
        831.00        67.7900         1.5378         1.9824         0.5188
        831.50        68.0000         1.5295         1.9683         0.5211
        832.00        68.8800         1.5298         1.9631         0.5414
        832.50        70.0700         1.5412         1.9708         0.5509
        833.00        71.5600         1.5464         1.9860         0.5717
        833.50        72.6100         1.5362         1.9918         0.6308
        834.00        72.4900         1.5073         1.9890         0.6806
        834.50        71.4100         1.4823         1.9821         0.6850
