~Version Information Block
VERS .                  2.0:  CWLS LOG ASCII STANDARD - VERSION 2.0
WRAP .                   NO:  One line per depth step
~Well Information Block
#MNEM.UNIT        Data Type   Information
#---------- ----------------  -----------
STRT .FT             780.00:  START DEPTH
STOP .FT            8996.00:  STOP DEPTH
STEP .FT               0.50:  STEP
NULL .              -999.25:  NULL VALUE
COMP .                     :  COMPANY
WELL .                STA-4:  WELL
FLD  .                     :  FIELD
LOC  .                     :  LOCATION
CTRY .                     :  COUNTRY
STAT .                     :  STATE
CNTY .                     :  COUNTY
SRVC .                     :  SERVICE COMPANY
DATE .                     :  DATE
API  .                     :  API NUMBER
UWI  .                     :  UNIQUE WELL ID
~Curve Information Block
#MNEM.UNIT         API CODE   Curve Description
#---------- ----------------  -----------------
DEPTH.FT                   :  DEPTH
GR   .GAPI                 :  Gamma Ray
RT   .OHMM                 :  SEDP
RHOB .G/C3                 :  Bulk Density
NPHI .V/V                  :  Neutron porosity
~Parameter Information Block
#MNEM.UNIT            Value   Description
#---------- ----------------  -----------
PROJECT.            SANTAN_FE:  
~Other Information Block
# 
~A       DEPTH             GR             RT           RHOB           NPHI 
# ...
       7307.00        97.8300         1.0100         2.2348       0.423500
       7307.50        92.8600         1.0100         2.2400       0.421800
       7308.00        88.5700         1.0200         2.2400       0.420000
       7308.50        79.7600         1.0200         2.2448       0.416500
       7309.00        75.6600         1.0000         2.2597       0.406100
       7309.50        79.0300         1.0000         2.2700       0.387300
       7310.00        81.0900         0.9900         2.2748       0.372700
       7310.50        78.8700         1.0000         2.2800       0.369200
       7311.00        78.6900         0.9700         2.2800       0.370600
       7311.50        80.4100         0.9500         2.2703       0.377100
       7312.00        81.0000         0.9400         2.2600       0.394700
       7312.50        87.9600         0.9300         2.2552       0.418700
       7313.00        86.2800         0.9400         2.2500       0.435400
       7313.50        80.0600         0.9600         2.2548       0.436300
       7314.00        76.3000         1.0000         2.2648       0.422800
       7314.50        75.0800         1.0700         2.2796       0.393300
       7315.00        70.2600         1.1700         2.3093       0.350800
       7315.50        63.8000         1.3300         2.3685       0.321600
       7316.00        62.3100         1.5100         2.4293       0.318800
       7316.50        63.1900         1.6300         2.4404       0.334900
       7317.00        70.8000         1.6500         2.4107       0.352600
       7317.50        71.5200         1.6300         2.3563       0.365000
       7318.00        74.4700         1.5700         2.3056       0.380200
       7318.50        80.6300         1.5100         2.2804       0.394000
       7319.00        79.1000         1.4700         2.2652       0.401200
       7319.50        77.4900         1.4500         2.2552       0.406700
       7320.00        80.4500         1.4300         2.2500       0.414300
       7320.50        78.3500         1.4100         2.2500       0.420100
       7321.00        77.9400         1.3900         2.2548       0.420700
       7321.50        80.9700         1.3800         2.2648       0.418000
       7322.00        84.7800         1.3700         2.2748       0.414900
       7322.50        83.8600         1.3400         2.2800       0.412600
       7323.00        80.8700         1.3300         2.2848       0.409400
       7323.50        78.6500         1.3200         2.2948       0.404100
       7324.00        82.3500         1.2900         2.3048       0.398100
       7324.50        88.0300         1.2600         2.3100       0.387900
       7325.00        83.5200         1.2300         2.3148       0.374600
       7325.50        83.0000         1.1900         2.3200       0.367200
       7326.00        81.9900         1.1700         2.3200       0.363900
       7326.50        85.2400         1.1500         2.3200       0.361600
       7327.00        80.9700         1.1400         2.3152       0.359400
       7327.50        80.4200         1.1300         2.3052       0.356200
       7328.00        84.4600         1.1100         2.2952       0.351400
       7328.50        82.7400         1.1000         2.2900       0.347500
       7329.00        84.8900         1.0800         2.2852       0.345400
       7329.50        94.7600         1.0700         2.2848       0.343500
       7330.00        89.4100         1.0500         2.2900       0.341600
       7330.50        87.0100         1.0400         2.2852       0.340000
       7331.00        86.4200         1.0100         2.2800       0.339400
       7331.50        87.8500         0.9600         2.2800       0.340300
       7332.00        87.7900         0.9100         2.2800       0.342000
       7332.50        87.5200         0.9100         2.2752       0.344000
       7333.00        87.1700         0.9600         2.2700       0.345900
       7333.50        88.7000         1.0200         2.2700       0.347600
       7334.00        89.6500         1.0600         2.2748       0.348700
       7334.50        85.8200         1.0800         2.2800       0.349100
       7335.00        83.0300         1.0700         2.2800       0.349100
       7335.50        87.7000         1.0600         2.2800       0.349200
       7336.00        93.5400         1.0400         2.2848       0.349700
       7336.50        94.0000         1.0200         2.2900       0.351000
       7337.00        94.7000         1.0100         2.2852       0.353700
       7337.50        95.1800         1.0000         2.2800       0.358500
       7338.00        94.5600         1.0100         2.2800       0.362300
       7338.50        92.6500         1.0600         2.2943       0.367700
       7339.00        95.9700         1.1200         2.3100       0.384200
       7339.50        96.0300         1.1200         2.3100       0.401600
       7340.00        89.1500         1.1300         2.3100       0.409100
       7340.50        85.0100         1.2100         2.3100       0.416700
       7341.00        80.4700         1.3700         2.3195       0.422100
       7341.50        74.2000         1.5500         2.3347       0.418800
       7342.00        70.2900         1.8700         2.3447       0.375600
       7342.50        65.2000         2.1500         2.3690       0.309900
       7343.00        60.2700         2.5300         2.4042       0.270900
       7343.50        60.1900         2.7600         2.4343       0.251900
       7344.00        60.8400         2.9600         2.4500       0.251400
       7344.50        65.9600         2.9600         2.4500       0.265500
       7345.00        71.4500         2.7300         2.4453       0.311900
       7345.50        78.5800         2.1600         2.3973       0.364500
       7346.00        82.9300         1.7600         2.3405       0.396500
       7346.50        84.9100         1.4700         2.3253       0.417800
       7347.00        84.9600         1.3100         2.3153       0.429000
       7347.50        84.5300         1.2000         2.2958       0.431500
       7348.00        90.5400         1.1600         2.2705       0.431700
       7348.50        89.6300         1.1600         2.2600       0.438200
       7349.00        88.8600         1.1800         2.2600       0.443800
       7349.50        86.9800         1.2500         2.2600       0.442700
       7350.00        85.7100         1.3900         2.2600       0.435400
       7350.50        79.7900         1.3900         2.2647       0.427100
       7351.00        78.8800         1.4000         2.2700       0.421500
       7351.50        78.1800         1.4700         2.2700       0.416700
       7352.00        77.3500         1.5300         2.2653       0.414600
       7352.50        75.4300         1.5800         2.2458       0.415500
       7353.00        74.7200         1.7000         2.2253       0.417000
       7353.50        76.0300         1.7600         2.2200       0.414900
       7354.00        75.5600         1.8100         2.2105       0.409600
       7354.50        75.6600         1.8200         2.1953       0.403500
       7355.00        78.9400         1.7600         2.1900       0.394700
       7355.50        82.7200         1.7400         2.1900       0.377700
       7356.00        82.6400         1.7900         2.1947       0.362700
       7356.50        82.0000         1.7800         2.2047       0.360000
       7357.00        79.4900         1.8700         2.2053       0.365100
       7357.50        81.7100         1.9500         2.1953       0.382200
       7358.00        73.8700         1.9700         2.1900       0.401600
       7358.50        73.0000         1.9700         2.1853       0.410400
       7359.00        78.0800         1.9500         2.1847       0.415300
       7359.50        81.6000         1.8700         2.1900       0.419100
       7360.00        79.5700         1.7600         2.1853       0.421100
