~Version Information Block
VERS .                  2.0:  CWLS LOG ASCII STANDARD - VERSION 2.0
WRAP .                   NO:  One line per depth step
~Well Information Block
#MNEM.UNIT        Data Type   Information
#---------- ----------------  -----------
STRT .FT             350.00:  START DEPTH
STOP .FT           16021.50:  STOP DEPTH
STEP .FT               0.50:  STEP
NULL .              -999.25:  NULL VALUE
COMP .                     :  COMPANY
WELL .               STA-30:  WELL
FLD  .                     :  FIELD
LOC  .                     :  LOCATION
CTRY .                     :  COUNTRY
STAT .                     :  STATE
CNTY .                     :  COUNTY
SRVC .                     :  SERVICE COMPANY
DATE .                     :  DATE
API  .                     :  API NUMBER
UWI  .                     :  UNIQUE WELL ID
~Curve Information Block
#MNEM.UNIT         API CODE   Curve Description
#---------- ----------------  -----------------
DEPTH.FT                   :  
GR   .GAPI                 :  Merged RAW_LOG.GR_17P_1 with RAW_LOG.GR_12P_1 and RAW_LOG.GR_8P_1 and RAW_LOG.GR_6P_1 at 1127.75, 5954.49, 11516.11 F
RT   .OHMM                 :  RT_1 Depth Shifted (Shift Pairs in MATCH_RT set)
RHOB .G/C3                 :  RHOB_1 Depth Shifted (Shift Pairs in MATCH_RHOB set)
NPHI .V/V                  :  NPHI_1 Depth Shifted (Shift Pairs in MATCH_NPHI set)
~Parameter Information Block
#MNEM.UNIT            Value   Description
#---------- ----------------  -----------
PROJECT.            SANTAN_FE:  
~Other Information Block
# 
~A       DEPTH             GR             RT           RHOB           NPHI 
# ...
        457.00        12.1667         0.7055      -999.2500    -999.250000
        457.50        12.9299         0.7198      -999.2500    -999.250000
        458.00        12.9306         0.6470      -999.2500    -999.250000
        458.50        14.3656         0.6657      -999.2500    -999.250000
        459.00        18.1882         0.6154      -999.2500    -999.250000
        459.50        21.6627         0.6291      -999.2500    -999.250000
        460.00        25.2207         0.7330      -999.2500    -999.250000
        460.50        28.5780         0.7663      -999.2500    -999.250000
        461.00        30.0438         0.6753      -999.2500    -999.250000
        461.50        29.1009         0.6408      -999.2500    -999.250000
        462.00        25.7457         0.6082      -999.2500    -999.250000
        462.50        22.1889         0.5970      -999.2500    -999.250000
        463.00        20.7577         0.5995      -999.2500    -999.250000
        463.50        18.2127         0.6123      -999.2500    -999.250000
        464.00        18.6541         0.6040      -999.2500    -999.250000
        464.50        19.5120         0.5851      -999.2500    -999.250000
        465.00        19.3439         0.6142      -999.2500    -999.250000
        465.50        18.0419         0.6755      -999.2500    -999.250000
        466.00        19.2761         0.7344      -999.2500    -999.250000
        466.50        17.6241         0.7330      -999.2500    -999.250000
        467.00        15.3499         0.6591      -999.2500    -999.250000
        467.50        16.8327         0.5651      -999.2500    -999.250000
        468.00        18.2661         0.5671      -999.2500    -999.250000
        468.50        20.1595         0.6409      -999.2500    -999.250000
        469.00        22.3088         0.6634      -999.2500    -999.250000
        469.50        23.9512         0.7051      -999.2500    -999.250000
        470.00        21.8908         0.7030      -999.2500    -999.250000
        470.50        22.0006         0.6822      -999.2500    -999.250000
        471.00        19.3524         0.7324      -999.2500    -999.250000
        471.50        18.2040         0.7828      -999.2500    -999.250000
        472.00        18.5776         0.7755      -999.2500    -999.250000
        472.50        21.6700         0.6979      -999.2500    -999.250000
        473.00        23.7299         0.6719      -999.2500    -999.250000
        473.50        26.7372         0.6803      -999.2500    -999.250000
        474.00        24.2164         0.7853      -999.2500    -999.250000
        474.50        23.9236         0.8798      -999.2500    -999.250000
        475.00        22.1118         0.7339      -999.2500    -999.250000
        475.50        19.5896         0.7518      -999.2500    -999.250000
        476.00        16.9009         0.7820      -999.2500    -999.250000
        476.50        17.7153         0.7532      -999.2500    -999.250000
        477.00        17.9793         0.7158      -999.2500    -999.250000
        477.50        18.6496         0.7144      -999.2500    -999.250000
        478.00        19.1662         0.7409      -999.2500    -999.250000
        478.50        19.7516         0.7700      -999.2500    -999.250000
        479.00        21.9055         0.8099      -999.2500    -999.250000
        479.50        23.2247         0.8312      -999.2500    -999.250000
        480.00        23.3577         0.8092      -999.2500    -999.250000
        480.50        22.2521         0.7742      -999.2500    -999.250000
        481.00        22.9763         0.7618      -999.2500    -999.250000
        481.50        23.4630         0.7480      -999.2500    -999.250000
        482.00        22.5501         0.7136      -999.2500    -999.250000
        482.50        21.3666         0.7199      -999.2500    -999.250000
        483.00        22.2651         0.7188      -999.2500    -999.250000
        483.50        21.8451         0.6918      -999.2500    -999.250000
        484.00        18.8002         0.6998      -999.2500    -999.250000
        484.50        19.2732         0.7074      -999.2500    -999.250000
        485.00        19.6252         0.6658      -999.2500    -999.250000
        485.50        17.3036         0.6565      -999.2500    -999.250000
        486.00        18.4944         0.6400      -999.2500    -999.250000
        486.50        19.4311         0.6032      -999.2500    -999.250000
        487.00        17.3468         0.5995      -999.2500    -999.250000
        487.50        17.6152         0.6003      -999.2500    -999.250000
        488.00        24.1700         0.6091      -999.2500    -999.250000
        488.50        25.4804         0.6124      -999.2500    -999.250000
        489.00        27.9537         0.6150      -999.2500    -999.250000
        489.50        29.5418         0.6153      -999.2500    -999.250000
        490.00        26.4096         0.6163      -999.2500    -999.250000
        490.50        19.5269         0.5869      -999.2500    -999.250000
        491.00        15.1325         0.5708      -999.2500    -999.250000
        491.50        10.9223         0.6324      -999.2500    -999.250000
        492.00         8.6094         0.6324      -999.2500    -999.250000
        492.50        10.7659         0.6748      -999.2500    -999.250000
        493.00        13.5942         0.6638      -999.2500    -999.250000
        493.50        17.6433         0.6463      -999.2500    -999.250000
        494.00        20.3891         0.6478      -999.2500    -999.250000
        494.50        21.8621         0.6484      -999.2500    -999.250000
        495.00        22.0169         0.6949      -999.2500    -999.250000
        495.50        24.2719         0.6949      -999.2500    -999.250000
        496.00        25.3269         0.8431      -999.2500    -999.250000
        496.50        27.1468         0.8369      -999.2500    -999.250000
        497.00        29.6680         0.8277      -999.2500    -999.250000
        497.50        32.4954         0.6952      -999.2500    -999.250000
        498.00        31.4129         0.6358      -999.2500    -999.250000
        498.50        28.7423         0.6585      -999.2500    -999.250000
        499.00        27.1526         0.6585      -999.2500    -999.250000
        499.50        24.7537         0.6886      -999.2500    -999.250000
        500.00        22.8677         0.6781      -999.2500    -999.250000
        500.50        21.5327         0.6541      -999.2500    -999.250000
        501.00        21.9476         0.6734      -999.2500    -999.250000
        501.50        22.6783         0.6926      -999.2500    -999.250000
        502.00        24.1195         0.7784      -999.2500    -999.250000
        502.50        27.2618         0.8195      -999.2500    -999.250000
        503.00        28.8328         0.8213      -999.2500    -999.250000
        503.50        27.8698         0.9616      -999.2500    -999.250000
        504.00        29.3140         1.0903      -999.2500    -999.250000
        504.50        31.1724         1.1549      -999.2500    -999.250000
        505.00        30.6920         1.1730      -999.2500    -999.250000
        505.50        34.0809         1.2177      -999.2500    -999.250000
        506.00        39.4271         1.1895      -999.2500    -999.250000
        506.50        38.6027         1.1647      -999.2500    -999.250000
        507.00        39.1203         1.0673      -999.2500    -999.250000
        507.50        41.0424         1.0337      -999.2500    -999.250000
        508.00        40.7782         1.0007      -999.2500    -999.250000
        508.50        39.8224         0.9599      -999.2500    -999.250000
        509.00        41.5020         0.9599      -999.2500    -999.250000
        509.50        41.9298         0.9215      -999.2500    -999.250000
        510.00        41.3461         0.9152      -999.2500    -999.250000
