~Version Information Block
VERS .                  2.0:  CWLS LOG ASCII STANDARD - VERSION 2.0
WRAP .                   NO:  One line per depth step
~Well Information Block
#MNEM.UNIT        Data Type   Information
#---------- ----------------  -----------
STRT .FT            6114.50:  START DEPTH
STOP .FT           14965.50:  STOP DEPTH
STEP .FT               0.50:  STEP
NULL .              -999.25:  NULL VALUE
COMP .                     :  COMPANY
WELL .               STA-36:  WELL
FLD  .                     :  FIELD
LOC  .                     :  LOCATION
CTRY .                     :  COUNTRY
STAT .                     :  STATE
CNTY .                     :  COUNTY
SRVC .                     :  SERVICE COMPANY
DATE .                     :  DATE
API  .                     :  API NUMBER
UWI  .                     :  UNIQUE WELL ID
~Curve Information Block
#MNEM.UNIT         API CODE   Curve Description
#---------- ----------------  -----------------
DEPTH.FT                   :  Depth
GR   .GAPI                 :  Gamma Ray
RT   .OHMM                 :  True Resistivity
RHOB .G/C3                 :  Bulk Density
NPHI .V/V                  :  Neutron Porosity
~Parameter Information Block
#MNEM.UNIT            Value   Description
#---------- ----------------  -----------
PROJECT.            SANTAN_FE:  
~Other Information Block
# 
~A       DEPTH             GR             RT           RHOB           NPHI 
# ...
      13123.00        72.4899         5.7209         2.7064       0.143400
      13123.50        76.4966         5.5578         2.7081       0.152700
      13124.00        78.5561         5.6637         2.6899       0.155000
      13124.50        76.3261         6.1145         2.6779       0.141500
      13125.00        60.4509         6.5103         2.6846       0.110900
      13125.50        40.1569        10.3083         2.6788       0.080700
      13126.00        23.1281        16.2093         2.6464       0.069600
      13126.50        18.6938        18.4198         2.5955       0.067800
      13127.00        19.6091        19.8847         2.5585       0.068600
      13127.50        20.9426        20.3793         2.5501       0.075700
      13128.00        22.8782        19.7463         2.5540       0.092200
      13128.50        36.0271        15.9720         2.5626       0.109700
      13129.00        58.7417        11.8851         2.5932       0.121000
      13129.50        74.0341         7.9858         2.6371       0.126100
      13130.00        75.9042         6.4464         2.6532       0.124700
      13130.50        70.3535         6.3973         2.6433       0.116900
      13131.00        64.7711         6.4981         2.6363       0.107800
      13131.50        59.7156         6.0337         2.6300       0.100800
      13132.00        55.5869         6.1084         2.6179       0.098300
      13132.50        53.1929         6.0038         2.6019       0.101500
      13133.00        53.4613         5.6241         2.5953       0.106900
      13133.50        51.7881         5.2144         2.6026       0.112800
      13134.00        54.6878         4.8757         2.6060       0.119300
      13134.50        56.9555         4.4640         2.5816       0.126600
      13135.00        54.5246         4.1882         2.5437       0.130900
      13135.50        54.1339         4.0093         2.5188       0.134500
      13136.00        56.9335         3.8653         2.5082       0.139800
      13136.50        63.6780         3.7521         2.5123       0.145900
      13137.00        75.4755         3.6559         2.5314       0.149900
      13137.50        75.2859         3.5172         2.5547       0.152600
      13138.00        82.0594         3.4027         2.5732       0.153500
      13138.50        84.4314         3.3554         2.5821       0.152400
      13139.00        83.6178         3.3470         2.5730       0.152800
      13139.50        83.3827         3.3432         2.5609       0.156700
      13140.00        80.6316         3.2856         2.5675       0.161200
      13140.50        82.1629         3.1910         2.5834       0.162800
      13141.00        84.6873         3.1943         2.5942       0.161800
      13141.50        88.9838         3.1992         2.6020       0.159900
      13142.00        90.9118         3.2017         2.6098       0.156200
      13142.50        87.0157         3.3740         2.6083       0.148900
      13143.00        74.6290         3.5952         2.5992       0.140300
      13143.50        74.5660         3.7867         2.5963       0.131200
      13144.00        69.7952         3.9724         2.5990       0.123800
      13144.50        62.9645         4.1188         2.5915       0.122000
      13145.00        58.1919         4.0857         2.5630       0.124700
      13145.50        55.7406         3.9509         2.5334       0.124500
      13146.00        56.5012         3.8932         2.5265       0.121300
      13146.50        55.0781         3.9128         2.5443       0.122400
      13147.00        55.1727         3.8018         2.5563       0.130300
      13147.50        55.5305         3.6111         2.5493       0.138700
      13148.00        59.8215         3.5046         2.5445       0.143200
      13148.50        64.6034         3.4673         2.5492       0.146700
      13149.00        68.6270         3.4484         2.5517       0.152100
      13149.50        71.9785         3.4275         2.5517       0.155300
      13150.00        71.7968         3.4107         2.5564       0.153800
      13150.50        75.5956         3.3327         2.5647       0.152500
      13151.00        79.8917         3.2404         2.5726       0.152700
      13151.50        82.1258         3.1680         2.5764       0.152400
      13152.00        82.0319         3.1625         2.5762       0.153400
      13152.50        81.3057         3.1225         2.5773       0.154200
      13153.00        81.4991         3.0868         2.5766       0.152700
      13153.50        82.4335         3.0505         2.5761       0.154500
      13154.00        85.0698         2.9462         2.5856       0.160100
      13154.50        84.7901         2.8450         2.6005       0.166000
      13155.00        88.6232         2.7665         2.6104       0.172300
      13155.50        89.2531         2.6312         2.6086       0.178000
      13156.00        92.1056         2.5679         2.5971       0.180200
      13156.50        91.6471         2.4747         2.5886       0.177900
      13157.00        95.6923         2.4350         2.5820       0.175000
      13157.50        93.2298         2.4810         2.5752       0.176100
      13158.00        90.3818         2.4994         2.5746       0.181400
      13158.50        91.7255         2.5358         2.5773       0.183900
      13159.00        97.8752         2.5106         2.5793       0.178600
      13159.50        95.2700         2.4994         2.5798       0.173500
      13160.00        94.2706         2.5230         2.5737       0.176200
      13160.50        94.4160         2.5339         2.5674       0.179000
      13161.00        88.8761         2.5461         2.5722       0.175000
      13161.50        84.8057         2.6041         2.5823       0.166500
      13162.00        84.4093         2.7307         2.5818       0.159700
      13162.50        85.4321         2.7742         2.5729       0.159800
      13163.00        87.3074         2.7885         2.5745       0.164900
      13163.50        90.9352         2.5913         2.5855       0.171200
      13164.00        92.4749         2.4079         2.5924       0.175000
      13164.50        90.2648         2.3934         2.6048       0.174900
      13165.00        91.5186         2.3717         2.6201       0.175100
      13165.50        92.9192         2.2371         2.6230       0.178200
      13166.00        93.7237         2.2298         2.6162       0.182700
      13166.50        96.4967         2.1900         2.6097       0.188500
      13167.00        95.4912         2.2052         2.6106       0.194000
      13167.50        90.2522         2.1822         2.6184       0.195600
      13168.00        90.8754         2.1478         2.6191       0.194800
      13168.50        91.6790         2.1637         2.6080       0.195000
      13169.00        94.0717         2.1551         2.5989       0.196400
      13169.50        93.6480         2.1503         2.5957       0.198000
      13170.00        94.7196         2.1020         2.5918       0.197200
      13170.50        94.6684         2.0806         2.5860       0.194400
      13171.00        93.1150         2.1426         2.5774       0.195400
      13171.50        93.3258         2.1198         2.5654       0.200900
      13172.00        97.1877         2.0688         2.5640       0.206000
      13172.50        98.4445         2.0691         2.5747       0.207000
      13173.00        93.5673         2.1000         2.5811       0.205700
      13173.50        92.2828         2.1283         2.5794       0.206700
      13174.00        93.2461         2.1206         2.5726       0.206700
      13174.50        94.0651         2.0623         2.5639       0.203800
      13175.00        95.0645         2.0271         2.5623       0.204000
      13175.50        95.5101         2.0215         2.5703       0.208100
      13176.00        99.1392         1.9702         2.5728       0.209700
