~Version Information Block
VERS .                  2.0:  CWLS LOG ASCII STANDARD - VERSION 2.0
WRAP .                   NO:  One line per depth step
~Well Information Block
#MNEM.UNIT        Data Type   Information
#---------- ----------------  -----------
STRT .FT            6114.50:  START DEPTH
STOP .FT           14965.50:  STOP DEPTH
STEP .FT               0.50:  STEP
NULL .              -999.25:  NULL VALUE
COMP .                     :  COMPANY
WELL .               STA-36:  WELL
FLD  .                     :  FIELD
LOC  .                     :  LOCATION
CTRY .                     :  COUNTRY
STAT .                     :  STATE
CNTY .                     :  COUNTY
SRVC .                     :  SERVICE COMPANY
DATE .                     :  DATE
API  .                     :  API NUMBER
UWI  .                     :  UNIQUE WELL ID
~Curve Information Block
#MNEM.UNIT         API CODE   Curve Description
#---------- ----------------  -----------------
DEPTH.FT                   :  Depth
GR   .GAPI                 :  Gamma Ray
RT   .OHMM                 :  True Resistivity
RHOB .G/C3                 :  Bulk Density
NPHI .V/V                  :  Neutron Porosity
~Parameter Information Block
#MNEM.UNIT            Value   Description
#---------- ----------------  -----------
PROJECT.            SANTAN_FE:  
~Other Information Block
# 
~A       DEPTH             GR             RT           RHOB           NPHI 
# ...
       9057.00        88.1741         2.1140         2.5204       0.297900
       9057.50        93.5101         2.0136         2.5127       0.301200
       9058.00        90.1102         2.1201         2.5132       0.291600
       9058.50        86.1707         2.3903         2.5199       0.273700
       9059.00        70.1318         2.7346         2.5123       0.256500
       9059.50        55.1079         2.8957         2.4870       0.245100
       9060.00        52.3285         3.0028         2.4638       0.242000
       9060.50        56.6108         3.0032         2.4609       0.244000
       9061.00        60.2523         2.9266         2.4716       0.249400
       9061.50        67.2805         2.8198         2.4815       0.263300
       9062.00        72.7189         2.6363         2.4892       0.286400
       9062.50        77.8057         2.3594         2.4961       0.307400
       9063.00        84.4743         2.3049         2.4991       0.313900
       9063.50        86.0737         2.2618         2.4935       0.311500
       9064.00        87.7515         2.1848         2.4831       0.310700
       9064.50        85.7602         2.0942         2.4756       0.305300
       9065.00        78.8714         2.1349         2.4795       0.291200
       9065.50        67.7149         2.3966         2.4808       0.273700
       9066.00        51.9993         2.5515         2.4491       0.262700
       9066.50        49.8262         2.3470         2.3951       0.269200
       9067.00        53.6111         2.3229         2.3587       0.281200
       9067.50        58.4997         2.3029         2.3523       0.285800
       9068.00        56.6184         2.3742         2.3588       0.289600
       9068.50        54.5279         2.4228         2.3613       0.294200
       9069.00        61.4083         2.3215         2.3636       0.299800
       9069.50        73.9198         2.1344         2.3926       0.309100
       9070.00        84.2107         2.0060         2.4372       0.312400
       9070.50        86.1700         1.8680         2.4661       0.303400
       9071.00        88.4487         1.7720         2.4779       0.298000
       9071.50        90.9577         1.7290         2.4835       0.309100
       9072.00        91.1858         1.6855         2.4858       0.328100
       9072.50        91.4475         1.6551         2.4882       0.336900
       9073.00        90.4816         1.6065         2.4920       0.339500
       9073.50        92.3792         1.5675         2.4930       0.350200
       9074.00        94.2022         1.5369         2.4926       0.364200
       9074.50        94.3568         1.5266         2.4937       0.370000
       9075.00        95.3806         1.5240         2.4941       0.369300
       9075.50        95.5212         1.5175         2.4917       0.369600
       9076.00        98.7165         1.5098         2.4925       0.370800
       9076.50        93.0045         1.5715         2.5047       0.351700
       9077.00        78.3666         2.0543         2.5285       0.282900
       9077.50        58.0154         3.7706         2.5675       0.192900
       9078.00        44.0741         6.3547         2.6298       0.130400
       9078.50        38.6959         7.4193         2.6833       0.113200
       9079.00        37.0621         7.1515         2.6566       0.136100
       9079.50        38.5403         6.2303         2.5429       0.177200
       9080.00        45.3868         5.5172         2.4219       0.208400
       9080.50        52.1944         4.9733         2.3616       0.225300
       9081.00        63.1238         4.4550         2.3660       0.235900
       9081.50        73.6995         4.0987         2.3982       0.249100
       9082.00        77.5738         3.7856         2.4339       0.263600
       9082.50        81.2200         3.4657         2.4586       0.262700
       9083.00        80.4847         3.2886         2.4615       0.247900
       9083.50        73.1991         3.4363         2.4540       0.234200
       9084.00        63.4594         3.5356         2.4470       0.229800
       9084.50        66.8284         3.4959         2.4416       0.236600
       9085.00        77.0452         3.2120         2.4525       0.247300
       9085.50        81.6179         2.9364         2.4790       0.254300
       9086.00        82.0201         2.7684         2.5001       0.261600
       9086.50        83.8238         2.7121         2.5095       0.268100
       9087.00        82.9029         2.7409         2.5139       0.268700
       9087.50        83.6438         2.8148         2.5119       0.262800
       9088.00        76.8137         3.0677         2.5036       0.250300
       9088.50        65.4148         3.3797         2.4818       0.232500
       9089.00        66.3047         3.6286         2.4536       0.218700
       9089.50        59.7977         3.7519         2.4390       0.215800
       9090.00        60.6653         3.7797         2.4385       0.216700
       9090.50        64.2391         3.7114         2.4394       0.215500
       9091.00        63.2110         3.5605         2.4446       0.216100
       9091.50        69.7923         3.2632         2.4566       0.226600
       9092.00        79.8694         2.8052         2.4674       0.254900
       9092.50        88.2866         2.3695         2.4708       0.294100
       9093.00        88.2750         2.1056         2.4645       0.321600
       9093.50        90.4558         2.0547         2.4562       0.326200
       9094.00        87.8007         2.0963         2.4571       0.311200
       9094.50        76.1781         2.3744         2.4509       0.286600
       9095.00        61.3967         2.6287         2.4021       0.268100
       9095.50        55.4759         2.7862         2.3139       0.254900
       9096.00        59.8865         2.9088         2.2619       0.239200
       9096.50        66.1140         3.0624         2.2879       0.229000
       9097.00        67.1175         3.2780         2.3502       0.227800
       9097.50        65.2685         3.4143         2.4098       0.233900
       9098.00        65.3394         3.4956         2.4363       0.243000
       9098.50        64.7229         3.4784         2.4348       0.247700
       9099.00        70.6476         3.4367         2.4323       0.244700
       9099.50        68.9379         3.4647         2.4353       0.240100
       9100.00        64.1180         3.5458         2.4315       0.238500
       9100.50        59.7297         3.5783         2.4078       0.237700
       9101.00        55.2573         3.5907         2.3818       0.233200
       9101.50        56.5610         3.5829         2.3781       0.231400
       9102.00        62.4487         3.5380         2.3978       0.226800
       9102.50        67.1634         3.5156         2.4225       0.225200
       9103.00        62.4835         3.5074         2.4349       0.233200
       9103.50        62.6672         3.4223         2.4309       0.246600
       9104.00        71.1216         3.1783         2.4249       0.263400
       9104.50        77.1026         2.9543         2.4284       0.276700
       9105.00        77.4873         2.7209         2.4313       0.283300
       9105.50        79.5487         2.5641         2.4265       0.291000
       9106.00        81.1873         2.4755         2.4210       0.300100
       9106.50        80.1779         2.4303         2.4186       0.304900
       9107.00        81.3592         2.4118         2.4180       0.306100
       9107.50        79.0585         2.4128         2.4182       0.306500
       9108.00        80.4439         2.4169         2.4193       0.307200
       9108.50        83.1833         2.3993         2.4214       0.307800
       9109.00        82.2276         2.3645         2.4251       0.305600
       9109.50        82.1215         2.4018         2.4287       0.298200
       9110.00        82.0617         2.4195         2.4282       0.290300
