~Version Information Block
VERS .                  2.0:  CWLS LOG ASCII STANDARD - VERSION 2.0
WRAP .                   NO:  One line per depth step
~Well Information Block
#MNEM.UNIT        Data Type   Information
#---------- ----------------  -----------
STRT .FT            6114.50:  START DEPTH
STOP .FT           14965.50:  STOP DEPTH
STEP .FT               0.50:  STEP
NULL .              -999.25:  NULL VALUE
COMP .                     :  COMPANY
WELL .               STA-36:  WELL
FLD  .                     :  FIELD
LOC  .                     :  LOCATION
CTRY .                     :  COUNTRY
STAT .                     :  STATE
CNTY .                     :  COUNTY
SRVC .                     :  SERVICE COMPANY
DATE .                     :  DATE
API  .                     :  API NUMBER
UWI  .                     :  UNIQUE WELL ID
~Curve Information Block
#MNEM.UNIT         API CODE   Curve Description
#---------- ----------------  -----------------
DEPTH.FT                   :  Depth
GR   .GAPI                 :  Gamma Ray
RT   .OHMM                 :  True Resistivity
RHOB .G/C3                 :  Bulk Density
NPHI .V/V                  :  Neutron Porosity
~Parameter Information Block
#MNEM.UNIT            Value   Description
#---------- ----------------  -----------
PROJECT.            SANTAN_FE:  
~Other Information Block
# 
~A       DEPTH             GR             RT           RHOB           NPHI 
# ...
      11946.00        88.4409         2.9824         2.5925       0.173800
      11946.50        91.9065         2.7880         2.5848       0.190500
      11947.00        94.5168         2.5581         2.5859       0.201800
      11947.50        94.5804         2.5201         2.5949       0.199700
      11948.00        89.8476         2.6955         2.5979       0.193500
      11948.50        82.1064         2.8836         2.5956       0.184500
      11949.00        75.3249         3.0696         2.5879       0.173100
      11949.50        74.6399         3.0424         2.5764       0.165100
      11950.00        72.6706         3.2104         2.5688       0.160500
      11950.50        68.6207         3.5158         2.5660       0.156300
      11951.00        69.3395         3.4818         2.5634       0.157200
      11951.50        74.8688         3.2734         2.5588       0.165500
      11952.00        81.0732         3.1075         2.5530       0.174000
      11952.50        80.9222         3.1065         2.5548       0.176700
      11953.00        79.5258         3.0931         2.5701       0.175100
      11953.50        80.8809         3.1188         2.5859       0.172100
      11954.00        80.8566         3.0219         2.5890       0.164500
      11954.50        77.8927         3.0835         2.5922       0.148300
      11955.00        69.9280         3.2344         2.5990       0.130200
      11955.50        59.7524         3.4508         2.5901       0.118900
      11956.00        46.4236         3.6421         2.5624       0.117100
      11956.50        37.8311         3.6437         2.5375       0.122800
      11957.00        35.6657         3.4206         2.5145       0.128200
      11957.50        33.5760         3.3069         2.4893       0.128700
      11958.00        35.3064         3.2385         2.4700       0.128900
      11958.50        38.9741         3.2546         2.4661       0.130000
      11959.00        45.1953         3.2935         2.4732       0.133100
      11959.50        57.8148         3.4221         2.4858       0.140100
      11960.00        66.9454         3.4670         2.5123       0.147500
      11960.50        68.7508         3.4724         2.5459       0.150100
      11961.00        69.8803         3.5144         2.5677       0.147300
      11961.50        73.1954         3.5683         2.5780       0.144700
      11962.00        70.7562         3.5706         2.5874       0.144800
      11962.50        73.2163         3.6321         2.5936       0.144400
      11963.00        74.3270         3.7172         2.5902       0.143100
      11963.50        73.8389         3.7387         2.5845       0.144300
      11964.00        73.2700         3.7380         2.5828       0.146700
      11964.50        74.4268         3.8186         2.5797       0.146000
      11965.00        76.7121         3.8771         2.5748       0.142800
      11965.50        71.9687         3.8090         2.5778       0.141000
      11966.00        75.6359         3.7350         2.5872       0.143400
      11966.50        76.9180         3.5775         2.5909       0.152400
      11967.00        82.2525         3.4673         2.5911       0.163600
      11967.50        84.0521         3.3583         2.5881       0.171600
      11968.00        87.0299         3.2392         2.5801       0.178500
      11968.50        87.9358         3.1044         2.5729       0.180600
      11969.00        90.2711         3.1057         2.5685       0.179400
      11969.50        89.6955         3.1543         2.5698       0.183700
      11970.00        93.1334         3.0310         2.5770       0.190800
      11970.50        94.1154         2.8483         2.5895       0.195600
      11971.00        94.6124         2.8987         2.6048       0.202300
      11971.50        92.0801         2.8151         2.6095       0.209100
      11972.00        86.6101         2.6193         2.6039       0.205600
      11972.50        79.4639         2.8069         2.6084       0.187600
      11973.00        68.2543         3.1727         2.6189       0.160800
      11973.50        57.4922         4.0003         2.6187       0.133600
      11974.00        51.5185         5.1993         2.6238       0.113400
      11974.50        48.5379         6.1913         2.6467       0.103500
      11975.00        46.1438         7.2395         2.6649       0.099700
      11975.50        44.5899         7.8965         2.6621       0.096600
      11976.00        49.0109         8.2653         2.6583       0.092300
      11976.50        45.4095         7.7330         2.6693       0.089000
      11977.00        48.5227         6.9091         2.6857       0.089500
      11977.50        53.2883         5.8196         2.6862       0.097200
      11978.00        58.0793         4.8218         2.6604       0.113300
      11978.50        62.6427         4.2202         2.6163       0.134200
      11979.00        68.4846         3.8138         2.5776       0.153100
      11979.50        73.9519         3.5270         2.5649       0.165600
      11980.00        75.6560         3.2453         2.5756       0.172800
      11980.50        79.8307         3.0908         2.5892       0.176700
      11981.00        79.4991         3.0644         2.5880       0.177300
      11981.50        76.4100         3.1152         2.5684       0.180500
      11982.00        82.7151         2.8623         2.5496       0.190400
      11982.50        88.9728         2.6596         2.5491       0.200900
      11983.00        96.6917         2.6139         2.5558       0.206700
      11983.50        97.2271         2.4940         2.5627       0.211600
      11984.00        97.3311         2.4101         2.5748       0.218600
      11984.50        96.7064         2.3508         2.5871       0.222200
      11985.00        97.5517         2.3887         2.5925       0.218200
      11985.50        96.5421         2.4279         2.5906       0.206300
      11986.00        92.2314         2.6504         2.5837       0.188100
      11986.50        88.6965         2.8407         2.5794       0.169400
      11987.00        82.2123         2.9719         2.5850       0.153400
      11987.50        73.0675         3.0445         2.5928       0.139100
      11988.00        61.8598         3.2625         2.5855       0.130000
      11988.50        58.4831         3.6785         2.5676       0.128600
      11989.00        65.2205         3.8632         2.5621       0.128600
      11989.50        65.6402         3.9200         2.5732       0.127400
      11990.00        65.1673         4.0141         2.5863       0.129000
      11990.50        64.3088         4.0682         2.5884       0.133300
      11991.00        69.5536         3.9942         2.5767       0.138100
      11991.50        74.9606         3.8094         2.5637       0.145700
      11992.00        79.7997         3.5960         2.5658       0.160300
      11992.50        86.7143         3.3848         2.5774       0.179300
      11993.00        89.8034         3.1315         2.5845       0.197100
      11993.50        93.7340         2.8043         2.5830       0.209900
      11994.00        98.8247         2.6172         2.5810       0.216200
      11994.50       100.2140         2.5441         2.5882       0.217900
      11995.00       102.4027         2.4480         2.5994       0.220000
      11995.50       104.0728         2.4203         2.6036       0.226400
      11996.00       106.4025         2.3824         2.6002       0.233600
      11996.50       104.6282         2.3360         2.5967       0.233000
      11997.00       102.6708         2.2732         2.6009       0.226200
      11997.50       101.1367         2.3408         2.6063       0.221700
      11998.00       101.6914         2.4299         2.6099       0.220700
      11998.50       101.4373         2.3854         2.6162       0.219600
      11999.00       103.0427         2.3561         2.6215       0.212900
