~Version Information Block
VERS .                  2.0:  CWLS LOG ASCII STANDARD - VERSION 2.0
WRAP .                   NO:  One line per depth step
~Well Information Block
#MNEM.UNIT        Data Type   Information
#---------- ----------------  -----------
STRT .FT             728.00:  START DEPTH
STOP .FT           10480.50:  STOP DEPTH
STEP .FT               0.50:  STEP
NULL .              -999.25:  NULL VALUE
COMP .                     :  COMPANY
WELL .               STA-21:  WELL
FLD  .                     :  FIELD
LOC  .                     :  LOCATION
CTRY .                     :  COUNTRY
STAT .                     :  STATE
CNTY .                     :  COUNTY
SRVC .                     :  SERVICE COMPANY
DATE .                     :  DATE
API  .                     :  API NUMBER
UWI  .                     :  UNIQUE WELL ID
~Curve Information Block
#MNEM.UNIT         API CODE   Curve Description
#---------- ----------------  -----------------
DEPTH.FT                   :  DEPTH
GR   .GAPI                 :  Gamma Ray
RT   .OHMM                 :  RESDE
RHOB .G/C3                 :  Bulk Density
NPHI .V/V                  :  Thermal Neutron Porosity (Ratio Method) in Selected Lithology
~Parameter Information Block
#MNEM.UNIT            Value   Description
#---------- ----------------  -----------
PROJECT.            SANTAN_FE:  
~Other Information Block
# 
~A       DEPTH             GR             RT           RHOB           NPHI 
# ...
       5275.50        93.2800         1.5706         2.2612         0.4967
       5276.00        94.4600         1.5800         2.2683         0.4967
       5276.50        96.4900         1.5814         2.2775         0.5058
       5277.00        98.0500         1.5873         2.2740         0.5192
       5277.50        97.9300         1.5970         2.2595         0.5218
       5278.00        97.2200         1.5925         2.2550         0.5184
       5278.50        96.5100         1.5743         2.2550         0.5079
       5279.00        96.8400         1.5664         2.2571         0.4973
       5279.50        95.7200         1.5578         2.2483         0.4917
       5280.00        95.2100         1.5424         2.2466         0.4900
       5280.50        94.6200         1.5229         2.2530         0.4900
       5281.00        94.0000         1.5103         2.2621         0.4886
       5281.50        92.5400         1.5091         2.2620         0.4818
       5282.00        90.2500         1.5239         2.2491         0.4671
       5282.50        89.0800         1.5930         2.2414         0.4523
       5283.00        88.1600         1.6981         2.2511         0.4390
       5283.50        87.3200         1.8428         2.2874         0.4284
       5284.00        83.8500         2.0416         2.2875         0.4193
       5284.50        80.3800         2.5110         2.2631         0.4064
       5285.00        76.2800         3.3317         2.2467         0.3768
       5285.50        71.9200         4.3631         2.2645         0.3314
       5286.00        67.5500         5.4795         2.3230         0.2882
       5286.50        62.1400         6.2442         2.4112         0.2568
       5287.00        58.0500         6.7199         2.4996         0.2408
       5287.50        53.9700         6.9621         2.5534         0.2382
       5288.00        52.4500         7.0630         2.5479         0.2487
       5288.50        53.8900         6.2381         2.4758         0.2853
       5289.00        55.3300         4.6952         2.3688         0.3478
       5289.50        57.5100         3.3703         2.2877         0.4197
       5290.00        61.3900         2.5703         2.2644         0.4702
       5290.50        65.2800         2.0226         2.2649         0.4660
       5291.00        70.8800         1.8293         2.2737         0.4361
       5291.50        73.4700         1.6416         2.2781         0.4253
       5292.00        77.5000         1.4862         2.2806         0.4526
       5292.50        79.8700         1.4146         2.2843         0.4954
       5293.00        82.2300         1.4052         2.2880         0.5121
       5293.50        82.6800         1.4692         2.2798         0.4903
       5294.00        82.2500         1.5258         2.2757         0.4402
       5294.50        81.8200         1.5400         2.2577         0.4027
       5295.00        81.8600         1.5417         2.2552         0.3925
       5295.50        81.7900         1.5458         2.2635         0.3959
       5296.00        82.5700         1.5392         2.2744         0.4015
       5296.50        83.3600         1.5117         2.2950         0.4002
       5297.00        84.3900         1.4833         2.2971         0.3890
       5297.50        86.2100         1.4733         2.2959         0.3755
       5298.00        88.2200         1.4658         2.2987         0.3840
       5298.50        90.0500         1.4475         2.3057         0.4009
       5299.00        90.1800         1.4283         2.3125         0.4021
       5299.50        90.2700         1.4275         2.3125         0.3893
       5300.00        89.0900         1.4367         2.3085         0.3850
       5300.50        88.1300         1.4517         2.3043         0.3972
       5301.00        87.0400         1.4708         2.3083         0.4075
       5301.50        85.3300         1.5025         2.3213         0.4052
       5302.00        83.5200         1.5333         2.3304         0.3921
       5302.50        81.7100         1.5558         2.3194         0.3751
       5303.00        80.7800         1.5808         2.2968         0.3597
       5303.50        78.6700         1.6067         2.2846         0.3569
       5304.00        76.5500         1.6133         2.2781         0.3817
       5304.50        74.4600         1.6058         2.2619         0.4226
       5305.00        73.4900         1.5992         2.2443         0.4313
       5305.50        73.7800         1.5942         2.2527         0.4184
       5306.00        75.8200         1.5642         2.2706         0.3951
       5306.50        77.5000         1.5283         2.2488         0.3769
       5307.00        77.9100         1.5158         2.2325         0.3709
       5307.50        78.2100         1.5217         2.2092         0.3843
       5308.00        80.1800         1.5333         2.2124         0.4195
       5308.50        82.1500         1.5542         2.2492         0.4537
       5309.00        84.6900         1.5742         2.2737         0.4604
       5309.50        85.3400         1.5833         2.2881         0.4357
       5310.00        85.9900         1.5867         2.2999         0.4013
       5310.50        85.8100         1.5858         2.3012         0.3826
       5311.00        87.1100         1.5817         2.3001         0.3843
       5311.50        88.4000         1.5667         2.2985         0.4078
       5312.00        89.4200         1.5450         2.2925         0.4368
       5312.50        89.0500         1.5275         2.2913         0.4423
       5313.00        88.6800         1.5275         2.2926         0.4337
       5313.50        87.4000         1.5367         2.3008         0.4184
       5314.00        86.6200         1.5433         2.2987         0.4150
       5314.50        85.9400         1.5433         2.2747         0.4182
       5315.00        85.4200         1.5458         2.2559         0.4186
       5315.50        84.9000         1.5659         2.2506         0.4113
       5316.00        83.8500         1.6117         2.2500         0.4029
       5316.50        83.4200         1.6534         2.2434         0.4000
       5317.00        82.8900         1.6650         2.2471         0.4007
       5317.50        82.7900         1.6583         2.2524         0.4044
       5318.00        83.5000         1.6283         2.2755         0.4139
       5318.50        84.8800         1.5883         2.2956         0.4251
       5319.00        86.2600         1.5617         2.3025         0.4274
       5319.50        88.0900         1.5533         2.3038         0.4319
       5320.00        90.4700         1.5291         2.3191         0.4466
       5320.50        92.8500         1.5092         2.3576         0.4627
       5321.00        93.3700         1.5205         2.3767         0.4675
       5321.50        91.1800         1.5492         2.3602         0.4558
       5322.00        88.9900         1.5804         2.3179         0.4400
       5322.50        85.8000         1.6156         2.3007         0.4267
       5323.00        84.5500         1.6246         2.2902         0.4125
       5323.50        83.3000         1.6404         2.2740         0.4008
       5324.00        83.7100         1.6792         2.2625         0.3942
       5324.50        82.0500         1.7232         2.2625         0.3925
       5325.00        80.3800         1.7350         2.2602         0.3908
       5325.50        77.8100         1.7452         2.2468         0.3867
       5326.00        76.4500         1.7500         2.2242         0.3750
       5326.50        75.0800         1.7489         2.2200         0.3567
       5327.00        73.7300         1.7370         2.2364         0.3433
       5327.50        71.6500         1.7157         2.2476         0.3500
       5328.00        69.5600         1.6918         2.2421         0.3850
       5328.50        67.1900         1.6692         2.2288         0.4350
