~Version Information Block
VERS .                  2.0:  CWLS LOG ASCII STANDARD - VERSION 2.0
WRAP .                   NO:  One line per depth step
~Well Information Block
#MNEM.UNIT        Data Type   Information
#---------- ----------------  -----------
STRT .FT            6091.50:  START DEPTH
STOP .FT           14295.50:  STOP DEPTH
STEP .FT               0.50:  STEP
NULL .              -999.25:  NULL VALUE
COMP .                     :  COMPANY
WELL .               STA-35:  WELL
FLD  .                     :  FIELD
LOC  .                     :  LOCATION
CTRY .                     :  COUNTRY
STAT .                     :  STATE
CNTY .                     :  COUNTY
SRVC .                     :  SERVICE COMPANY
DATE .                     :  DATE
API  .                     :  API NUMBER
UWI  .                     :  UNIQUE WELL ID
~Curve Information Block
#MNEM.UNIT         API CODE   Curve Description
#---------- ----------------  -----------------
DEPTH.FT                   :  Depth
GR   .GAPI                 :  Gamma Ray
RT   .OHMM                 :  True Resistivity
RHOB .G/C3                 :  Bulk Density
NPHI .V/V                  :  Neutron Porosity
~Parameter Information Block
#MNEM.UNIT            Value   Description
#---------- ----------------  -----------
PROJECT.            SANTAN_FE:  
~Other Information Block
# 
~A       DEPTH             GR             RT           RHOB           NPHI 
# ...
       9301.50        91.2175         2.0673         2.5088       0.335900
       9302.00        94.4827         1.9643         2.5089       0.330800
       9302.50        95.8129         1.8931         2.5073       0.331300
       9303.00        92.8905         1.8538         2.5027       0.331900
       9303.50        90.3308         1.7916         2.5021       0.334100
       9304.00        93.2943         1.7517         2.5084       0.346200
       9304.50        93.1072         1.7200         2.5152       0.354000
       9305.00        94.8753         1.6806         2.5205       0.354800
       9305.50        93.8172         1.6038         2.5210       0.359000
       9306.00        95.7240         1.5815         2.5165       0.364300
       9306.50        97.9693         1.5789         2.5141       0.366000
       9307.00        97.6446         1.6488         2.5151       0.364400
       9307.50        97.0963         1.7145         2.5174       0.358900
       9308.00        91.4678         1.7619         2.5204       0.343200
       9308.50        82.9470         2.1533         2.5204       0.303400
       9309.00        66.3291         3.1729         2.5166       0.247200
       9309.50        55.5977         4.0954         2.5211       0.198500
       9310.00        51.7986         4.2518         2.5430       0.173600
       9310.50        53.3790         4.0645         2.5500       0.175300
       9311.00        55.6904         3.9211         2.5107       0.190000
       9311.50        55.8653         3.8151         2.4584       0.202600
       9312.00        58.1419         3.7488         2.4363       0.211100
       9312.50        57.0463         3.6784         2.4298       0.219400
       9313.00        60.0206         3.6091         2.4274       0.230700
       9313.50        63.1722         3.5453         2.4343       0.242600
       9314.00        68.9159         3.3715         2.4495       0.249300
       9314.50        71.4799         3.1805         2.4667       0.250000
       9315.00        75.6078         3.0718         2.4778       0.246200
       9315.50        75.9174         2.9914         2.4809       0.239600
       9316.00        76.2450         2.9247         2.4793       0.235000
       9316.50        70.2687         2.9734         2.4728       0.235300
       9317.00        68.8219         2.9572         2.4653       0.245500
       9317.50        73.0276         2.8115         2.4620       0.264500
       9318.00        79.1903         2.6239         2.4619       0.273400
       9318.50        84.3973         2.3938         2.4621       0.268500
       9319.00        85.9488         2.2647         2.4691       0.264700
       9319.50        86.0996         2.3570         2.4830       0.267200
       9320.00        83.9749         2.4753         2.4864       0.270500
       9320.50        83.4457         2.5897         2.4769       0.272600
       9321.00        84.9045         2.6170         2.4680       0.268400
       9321.50        85.9772         2.7367         2.4690       0.249400
       9322.00        83.8037         3.1728         2.4749       0.221100
       9322.50        69.3513         3.5506         2.4704       0.205100
       9323.00        59.2038         3.9114         2.4455       0.202000
       9323.50        51.5231         4.2192         2.4162       0.200600
       9324.00        47.7267         4.4713         2.3956       0.196000
       9324.50        42.5244         4.6839         2.3793       0.193300
       9325.00        41.2526         4.7361         2.3651       0.197700
       9325.50        38.8387         4.7367         2.3566       0.201000
       9326.00        38.2092         4.7405         2.3505       0.201700
       9326.50        40.9483         4.7652         2.3482       0.202600
       9327.00        41.4079         4.7131         2.3505       0.205500
       9327.50        40.6828         4.5955         2.3450       0.209800
       9328.00        39.7915         4.4453         2.3243       0.218400
       9328.50        42.0056         4.2148         2.3006       0.228900
       9329.00        42.7038         3.9288         2.2855       0.232800
       9329.50        46.7674         3.6684         2.2841       0.235000
       9330.00        51.8331         3.5616         2.2922       0.240200
       9330.50        52.1900         3.4159         2.2989       0.243200
       9331.00        51.0366         3.3107         2.3003       0.246900
       9331.50        51.9526         3.3009         2.2975       0.248700
       9332.00        52.0659         3.2598         2.2899       0.243500
       9332.50        46.0816         3.2215         2.2756       0.240000
       9333.00        41.9509         3.1958         2.2500       0.245100
       9333.50        41.0970         3.1376         2.2218       0.255800
       9334.00        42.2857         3.0868         2.2197       0.267400
       9334.50        45.3061         3.0868         2.2319       0.273600
       9335.00        47.9277         3.0678         2.2508       0.271100
       9335.50        48.8463         3.0949         2.2758       0.262200
       9336.00        48.9043         3.0940         2.2913       0.255000
       9336.50        48.6380         3.0180         2.2752       0.255200
       9337.00        44.5014         2.8829         2.2406       0.260500
       9337.50        40.5818         2.7906         2.2164       0.268900
       9338.00        37.3848         2.6518         2.2034       0.276300
       9338.50        35.8657         2.5457         2.1981       0.272400
       9339.00        35.7632         2.5206         2.2011       0.261400
       9339.50        36.0846         2.5246         2.2064       0.261900
       9340.00        35.7941         2.4747         2.2061       0.273100
       9340.50        36.6680         2.4227         2.2034       0.280700
       9341.00        37.2704         2.3551         2.2173       0.291700
       9341.50        48.9752         2.3349         2.2705       0.310500
       9342.00        68.6708         2.2071         2.3541       0.329400
       9342.50        85.3212         1.9736         2.4342       0.338400
       9343.00        92.1931         1.8627         2.4844       0.328600
       9343.50        98.2051         1.8411         2.5108       0.311500
       9344.00        94.6926         1.8248         2.5274       0.312200
       9344.50        94.1749         1.8358         2.5397       0.320500
       9345.00        92.0985         1.9171         2.5494       0.305500
       9345.50        86.9982         2.1794         2.5505       0.268100
       9346.00        75.3514         2.6201         2.5279       0.233300
       9346.50        63.5721         2.8999         2.4839       0.214800
       9347.00        56.3636         3.0863         2.4444       0.211100
       9347.50        54.8035         3.2360         2.4258       0.212600
       9348.00        57.3298         3.3404         2.4271       0.212400
       9348.50        60.0718         3.4145         2.4343       0.208200
       9349.00        61.3518         3.4410         2.4402       0.202100
       9349.50        61.2159         3.4234         2.4486       0.201100
       9350.00        63.0629         3.3941         2.4576       0.207600
       9350.50        64.0252         3.3527         2.4663       0.215400
       9351.00        62.9244         3.2857         2.4731       0.224600
       9351.50        64.4940         3.1599         2.4747       0.235900
       9352.00        65.8348         3.0882         2.4771       0.241800
       9352.50        71.1805         2.9666         2.4879       0.244000
       9353.00        75.4833         2.8538         2.4981       0.249900
       9353.50        80.9410         2.7558         2.5000       0.257600
       9354.00        82.2507         2.5870         2.5000       0.262600
       9354.50        84.4411         2.4337         2.5067       0.264200
