~Version Information Block
VERS .                  2.0:  CWLS LOG ASCII STANDARD - VERSION 2.0
WRAP .                   NO:  One line per depth step
~Well Information Block
#MNEM.UNIT        Data Type   Information
#---------- ----------------  -----------
STRT .FT            3742.00:  START DEPTH
STOP .FT            8440.00:  STOP DEPTH
STEP .FT               0.50:  STEP
NULL .              -999.25:  NULL VALUE
COMP .                     :  COMPANY
WELL .                STA-2:  WELL
FLD  .                     :  FIELD
LOC  .                     :  LOCATION
CTRY .                     :  COUNTRY
STAT .                     :  STATE
CNTY .                     :  COUNTY
SRVC .                     :  SERVICE COMPANY
DATE .                     :  DATE
API  .                     :  API NUMBER
UWI  .                     :  UNIQUE WELL ID
~Curve Information Block
#MNEM.UNIT         API CODE   Curve Description
#---------- ----------------  -----------------
DEPTH.FT                   :  DEPTH
GR   .GAPI                 :  Gamma Ray
RT   .OHMM                 :  Deep resistivity
RHOB .G/C3                 :  Bulk Density
NPHI .V/V                  :  Neutron porosity
DT   .US/F                 :  Sonic
~Parameter Information Block
#MNEM.UNIT            Value   Description
#---------- ----------------  -----------
PROJECT.            SANTAN_FE:  
~Other Information Block
# 
~A       DEPTH             GR             RT           RHOB           NPHI             DT 
# ...
       5166.00       113.5700         0.9900         2.3400       0.430000       130.7500
       5166.50       114.5100         0.9700         2.3500       0.430000       130.9000
       5167.00       118.7400         0.9500         2.3600       0.420000       130.9000
       5167.50       119.4700         0.9900         2.3500       0.410000       131.3500
       5168.00       121.1700         1.0000         2.3200       0.420000       131.3500
       5168.50       113.7400         1.0100         2.3100       0.420000       131.6000
       5169.00       115.9700         0.9500         2.3200       0.440000       131.8500
       5169.50       116.3300         0.9700         2.3200       0.430000       131.8500
       5170.00       117.1300         1.0500         2.3200       0.430000       131.9500
       5170.50       119.5800         1.0800         2.3200       0.430000       131.9000
       5171.00       118.5600         1.0200         2.3300       0.420000       132.9500
       5171.50       124.0700         0.9600         2.3300       0.410000       132.9000
       5172.00       118.2900         0.9900         2.3500       0.390000       131.9000
       5172.50       112.8000         1.1100         2.3500       0.370000       127.0000
       5173.00       101.8600         1.5000         2.3500       0.360000       119.3000
       5173.50        94.8200         1.7800         2.3500       0.350000       116.3500
       5174.00        93.5500         1.7900         2.3500       0.360000       113.5000
       5174.50        97.5900         1.2900         2.3200       0.380000       116.0000
       5175.00       100.8200         1.2100         2.2900       0.380000       121.1500
       5175.50        99.2900         1.1900         2.2900       0.380000       124.1500
       5176.00        95.8800         1.1200         2.2900       0.380000       125.1000
       5176.50        90.4800         1.1000         2.2900       0.400000       125.5000
       5177.00        86.4500         1.1200         2.2800       0.370000       121.9500
       5177.50        84.8500         1.2600         2.2800       0.360000       117.6500
       5178.00        85.4100         1.6600         2.2800       0.340000       116.9000
       5178.50        85.6200         1.6900         2.2800       0.370000       115.2000
       5179.00        84.4300         1.6100         2.2800       0.370000       115.2000
       5179.50        88.3400         1.3700         2.2700       0.370000       117.2000
       5180.00        91.1000         1.3800         2.2400       0.360000       117.3500
       5180.50        92.5600         1.4600         2.2100       0.380000       117.2000
       5181.00        90.2300         1.6500         2.2100       0.390000       117.8000
       5181.50        90.9500         1.4300         2.2400       0.390000       118.2000
       5182.00        94.6900         1.3900         2.2500       0.390000       118.8000
       5182.50        99.6200         1.3800         2.2600       0.400000       121.5500
       5183.00       101.7500         1.1800         2.2600       0.400000       123.0000
       5183.50        99.9200         1.1200         2.2600       0.390000       123.3000
       5184.00        96.9900         1.1400         2.2600       0.390000       120.3500
       5184.50        94.9900         1.2500         2.2600       0.370000       117.0000
       5185.00        90.8800         1.2900         2.2500       0.370000       116.4500
       5185.50        87.7000         1.6100         2.2200       0.360000       113.1000
       5186.00        88.3000         2.3900         2.1700       0.370000       110.0500
       5186.50        87.5800         1.8500         2.1500       0.390000       110.0000
       5187.00        88.0100         1.7700         2.1600       0.410000       109.6500
       5187.50        83.0100         1.4300         2.1600       0.400000       113.1000
       5188.00        85.2800         1.3800         2.1500       0.380000       117.4000
       5188.50        84.9000         1.5600         2.1500       0.360000       116.6000
       5189.00        88.6700         1.6200         2.1600       0.360000       114.9500
       5189.50        87.7700         1.4700         2.1700       0.370000       114.1000
       5190.00        88.5100         1.5100         2.1700       0.370000       115.4500
       5190.50        81.7200         1.6600         2.1600       0.400000       117.7000
       5191.00        85.1600         1.5900         2.1500       0.410000       120.7000
       5191.50        92.9400         1.3600         2.1300       0.410000       120.8000
       5192.00       104.6700         1.2800         2.1100       0.390000       124.9000
       5192.50       113.1800         1.2700         2.0800       0.380000       128.7000
       5193.00       117.9800         1.3200         2.0700       0.380000       125.0000
       5193.50       125.1900         1.3400         2.0800       0.390000       128.7000
       5194.00       129.8000         1.3100         2.1100       0.430000       127.0500
       5194.50       135.0200         1.1400         2.1300       0.450000       127.2000
       5195.00       136.1800         1.0600         2.1400       0.470000       122.0000
       5195.50       139.7400         1.0700         2.1900       0.430000       109.6500
       5196.00       136.2700         0.9200         2.3000       0.360000        91.4500
       5196.50       130.5300         1.5600         2.4500       0.260000        82.3500
       5197.00       116.9800         1.4300         2.4800       0.230000        81.3000
       5197.50       112.2500         1.5900         2.3800       0.270000        94.3000
       5198.00       108.4200         1.1400         2.2700       0.360000       118.2500
       5198.50       112.4300         0.8700         2.2200       0.380000       127.2000
       5199.00       112.0800         0.8700         2.2200       0.410000       127.1000
       5199.50       114.5600         0.9300         2.2300       0.400000       128.5000
       5200.00       107.8100         0.8600         2.2200       0.400000       127.3500
       5200.50       105.6700         0.9600         2.2100       0.390000       126.0000
       5201.00       101.0600         0.9700         2.1900       0.380000       124.2000
       5201.50        99.6900         0.9600         2.1900       0.390000       120.5500
       5202.00        99.9000         0.9800         2.1900       0.380000       113.7000
       5202.50       103.1000         0.8600         2.1900       0.390000       106.4500
       5203.00       106.7800         0.8700         2.1900       0.390000       105.6000
       5203.50       100.4400         0.9400         2.2000       0.410000       107.7500
       5204.00       103.4200         0.8800         2.1900       0.410000       116.5500
       5204.50       110.7100         0.8600         2.1900       0.400000       123.5000
       5205.00       116.6700         0.8100         2.1900       0.410000       125.4000
       5205.50       113.3300         0.9100         2.2300       0.410000       124.5500
       5206.00       103.6300         0.8900         2.2700       0.410000       123.1000
       5206.50        98.0200         0.8700         2.2700       0.400000       123.5500
       5207.00        92.6400         0.9700         2.2600       0.410000       123.7500
       5207.50        87.9700         0.9600         2.2400       0.420000       124.7000
       5208.00        82.9500         0.9600         2.2500       0.430000       123.5500
       5208.50        76.9800         1.0900         2.2700       0.380000       118.0000
       5209.00        68.1600         0.9300         2.3500       0.310000       107.0500
       5209.50        65.7000         2.2200         2.4200       0.230000        92.1000
       5210.00        75.4600         3.2800         2.3600       0.230000        84.4500
