~Version Information Block
VERS .                  2.0:  CWLS LOG ASCII STANDARD - VERSION 2.0
WRAP .                   NO:  One line per depth step
~Well Information Block
#MNEM.UNIT        Data Type   Information
#---------- ----------------  -----------
STRT .FT            4582.50:  START DEPTH
STOP .FT           10844.50:  STOP DEPTH
STEP .FT               0.50:  STEP
NULL .              -999.25:  NULL VALUE
COMP .                     :  COMPANY
WELL .               STA-34:  WELL
FLD  .                     :  FIELD
LOC  .                     :  LOCATION
CTRY .                     :  COUNTRY
STAT .                     :  STATE
CNTY .                     :  COUNTY
SRVC .                     :  SERVICE COMPANY
DATE .                     :  DATE
API  .                     :  API NUMBER
UWI  .                     :  UNIQUE WELL ID
~Curve Information Block
#MNEM.UNIT         API CODE   Curve Description
#---------- ----------------  -----------------
DEPTH.FT                   :  Depth
GR   .GAPI                 :  Gamma Ray
RT   .OHMM                 :  True Resistivity
RHOB .G/C3                 :  Bulk Density
NPHI .V/V                  :  Neutron Porosity
~Parameter Information Block
#MNEM.UNIT            Value   Description
#---------- ----------------  -----------
PROJECT.            SANTAN_FE:  
~Other Information Block
# 
~A       DEPTH             GR             RT           RHOB           NPHI 
# ...
       8274.00        75.6292         2.8381         2.5408       0.216400
       8274.50        83.0971         2.7312         2.5570       0.225400
       8275.00        85.4444         2.7573         2.5624       0.228500
       8275.50        81.6179         2.7950         2.5562       0.230500
       8276.00        79.2824         2.7957         2.5544       0.233700
       8276.50        78.4784         2.8043         2.5576       0.233000
       8277.00        79.9158         2.8121         2.5569       0.232400
       8277.50        81.0668         2.8069         2.5528       0.238000
       8278.00        82.6425         2.7222         2.5533       0.244400
       8278.50        85.8791         2.5245         2.5581       0.248500
       8279.00        87.7478         2.3910         2.5597       0.252500
       8279.50        90.8755         2.2908         2.5578       0.257300
       8280.00        91.5206         2.1714         2.5574       0.264700
       8280.50        92.3667         2.1158         2.5563       0.273300
       8281.00        92.2338         2.0532         2.5541       0.283600
       8281.50        97.9013         1.9391         2.5572       0.292800
       8282.00        97.8170         1.8835         2.5696       0.288100
       8282.50        92.0623         2.0367         2.5827       0.259400
       8283.00        79.7027         2.4869         2.5844       0.222900
       8283.50        71.0278         2.8570         2.5735       0.212000
       8284.00        77.6057         2.5689         2.5617       0.233500
       8284.50        88.4677         2.1684         2.5559       0.260100
       8285.00        91.9788         2.0119         2.5519       0.269100
       8285.50        91.2475         1.9615         2.5492       0.265800
       8286.00        88.9461         2.0232         2.5572       0.261200
       8286.50        85.7242         2.1718         2.5734       0.260800
       8287.00        87.9128         2.1914         2.5809       0.268500
       8287.50        90.3281         2.0885         2.5705       0.281500
       8288.00        89.5666         1.9659         2.5557       0.290500
       8288.50        92.5402         1.8664         2.5580       0.290000
       8289.00        94.0137         1.7841         2.5688       0.288000
       8289.50        93.0440         1.6760         2.5664       0.290700
       8290.00        94.1422         1.5829         2.5559       0.301100
       8290.50        95.3962         1.4782         2.5542       0.316500
       8291.00        99.3376         1.4285         2.5602       0.320900
       8291.50        96.2184         1.4863         2.5660       0.309400
       8292.00        98.4301         1.5857         2.5645       0.300300
       8292.50        97.8328         1.6325         2.5558       0.308400
       8293.00        99.6576         1.6287         2.5468       0.322900
       8293.50        98.7985         1.6134         2.5462       0.315900
       8294.00        92.5283         1.7107         2.5582       0.278300
       8294.50        78.5701         2.3368         2.5714       0.224900
       8295.00        51.4318         3.0357         2.5712       0.171500
       8295.50        44.1449         3.9615         2.5648       0.142400
       8296.00        47.6243         4.1592         2.5531       0.146600
       8296.50        48.5687         3.8761         2.5238       0.163800
       8297.00        45.0123         3.5777         2.4809       0.178500
       8297.50        33.7501         3.0928         2.4276       0.187500
       8298.00        28.0311         2.7300         2.3622       0.193800
       8298.50        23.9785         2.5838         2.3009       0.200000
       8299.00        27.6748         2.5422         2.2742       0.205500
       8299.50        30.8214         2.5485         2.2842       0.209800
       8300.00        33.3164         2.5866         2.3106       0.211000
       8300.50        37.0058         2.6716         2.3375       0.207300
       8301.00        35.4624         2.6703         2.3531       0.196900
       8301.50        37.7008         2.7078         2.3609       0.185300
       8302.00        39.7392         2.7082         2.3699       0.188200
       8302.50        36.8680         2.5744         2.3729       0.199600
       8303.00        34.1342         2.3525         2.3596       0.208000
       8303.50        33.5354         2.2157         2.3414       0.210300
       8304.00        33.6664         2.1483         2.3326       0.210600
       8304.50        34.7109         2.0652         2.3319       0.217100
       8305.00        37.4463         2.1328         2.3346       0.223400
       8305.50        41.3131         2.2853         2.3426       0.228100
       8306.00        44.4108         2.3733         2.3503       0.234700
       8306.50        45.5511         2.3926         2.3451       0.233300
       8307.00        47.7061         2.4219         2.3315       0.216400
       8307.50        46.2482         2.5486         2.3263       0.206200
       8308.00        42.9678         2.7633         2.3391       0.201900
       8308.50        43.0490         2.8573         2.3660       0.197500
       8309.00        44.9721         2.9066         2.3927       0.192400
       8309.50        44.4488         2.9531         2.4089       0.191700
       8310.00        42.4782         2.9642         2.4156       0.194100
       8310.50        41.9828         2.8214         2.4131       0.191800
       8311.00        42.5507         2.7064         2.4022       0.186100
       8311.50        45.4604         2.8766         2.4004       0.187700
       8312.00        41.8290         3.0416         2.4055       0.199900
       8312.50        36.1730         2.7764         2.3982       0.218400
       8313.00        28.8401         2.4054         2.3488       0.235600
       8313.50        25.0288         2.2979         2.2755       0.254300
       8314.00        32.3114         2.1267         2.2462       0.274200
       8314.50        58.2969         2.1158         2.2906       0.283600
       8315.00        82.3008         2.1497         2.3952       0.283200
       8315.50        93.7749         2.0779         2.4950       0.277400
       8316.00        91.5171         2.0681         2.5432       0.265800
       8316.50        92.2321         2.1495         2.5493       0.250600
       8317.00        86.4746         2.2645         2.5510       0.237000
       8317.50        85.3008         2.2663         2.5534       0.238200
       8318.00        89.1795         2.0431         2.5577       0.259600
       8318.50        92.9209         1.8503         2.5657       0.284700
       8319.00        95.7449         1.7785         2.5763       0.291900
       8319.50        97.9286         1.8541         2.5856       0.276100
       8320.00        92.0857         1.9686         2.5908       0.258400
       8320.50        91.6957         2.0567         2.5921       0.250700
       8321.00        83.4374         2.3115         2.5852       0.237000
       8321.50        71.8580         2.7162         2.5665       0.209000
       8322.00        63.0256         2.9420         2.5410       0.187200
       8322.50        62.4399         2.9528         2.5166       0.186000
       8323.00        62.5046         2.8587         2.5092       0.201000
       8323.50        67.7388         2.7025         2.5206       0.218000
       8324.00        76.5592         2.4826         2.5361       0.229600
       8324.50        86.1283         2.2631         2.5455       0.245400
       8325.00       101.4870         2.0671         2.5464       0.268200
       8325.50       104.4615         1.9578         2.5463       0.286500
       8326.00       104.8954         1.9716         2.5448       0.296800
       8326.50       100.6204         2.1250         2.5418       0.294900
       8327.00        90.3154         2.3838         2.5439       0.270800
