~Version Information Block
VERS .                  2.0:  CWLS LOG ASCII STANDARD - VERSION 2.0
WRAP .                   NO:  One line per depth step
~Well Information Block
#MNEM.UNIT        Data Type   Information
#---------- ----------------  -----------
STRT .FT            5000.50:  START DEPTH
STOP .FT           14504.00:  STOP DEPTH
STEP .FT               0.50:  STEP
NULL .              -999.25:  NULL VALUE
COMP .                     :  COMPANY
WELL .               STA-18:  WELL
FLD  .                     :  FIELD
LOC  .                     :  LOCATION
CTRY .                     :  COUNTRY
STAT .                     :  STATE
CNTY .                     :  COUNTY
SRVC .                     :  SERVICE COMPANY
DATE .                     :  DATE
API  .                     :  API NUMBER
UWI  .                     :  UNIQUE WELL ID
~Curve Information Block
#MNEM.UNIT         API CODE   Curve Description
#---------- ----------------  -----------------
DEPTH.FT                   :  DEPTH
GR   .GAPI                 :  Gamma Ray
RT   .OHMM                 :  SEDP
RHOB .G/C3                 :  Bulk Density
NPHI .V/V                  :  Neutron porosity
~Parameter Information Block
#MNEM.UNIT            Value   Description
#---------- ----------------  -----------
PROJECT.            SANTAN_FE:  
~Other Information Block
# 
~A       DEPTH             GR             RT           RHOB           NPHI 
# ...
      14470.00       119.4700         3.1300         2.5798       0.205900
      14470.50       117.9200         3.0700         2.5800    -999.250000
      14471.00       114.8000         3.0300         2.5898    -999.250000
      14471.50       114.5900         2.9800         2.5900    -999.250000
      14472.00       113.1900         2.9000         2.5998    -999.250000
      14472.50       120.0200         2.8200         2.5902    -999.250000
      14473.00       120.4600         2.7800         2.5900    -999.250000
      14473.50       116.9400         2.7200         2.5998    -999.250000
      14474.00       117.1400         2.7100         2.6000    -999.250000
      14474.50       112.6700         2.7500         2.5902    -999.250000
      14475.00       120.0900         2.8400         2.5998    -999.250000
      14475.50       119.8200         2.9400         2.6098    -999.250000
      14476.00       115.5500         2.9700         2.6002    -999.250000
      14476.50       118.5800         2.9800         2.5803    -999.250000
      14477.00       118.3800         2.9300         2.5800    -999.250000
      14477.50       111.2800         2.8100         2.5800    -999.250000
      14478.00       100.2400         2.7900         2.5800    -999.250000
      14478.50       110.6600         2.8700         2.5898    -999.250000
      14479.00       117.8500         3.1000         2.5900    -999.250000
      14479.50       112.4400         3.2600         2.5998    -999.250000
      14480.00       112.0300         3.3300         2.5803    -999.250000
      14480.50       110.7000         3.3300         2.5997    -999.250000
      14481.00       114.8700         3.3200         2.6000    -999.250000
      14481.50       110.5100         3.2800         2.6000    -999.250000
      14482.00       110.2300         3.2100         2.5902    -999.250000
      14482.50       110.6300         3.1900         2.5900    -999.250000
      14483.00       111.0400         3.2300         2.5998    -999.250000
      14483.50       107.6700         3.3300         2.6295    -999.250000
      14484.00       100.0400         3.2800         2.6398    -999.250000
      14484.50       107.6900         3.2300         2.6498    -999.250000
      14485.00       103.6400         3.2800         2.6500    -999.250000
      14485.50       100.4700         3.3500         2.6500    -999.250000
      14486.00       119.8700         3.3100      -999.2500    -999.250000
      14486.50       126.6400         3.2200      -999.2500    -999.250000
      14487.00       124.7500         3.1300      -999.2500    -999.250000
      14487.50       118.2600         3.0900      -999.2500    -999.250000
      14488.00       111.4900         3.0900      -999.2500    -999.250000
      14488.50       111.1500         3.1800      -999.2500    -999.250000
      14489.00       105.0100         3.3300      -999.2500    -999.250000
      14489.50       109.0300         3.4400      -999.2500    -999.250000
      14490.00       108.3300         3.4900      -999.2500    -999.250000
      14490.50       109.8900         3.5200      -999.2500    -999.250000
      14491.00       105.9400         3.6200      -999.2500    -999.250000
      14491.50       104.7600         3.7300      -999.2500    -999.250000
      14492.00       104.1800         3.7500      -999.2500    -999.250000
      14492.50       110.0200         3.7400      -999.2500    -999.250000
      14493.00       117.3300         3.6700      -999.2500    -999.250000
      14493.50       115.1300         3.5700      -999.2500    -999.250000
      14494.00       108.1000         3.4300      -999.2500    -999.250000
      14494.50        99.2800         3.3800      -999.2500    -999.250000
      14495.00       107.5100         3.4000      -999.2500    -999.250000
      14495.50       111.5100         3.5600      -999.2500    -999.250000
      14496.00       104.8300         3.6700      -999.2500    -999.250000
      14496.50       102.9500         3.5900      -999.2500    -999.250000
      14497.00       103.7200         3.4800      -999.2500    -999.250000
      14497.50       104.5700         3.4400      -999.2500    -999.250000
      14498.00       104.7800         3.4600      -999.2500    -999.250000
      14498.50       104.8200         3.4900      -999.2500    -999.250000
      14499.00        97.3100         3.5000      -999.2500    -999.250000
      14499.50      -999.2500         3.4500      -999.2500    -999.250000
      14500.00      -999.2500         3.4300      -999.2500    -999.250000
      14500.50      -999.2500         3.4400      -999.2500    -999.250000
      14501.00      -999.2500         3.4300      -999.2500    -999.250000
      14501.50      -999.2500         3.3800      -999.2500    -999.250000
      14502.00      -999.2500         3.3000      -999.2500    -999.250000
      14502.50      -999.2500         3.2000      -999.2500    -999.250000
      14503.00      -999.2500         3.1000      -999.2500    -999.250000
      14503.50      -999.2500         3.0400      -999.2500    -999.250000
      14504.00      -999.2500         3.0300      -999.2500    -999.250000
