~Version Information Block
VERS .                  2.0:  CWLS LOG ASCII STANDARD - VERSION 2.0
WRAP .                   NO:  One line per depth step
~Well Information Block
#MNEM.UNIT        Data Type   Information
#---------- ----------------  -----------
STRT .FT            5224.50:  START DEPTH
STOP .FT           13237.50:  STOP DEPTH
STEP .FT               0.50:  STEP
NULL .              -999.25:  NULL VALUE
COMP .                     :  COMPANY
WELL .               STA-32:  WELL
FLD  .                     :  FIELD
LOC  .                     :  LOCATION
CTRY .                     :  COUNTRY
STAT .                     :  STATE
CNTY .                     :  COUNTY
SRVC .                     :  SERVICE COMPANY
DATE .                     :  DATE
API  .                     :  API NUMBER
UWI  .                     :  UNIQUE WELL ID
~Curve Information Block
#MNEM.UNIT         API CODE   Curve Description
#---------- ----------------  -----------------
DEPTH.FT                   :  Depth
GR   .GAPI                 :  Gamma Ray
RT   .OHMM                 :  True Resistivity
RHOB .G/C3                 :  Bulk Density
NPHI .V/V                  :  Neutron Porosity
~Parameter Information Block
#MNEM.UNIT            Value   Description
#---------- ----------------  -----------
PROJECT.            SANTAN_FE:  
~Other Information Block
# 
~A       DEPTH             GR             RT           RHOB           NPHI 
# ...
      12072.50        79.3417         3.0490         2.5815       0.144400
      12073.00        81.3969         2.9717         2.5772       0.151300
      12073.50        80.6528         2.9057         2.5730       0.156600
      12074.00        83.5685         2.8557         2.5697       0.156300
      12074.50        84.5327         2.8643         2.5781       0.153300
      12075.00        79.3368         2.9248         2.5976       0.153200
      12075.50        77.1811         2.9188         2.6035       0.157600
      12076.00        78.7539         2.7766         2.5819       0.163000
      12076.50        82.7083         2.6643         2.5594       0.164600
      12077.00        85.3629         2.5793         2.5600       0.165300
      12077.50        90.8553         2.5230         2.5737       0.166900
      12078.00        85.7158         2.4730         2.5771       0.167500
      12078.50        86.2265         2.4826         2.5684       0.169100
      12079.00        86.0062         2.4923         2.5628       0.170000
      12079.50        84.4709         2.5186         2.5724       0.165400
      12080.00        83.3890         2.5714         2.5876       0.158600
      12080.50        80.9063         2.6459         2.5949       0.154600
      12081.00        74.1155         2.7480         2.5961       0.153600
      12081.50        72.6649         2.8333         2.5942       0.153300
      12082.00        71.7870         2.8274         2.5901       0.152900
      12082.50        64.6194         2.8279         2.5797       0.152800
      12083.00        60.2304         2.8051         2.5592       0.152300
      12083.50        56.0932         2.7890         2.5388       0.152500
      12084.00        55.4689         2.7915         2.5241       0.154400
      12084.50        50.3351         2.7777         2.5057       0.157900
      12085.00        48.0796         2.7737         2.4740       0.160400
      12085.50        44.5439         2.7808         2.4431       0.160300
      12086.00        44.4857         2.8004         2.4305       0.158300
      12086.50        42.7328         2.8652         2.4389       0.153100
      12087.00        44.6683         2.9159         2.4505       0.148700
      12087.50        46.0772         2.9491         2.4462       0.149100
      12088.00        46.3435         3.0326         2.4432       0.151600
      12088.50        46.9995         3.1064         2.4559       0.155700
      12089.00        49.5105         3.1944         2.4707       0.158200
      12089.50        48.2247         3.3188         2.4826       0.155800
      12090.00        49.2219         3.3802         2.4993       0.153200
      12090.50        52.7114         3.3248         2.5165       0.153200
      12091.00        63.0647         3.1788         2.5219       0.152600
      12091.50        69.0953         3.1109         2.5194       0.151900
      12092.00        74.5982         3.0172         2.5248       0.152800
      12092.50        72.3252         2.9522         2.5336       0.155100
      12093.00        75.3144         2.9556         2.5402       0.158600
      12093.50        69.7312         2.9929         2.5375       0.161400
      12094.00        63.6356         3.0674         2.5234       0.160900
      12094.50        61.1397         3.0848         2.5125       0.156200
      12095.00        57.6024         3.1306         2.5130       0.150100
      12095.50        56.6903         3.2964         2.5244       0.145000
      12096.00        54.3536         3.4921         2.5391       0.140900
      12096.50        54.0604         3.6032         2.5493       0.140100
      12097.00        57.8306         3.5774         2.5465       0.142200
      12097.50        53.8610         3.5743         2.5410       0.141600
      12098.00        48.7039         3.6334         2.5437       0.136800
      12098.50        48.6259         4.1017         2.5536       0.130200
      12099.00        47.0092         4.1959         2.5647       0.125200
      12099.50        45.0559         4.3176         2.5657       0.124000
      12100.00        46.8278         4.2653         2.5624       0.128100
      12100.50        50.7820         3.9545         2.5629       0.136800
      12101.00        60.8428         3.5502         2.5565       0.148100
      12101.50        68.0929         3.2091         2.5412       0.159800
      12102.00        71.8558         3.0825         2.5328       0.166400
      12102.50        76.2359         2.9597         2.5372       0.166000
      12103.00        75.1048         2.8739         2.5402       0.163300
      12103.50        77.9473         2.8966         2.5342       0.160900
      12104.00        73.0749         2.9833         2.5312       0.158200
      12104.50        71.6470         3.1235         2.5332       0.154700
      12105.00        65.7844         3.1849         2.5371       0.148500
      12105.50        62.1937         3.2851         2.5469       0.140300
      12106.00        60.2879         3.4591         2.5537       0.136000
      12106.50        56.6941         3.6226         2.5458       0.138400
      12107.00        55.9425         3.5666         2.5260       0.142600
      12107.50        55.8114         3.5666         2.5098       0.144000
      12108.00        57.7277         3.6039         2.5107       0.143000
      12108.50        57.4462         3.6681         2.5210       0.138500
      12109.00        56.8293         3.6987         2.5299       0.130100
      12109.50        53.7029         3.8578         2.5454       0.119600
      12110.00        49.6434         4.0163         2.5739       0.109600
      12110.50        50.0082         4.3170         2.5974       0.107300
      12111.00        52.8940         4.1428         2.5916       0.117300
      12111.50        61.2675         3.7817         2.5651       0.129700
      12112.00        63.5928         3.5138         2.5422       0.136100
      12112.50        66.4814         3.3296         2.5316       0.138600
      12113.00        66.9637         3.2206         2.5332       0.142700
      12113.50        71.8198         3.0828         2.5385       0.149100
      12114.00        74.2074         2.9570         2.5416       0.154900
      12114.50        78.1913         2.8762         2.5445       0.159300
      12115.00        81.6060         2.8133         2.5450       0.164300
      12115.50        82.4562         2.8329         2.5422       0.164700
      12116.00        85.3391         2.9231         2.5437       0.156700
      12116.50        79.6236         3.1018         2.5502       0.144900
      12117.00        75.2310         3.3053         2.5614       0.132600
      12117.50        66.5575         3.5226         2.5768       0.126600
      12118.00        65.6997         3.5494         2.5842       0.130400
      12118.50        67.4329         3.4647         2.5831       0.137100
      12119.00        68.2842         3.4169         2.5875       0.138900
      12119.50        65.5616         3.5369         2.5868       0.135500
      12120.00        56.2768         3.7144         2.5794       0.125100
      12120.50        52.7674         3.9472         2.5841       0.111100
      12121.00        53.7235         4.0407         2.5907       0.103200
      12121.50        51.9105         4.0685         2.5824       0.108900
      12122.00        62.1300         4.0887         2.5694       0.125800
      12122.50        78.1318         3.7057         2.5598       0.144100
      12123.00        83.0073         3.1921         2.5536       0.154000
      12123.50        86.5751         2.9330         2.5516       0.157800
      12124.00        85.0670         2.8413         2.5494       0.157400
      12124.50        82.4812         2.9582         2.5439       0.155100
      12125.00        74.9750         2.9768         2.5422       0.156400
      12125.50        73.9431         2.9319         2.5454       0.159700
