~Version Information Block
VERS .                  2.0:  CWLS LOG ASCII STANDARD - VERSION 2.0
WRAP .                   NO:  One line per depth step
~Well Information Block
#MNEM.UNIT        Data Type   Information
#---------- ----------------  -----------
STRT .FT            4582.50:  START DEPTH
STOP .FT           10844.50:  STOP DEPTH
STEP .FT               0.50:  STEP
NULL .              -999.25:  NULL VALUE
COMP .                     :  COMPANY
WELL .               STA-34:  WELL
FLD  .                     :  FIELD
LOC  .                     :  LOCATION
CTRY .                     :  COUNTRY
STAT .                     :  STATE
CNTY .                     :  COUNTY
SRVC .                     :  SERVICE COMPANY
DATE .                     :  DATE
API  .                     :  API NUMBER
UWI  .                     :  UNIQUE WELL ID
~Curve Information Block
#MNEM.UNIT         API CODE   Curve Description
#---------- ----------------  -----------------
DEPTH.FT                   :  Depth
GR   .GAPI                 :  Gamma Ray
RT   .OHMM                 :  True Resistivity
RHOB .G/C3                 :  Bulk Density
NPHI .V/V                  :  Neutron Porosity
~Parameter Information Block
#MNEM.UNIT            Value   Description
#---------- ----------------  -----------
PROJECT.            SANTAN_FE:  
~Other Information Block
# 
~A       DEPTH             GR             RT           RHOB           NPHI 
# ...
      10788.50        63.8747         5.5070         2.5553       0.123300
      10789.00        63.6920         5.7254         2.5692       0.121200
      10789.50        66.5833         5.5400         2.5781       0.124800
      10790.00        67.4919         5.2444         2.5833       0.128400
      10790.50        70.6713         5.0408         2.5899       0.129800
      10791.00        73.4272         4.9173         2.5949       0.129600
      10791.50        75.4159         4.8868         2.5961       0.129000
      10792.00        72.5611         4.9210         2.5902       0.128400
      10792.50        68.6395         4.9905         2.5783       0.127900
      10793.00        65.2864         5.0168         2.5695       0.128400
      10793.50        64.2104         5.0156         2.5602       0.130500
      10794.00        64.1550         5.1184         2.5455       0.134100
      10794.50        62.2267         5.2749         2.5261       0.138300
      10795.00        64.5695         5.3967         2.5061       0.140700
      10795.50        69.4171         5.3984         2.4983       0.140600
      10796.00        72.6930         5.3834         2.5006       0.137800
      10796.50        76.9066         5.2238         2.5063       0.134000
      10797.00        82.1422         4.9595         2.5205       0.133100
      10797.50        84.7990         4.7672         2.5480       0.135900
      10798.00        84.9381         4.5930         2.5868       0.138500
      10798.50        89.2501         4.3574         2.6088       0.139200
      10799.00        91.3182         4.2057         2.6190    -999.250000
      10799.50        90.7784         4.1466         2.6275    -999.250000
      10800.00        89.7374         4.0965         2.6315    -999.250000
      10800.50        95.7018         4.0768         2.6335    -999.250000
      10801.00        94.1428         4.0126         2.6397    -999.250000
      10801.50        91.0890         3.9485         2.6425    -999.250000
      10802.00        88.5913         4.1208         2.6350    -999.250000
      10802.50        85.4787         4.1518         2.6287    -999.250000
      10803.00        79.6667         4.6065         2.6293    -999.250000
      10803.50        72.7841         4.7206         2.6168    -999.250000
      10804.00        66.0849         4.8792         2.5902    -999.250000
      10804.50        63.7683         5.1041         2.5720    -999.250000
      10805.00        61.1672         5.5898         2.5680    -999.250000
      10805.50        59.5478         6.3858         2.5791    -999.250000
      10806.00        54.9881         7.2851         2.6074    -999.250000
      10806.50        49.7357         7.4996         2.6167    -999.250000
      10807.00        47.5776         6.8808         2.5953    -999.250000
      10807.50        48.5740         6.3512      -999.2500    -999.250000
      10808.00        50.9374         6.1486      -999.2500    -999.250000
      10808.50        52.4944         5.9875      -999.2500    -999.250000
      10809.00        51.7855         6.2408      -999.2500    -999.250000
      10809.50        50.3000         6.2903      -999.2500    -999.250000
      10810.00        52.5360         6.1356      -999.2500    -999.250000
      10810.50        53.1785         5.9149      -999.2500    -999.250000
      10811.00        54.4984         5.7476      -999.2500    -999.250000
      10811.50        51.3973         5.5385      -999.2500    -999.250000
      10812.00        49.4192         5.6753      -999.2500    -999.250000
      10812.50        49.5317         5.7473      -999.2500    -999.250000
      10813.00        51.1971         5.3935      -999.2500    -999.250000
      10813.50        48.2198         5.1644      -999.2500    -999.250000
      10814.00        48.0741         5.0560      -999.2500    -999.250000
      10814.50        54.0391         4.9564      -999.2500    -999.250000
      10815.00        54.6600         4.8893      -999.2500    -999.250000
      10815.50        57.2112         4.8700      -999.2500    -999.250000
      10816.00        58.2725         4.8633      -999.2500    -999.250000
      10816.50        62.6734         4.9088      -999.2500    -999.250000
      10817.00        65.7792         5.0538      -999.2500    -999.250000
      10817.50        68.1365         5.2087      -999.2500    -999.250000
      10818.00        65.8585         5.3139      -999.2500    -999.250000
      10818.50        60.4779         5.4404      -999.2500    -999.250000
      10819.00        54.2528         5.7041      -999.2500    -999.250000
      10819.50        54.1270         6.0348      -999.2500    -999.250000
      10820.00        54.0757         6.2061      -999.2500    -999.250000
      10820.50        54.2785         6.1273      -999.2500    -999.250000
      10821.00        54.3817         5.9389      -999.2500    -999.250000
      10821.50        54.0534         5.7123      -999.2500    -999.250000
      10822.00        51.9370         5.5327      -999.2500    -999.250000
      10822.50        53.1596         5.3714      -999.2500    -999.250000
      10823.00        60.2098         5.2175      -999.2500    -999.250000
      10823.50        66.5392         5.1340      -999.2500    -999.250000
      10824.00        69.5057         5.1599      -999.2500    -999.250000
      10824.50        67.8546         5.4406      -999.2500    -999.250000
      10825.00        58.8359         6.2414      -999.2500    -999.250000
      10825.50        50.7322         6.7762      -999.2500    -999.250000
      10826.00        43.9848         7.4579      -999.2500    -999.250000
      10826.50        41.8815         7.7635      -999.2500    -999.250000
      10827.00        45.7539         7.5982      -999.2500    -999.250000
      10827.50        48.8367         7.6124      -999.2500    -999.250000
      10828.00        59.5957         7.3634      -999.2500    -999.250000
      10828.50        73.4106         7.1825      -999.2500    -999.250000
      10829.00        74.6298         5.5771      -999.2500    -999.250000
      10829.50        67.9527         5.8926      -999.2500    -999.250000
      10830.00        50.7627         6.8408      -999.2500    -999.250000
      10830.50        40.1283         7.3926      -999.2500    -999.250000
      10831.00        39.4194         7.4580      -999.2500    -999.250000
      10831.50        45.0850         6.7928      -999.2500    -999.250000
      10832.00        58.7101         6.0251      -999.2500    -999.250000
      10832.50        65.1326         5.8418      -999.2500    -999.250000
      10833.00        63.1060         5.8480      -999.2500    -999.250000
      10833.50        62.3313         5.9775      -999.2500    -999.250000
      10834.00        57.4377         6.2113      -999.2500    -999.250000
      10834.50        52.5473         6.4678      -999.2500    -999.250000
      10835.00        50.9632         6.6952      -999.2500    -999.250000
      10835.50        53.6133         7.2565      -999.2500    -999.250000
      10836.00        52.1832         7.3870      -999.2500    -999.250000
      10836.50        47.3007         7.1051      -999.2500    -999.250000
      10837.00        49.6828         6.6803      -999.2500    -999.250000
      10837.50        56.8457         6.4000      -999.2500    -999.250000
      10838.00        64.3420      -999.2500      -999.2500    -999.250000
      10838.50        57.4269      -999.2500      -999.2500    -999.250000
      10839.00        43.8101      -999.2500      -999.2500    -999.250000
      10839.50        42.6882      -999.2500      -999.2500    -999.250000
      10840.00        51.7680      -999.2500      -999.2500    -999.250000
      10840.50        52.1880      -999.2500      -999.2500    -999.250000
      10841.00        47.8311      -999.2500      -999.2500    -999.250000
      10841.50        47.4965      -999.2500      -999.2500    -999.250000
