~Version Information Block
VERS .                  2.0:  CWLS LOG ASCII STANDARD - VERSION 2.0
WRAP .                   NO:  One line per depth step
~Well Information Block
#MNEM.UNIT        Data Type   Information
#---------- ----------------  -----------
STRT .FT             728.00:  START DEPTH
STOP .FT           10480.50:  STOP DEPTH
STEP .FT               0.50:  STEP
NULL .              -999.25:  NULL VALUE
COMP .                     :  COMPANY
WELL .               STA-21:  WELL
FLD  .                     :  FIELD
LOC  .                     :  LOCATION
CTRY .                     :  COUNTRY
STAT .                     :  STATE
CNTY .                     :  COUNTY
SRVC .                     :  SERVICE COMPANY
DATE .                     :  DATE
API  .                     :  API NUMBER
UWI  .                     :  UNIQUE WELL ID
~Curve Information Block
#MNEM.UNIT         API CODE   Curve Description
#---------- ----------------  -----------------
DEPTH.FT                   :  DEPTH
GR   .GAPI                 :  Gamma Ray
RT   .OHMM                 :  RESDE
RHOB .G/C3                 :  Bulk Density
NPHI .V/V                  :  Thermal Neutron Porosity (Ratio Method) in Selected Lithology
~Parameter Information Block
#MNEM.UNIT            Value   Description
#---------- ----------------  -----------
PROJECT.            SANTAN_FE:  
~Other Information Block
# 
~A       DEPTH             GR             RT           RHOB           NPHI 
# ...
       3349.50        75.7800         1.9811         2.0634         0.4780
       3350.00        72.8300         1.9635         2.0686         0.4837
       3350.50        70.8600         1.9257         2.0539         0.4954
       3351.00        68.4800         1.8785         2.0386         0.4954
       3351.50        66.1100         1.8420         2.0378         0.4801
       3352.00        63.3500         1.8326         2.0531         0.4582
       3352.50        60.6200         1.8413         2.0713         0.4485
       3353.00        56.9200         1.8475         2.0881         0.4541
       3353.50        54.3400         1.8427         2.0964         0.4771
       3354.00        52.4500         1.8375         2.1006         0.4956
       3354.50        50.2200         1.8468         2.1058         0.5020
       3355.00        47.7500         1.8632         2.1092         0.4843
       3355.50        46.2100         1.8711         2.1082         0.4412
       3356.00        45.9800         1.8714         2.1130         0.4004
       3356.50        47.0400         1.8764         2.1290         0.3882
       3357.00        48.0900         1.8976         2.1410         0.3922
       3357.50        50.9200         1.9150         2.1435         0.4044
       3358.00        54.0500         1.9030         2.1378         0.4074
       3358.50        57.1800         1.8664         2.1251         0.4026
       3359.00        60.2600         1.8069         2.1167         0.4074
       3359.50        62.0000         1.7342         2.1049         0.4371
       3360.00        63.7000         1.6859         2.0907         0.4599
       3360.50        62.8600         1.6576         2.0771         0.4589
       3361.00        62.0100         1.6177         2.0725         0.4221
       3361.50        60.0800         1.5698         2.0771         0.3883
       3362.00        57.0900         1.5351         2.0778         0.3780
       3362.50        52.3800         1.5194         2.0836         0.3800
       3363.00        46.4100         1.5160         2.1093         0.3785
       3363.50        41.9300         1.5395         2.1525         0.3750
       3364.00        40.7300         1.5573         2.1767         0.3801
       3364.50        45.1100         1.5750         2.1811         0.3887
       3365.00        60.2300         1.5784         2.1819         0.3874
       3365.50        76.0600         1.5921         2.1839         0.3821
       3366.00        89.1400         1.6069         2.1800         0.3784
       3366.50        91.8400         1.6156         2.1800         0.3741
       3367.00        93.4000         1.6232         2.1672         0.3780
       3367.50        95.3800         1.6135         2.1453         0.4075
       3368.00        96.9600         1.5929         2.1191         0.4444
       3368.50        96.3500         1.5639         2.0944         0.4581
       3369.00        94.9400         1.5510         2.0768         0.4483
       3369.50        90.9900         1.5517         2.0705         0.4283
       3370.00        88.0200         1.5348         2.0719         0.4012
       3370.50        85.4800         1.5195         2.0756         0.3776
       3371.00        85.5700         1.5050         2.0817         0.3716
       3371.50        88.0500         1.5008         2.0934         0.3969
       3372.00        90.6400         1.4721         2.1098         0.4463
       3372.50        95.2400         1.4370         2.1259         0.4962
       3373.00        98.4200         1.4162         2.1367         0.5380
       3373.50       101.5800         1.4063         2.1414         0.5640
       3374.00       100.8900         1.3986         2.1369         0.5671
       3374.50       100.3500         1.4109         2.1214         0.5580
       3375.00       100.8400         1.4440         2.1000         0.5466
       3375.50       103.9700         1.4598         2.0872         0.5363
       3376.00       105.1700         1.4572         2.0794         0.5350
       3376.50       104.0300         1.4524         2.0778         0.5406
       3377.00       103.3500         1.4504         2.0744         0.5543
       3377.50       104.6700         1.4600         2.0672         0.5647
       3378.00       106.0400         1.4603         2.0622         0.5666
       3378.50       103.5200         1.4749         2.0572         0.5465
       3379.00        97.1300         1.4675         2.0564         0.5071
       3379.50        89.6100         1.4700         2.0645         0.4712
       3380.00        85.0800         1.4504         2.0867         0.4479
       3380.50        82.4600         1.4233         2.1125         0.4474
       3381.00        80.7800         1.4129         2.1253         0.4535
       3381.50        79.2500         1.4030         2.1219         0.4660
       3382.00        77.1100         1.4072         2.1105         0.4692
       3382.50        74.8400         1.4098         2.1022         0.4572
       3383.00        71.7700         1.4215         2.1014         0.4333
       3383.50        71.3100         1.4180         2.1066         0.4233
       3384.00        72.3700         1.4265         2.1168         0.4385
       3384.50        73.6400         1.4519         2.1292         0.4636
       3385.00        73.0800         1.4747         2.1390         0.4758
       3385.50        72.7900         1.4797         2.1425         0.4674
       3386.00        73.3200         1.4736         2.1464         0.4481
       3386.50        73.5700         1.4767         2.1500         0.4450
       3387.00        73.3000         1.4817         2.1512         0.4678
       3387.50        72.6000         1.4907         2.1513         0.4983
       3388.00        73.8200         1.4905         2.1512         0.5098
       3388.50        74.8000         1.4900         2.1561         0.5101
       3389.00        77.6300         1.4920         2.1635         0.5182
       3389.50        79.4900         1.4964         2.1687         0.5333
       3390.00        81.8200         1.5091         2.1700         0.5411
       3390.50        82.3000         1.5315         2.1711         0.5276
       3391.00        81.5700         1.5394         2.1769         0.5134
       3391.50        80.3700         1.5363         2.1890         0.5139
       3392.00        80.0000         1.5332         2.2028         0.5409
       3392.50        80.8300         1.5451         2.2132         0.5627
       3393.00        82.3800         1.5641         2.2196         0.5605
       3393.50        83.0500         1.5787         2.2225         0.5421
       3394.00        83.7300         1.5859         2.2225         0.5213
       3394.50        83.3500         1.5875         2.2225         0.4922
       3395.00        83.0100         1.5892         2.2263         0.4701
       3395.50        82.2300         1.5933         2.2372         0.4650
       3396.00        83.3500         1.5821         2.2478         0.4754
       3396.50        84.4700         1.5433         2.2525         0.4708
       3397.00        86.9500         1.5125         2.2516         0.4596
       3397.50        88.0900         1.5172         2.2465         0.4512
       3398.00        89.2300         1.5431         2.2392         0.4744
       3398.50        89.7400         1.5668         2.2358         0.4775
       3399.00        89.6800         1.5808         2.2309         0.4628
       3399.50        89.6200         1.6007         2.2227         0.4527
       3400.00        90.3900         1.6349         2.2125         0.4571
       3400.50        92.0700         1.6649         2.2163         0.4528
       3401.00        93.4100         1.6831         2.2272         0.4572
       3401.50        93.6200         1.7085         2.2311         0.4697
       3402.00        93.3100         1.7483         2.2240         0.4755
       3402.50        92.3300         1.7954         2.2143         0.4684
