~Version Information Block
VERS .                  2.0:  CWLS LOG ASCII STANDARD - VERSION 2.0
WRAP .                   NO:  One line per depth step
~Well Information Block
#MNEM.UNIT        Data Type   Information
#---------- ----------------  -----------
STRT .FT            3742.00:  START DEPTH
STOP .FT            8440.00:  STOP DEPTH
STEP .FT               0.50:  STEP
NULL .              -999.25:  NULL VALUE
COMP .                     :  COMPANY
WELL .                STA-2:  WELL
FLD  .                     :  FIELD
LOC  .                     :  LOCATION
CTRY .                     :  COUNTRY
STAT .                     :  STATE
CNTY .                     :  COUNTY
SRVC .                     :  SERVICE COMPANY
DATE .                     :  DATE
API  .                     :  API NUMBER
UWI  .                     :  UNIQUE WELL ID
~Curve Information Block
#MNEM.UNIT         API CODE   Curve Description
#---------- ----------------  -----------------
DEPTH.FT                   :  DEPTH
GR   .GAPI                 :  Gamma Ray
RT   .OHMM                 :  Deep resistivity
RHOB .G/C3                 :  Bulk Density
NPHI .V/V                  :  Neutron porosity
DT   .US/F                 :  Sonic
~Parameter Information Block
#MNEM.UNIT            Value   Description
#---------- ----------------  -----------
PROJECT.            SANTAN_FE:  
~Other Information Block
# 
~A       DEPTH             GR             RT           RHOB           NPHI             DT 
# ...
       7168.50       101.1700         2.3300         2.4700       0.260000        98.3000
       7169.00       103.0400         2.1000         2.4800       0.260000        98.3000
       7169.50        99.0300         2.3800         2.4900       0.250000        98.1500
       7170.00        97.2300         2.4700         2.5000       0.250000        95.8000
       7170.50        96.5600         2.4900         2.5100       0.260000        94.3000
       7171.00        97.8700         2.4100         2.5100       0.260000        94.0000
       7171.50        98.5700         2.2800         2.5200       0.250000        93.8500
       7172.00        99.6300         2.1400         2.5100       0.260000        94.8000
       7172.50       103.5100         2.0200         2.5100       0.260000        95.8000
       7173.00       107.4100         1.9600         2.5100       0.280000        97.0000
       7173.50       113.5700         1.9100         2.5200       0.270000        97.4000
       7174.00       114.2600         1.8700         2.5100       0.270000        97.5000
       7174.50       111.0500         1.8600         2.5100       0.280000        97.2000
       7175.00       103.5400         1.9200         2.5200       0.290000        95.5000
       7175.50        91.3900         2.1500         2.5500       0.280000        88.3000
       7176.00        80.5200         3.5000         2.6300       0.230000        80.5000
       7176.50        69.4000         6.7800         2.6900       0.160000        73.4500
       7177.00        65.5100        11.3200         2.7100       0.120000        62.3000
       7177.50        62.6900        10.0200         2.6400       0.120000        67.8000
       7178.00        66.0300         4.6600         2.5200       0.140000        70.6000
       7178.50        62.2700         3.4700         2.4000       0.150000        80.6000
       7179.00        57.7200         6.8300         2.2900       0.160000        91.3500
       7179.50        51.4300         9.9200         2.2300       0.180000        94.0000
       7180.00        52.2000         9.5600         2.2300       0.200000        94.7000
       7180.50        54.8800         6.1600         2.2600       0.210000        92.7000
       7181.00        57.2800         4.4600         2.3100       0.220000        89.9500
       7181.50        61.4500         4.2200         2.3600       0.220000        89.6500
       7182.00        68.0100         3.5600         2.4100       0.210000        89.1000
       7182.50        73.9400         3.7100         2.4500       0.210000        87.9500
       7183.00        74.0800         3.3600         2.4800       0.210000        87.9500
       7183.50        75.1900         3.2800         2.5100       0.220000        86.7000
       7184.00        76.3800         3.0700         2.5000       0.220000        87.8000
       7184.50        83.0900         3.0400         2.4700       0.230000        88.6000
       7185.00        83.1900         3.0600         2.4600       0.230000        88.9000
       7185.50        88.0400         2.7700         2.4900       0.240000        90.0000
       7186.00        89.1100         2.7400         2.5100       0.240000        85.7500
       7186.50        89.5400         2.9200         2.5300       0.240000        87.1000
       7187.00        87.5200         3.7700         2.5300       0.240000        81.3500
       7187.50        88.3000         2.1700         2.5300       0.260000        81.2000
       7188.00        95.6400         2.1600         2.5200       0.260000        84.4500
       7188.50        91.6200         2.5500         2.5000       0.240000        86.4500
       7189.00        84.9400         3.0900         2.4700       0.210000        88.1000
       7189.50        76.6400         3.6900         2.4500       0.210000        88.1500
       7190.00        76.3400         3.5500         2.4500       0.210000        88.1500
       7190.50        81.5000         3.3000         2.4600       0.210000        88.9000
       7191.00        84.9500         3.1500         2.4800       0.220000        91.0000
       7191.50        88.0300         3.3300         2.4600       0.240000        88.8000
       7192.00        89.2900         3.0900         2.4800       0.260000        91.0000
       7192.50        89.9900         2.4600         2.5100       0.270000        91.7500
       7193.00        95.9400         2.2700         2.5100       0.270000        93.2000
       7193.50       101.3700         2.4300         2.5000       0.270000        93.5000
       7194.00       101.0900         2.5000         2.4800       0.260000        92.4500
       7194.50        96.7000         2.9100         2.4800       0.250000        92.8000
       7195.00        90.4800         2.7500         2.4700       0.250000        91.8600
       7195.50        92.6500         2.2800         2.4700       0.260000        92.6100
       7196.00        94.5500         2.4800         2.4700       0.270000        95.6000
       7196.50        88.8800         2.5600         2.4800       0.260000        94.6000
       7197.00        79.7200         2.3300         2.4800       0.230000        93.1000
       7197.50        67.2700         3.3300         2.4400       0.210000        92.4000
       7198.00        64.4800         3.5600         2.3900       0.210000        91.0000
       7198.50        66.2400         3.5700         2.3600       0.210000        89.8000
       7199.00        75.3400         3.4300         2.3700       0.220000        91.0500
       7199.50        79.7500         3.1700         2.3900       0.240000        91.7000
       7200.00        79.4900         2.8500         2.3700       0.240000        93.1000
       7200.50        75.1400         4.2700         2.3400       0.240000        96.0000
       7201.00        79.4500         3.9800         2.3400       0.230000        97.9500
       7201.50        84.6100         2.9600         2.3800       0.240000        97.9000
       7202.00        83.2900         2.4600         2.3900       0.240000        97.9000
       7202.50        71.1900         3.7700         2.3400       0.220000        97.6000
       7203.00        59.5700         3.6100         2.3100       0.210000        95.4000
       7203.50        54.9000         3.9100         2.3200       0.200000        93.3000
       7204.00        59.7400         3.7400         2.3400       0.200000        92.1000
       7204.50        63.6200         3.3200         2.3700       0.200000        91.9000
       7205.00        67.1000         3.2300         2.3800       0.210000        91.1000
       7205.50        69.0800         3.2000         2.4000       0.220000        93.1000
       7206.00        80.8400         2.9600         2.4200       0.230000        93.7000
       7206.50        89.1800         2.7600         2.4300       0.240000        94.2000
       7207.00        98.3200         2.7300         2.4500       0.250000        94.1000
       7207.50       103.3200         2.5500         2.4600       0.250000        93.5000
       7208.00       101.4200         2.5500         2.4800       0.250000        91.2000
       7208.50        95.5000         2.7100         2.5000       0.230000        90.5000
       7209.00        89.1900         2.9900         2.5100       0.240000        90.2000
       7209.50        94.2800         2.6700         2.5200       0.250000        91.0000
       7210.00        99.1400         2.2600         2.5300       0.260000        90.3500
       7210.50       100.7300         2.4100         2.5400       0.240000        91.7500
       7211.00       103.9000         2.5900         2.5500       0.250000        94.1000
       7211.50       107.1900         1.8900         2.5300       0.260000        94.2000
       7212.00       110.0500         1.8300         2.5100       0.290000        98.4000
       7212.50       113.3100         1.7200         2.5000       0.300000       101.1000
