~Version Information Block
VERS .                  2.0:  CWLS LOG ASCII STANDARD - VERSION 2.0
WRAP .                   NO:  One line per depth step
~Well Information Block
#MNEM.UNIT        Data Type   Information
#---------- ----------------  -----------
STRT .FT            5000.50:  START DEPTH
STOP .FT           14504.00:  STOP DEPTH
STEP .FT               0.50:  STEP
NULL .              -999.25:  NULL VALUE
COMP .                     :  COMPANY
WELL .               STA-18:  WELL
FLD  .                     :  FIELD
LOC  .                     :  LOCATION
CTRY .                     :  COUNTRY
STAT .                     :  STATE
CNTY .                     :  COUNTY
SRVC .                     :  SERVICE COMPANY
DATE .                     :  DATE
API  .                     :  API NUMBER
UWI  .                     :  UNIQUE WELL ID
~Curve Information Block
#MNEM.UNIT         API CODE   Curve Description
#---------- ----------------  -----------------
DEPTH.FT                   :  DEPTH
GR   .GAPI                 :  Gamma Ray
RT   .OHMM                 :  SEDP
RHOB .G/C3                 :  Bulk Density
NPHI .V/V                  :  Neutron porosity
~Parameter Information Block
#MNEM.UNIT            Value   Description
#---------- ----------------  -----------
PROJECT.            SANTAN_FE:  
~Other Information Block
# 
~A       DEPTH             GR             RT           RHOB           NPHI 
# ...
       9441.00        35.7400         1.0000         2.1600       0.264800
       9441.50        37.0600         1.0100         2.1600       0.252000
       9442.00        38.6800         1.0500         2.1509       0.245800
       9442.50        39.0700         1.1300         2.1591       0.227500
       9443.00        40.9700         1.2500         2.1691       0.237600
       9443.50        40.6300         1.4000         2.1882       0.259100
       9444.00        39.8400         1.5300         2.2082       0.249600
       9444.50        46.4100         1.6500         2.2282       0.248800
       9445.00        54.5300         1.7800         2.2573       0.242100
       9445.50        85.1400         1.9100         2.3054       0.288300
       9446.00       101.7000         2.0300         2.3827       0.314100
       9446.50       109.3900         2.1500         2.4445       0.310300
       9447.00       115.8300         2.2400         2.4773       0.304200
       9447.50       113.4700         2.3100         2.5073       0.288900
       9448.00       110.6400         2.3400         2.4827       0.302400
       9448.50       117.1500         2.3400         2.4709       0.292500
       9449.00       116.2300         2.3600         2.4881       0.283600
       9449.50       105.6100         2.3800         2.5081       0.263600
       9450.00        92.1900         2.4100         2.5191       0.291800
       9450.50        99.1100         2.4500         2.5019       0.299300
       9451.00        98.1300         2.4900         2.4909       0.280700
       9451.50        97.7200         2.5100         2.4900       0.263900
       9452.00       102.3400         2.5500         2.4809       0.286800
       9452.50       109.3800         2.5500         2.4709       0.294800
       9453.00       107.8800         2.5300         2.4700       0.297500
       9453.50       105.7400         2.5000         2.4700       0.280900
       9454.00       108.0200         2.4700         2.4700       0.289700
       9454.50       106.8000         2.4100         2.4610       0.335100
       9455.00        99.2700         2.3800         2.4690       0.327300
       9455.50        96.2900         2.3600         2.4700       0.306800
       9456.00        93.4400         2.3400         2.4700       0.292000
       9456.50        96.2400         2.3200         2.4610       0.278500
       9457.00        91.3500         2.2500         2.4600       0.310700
       9457.50       100.0400         2.2300         2.4690       0.303400
       9458.00       105.1000         2.2100         2.4700       0.289500
       9458.50       103.5100         2.2000         2.4610       0.272900
       9459.00        96.8600         2.1900         2.4600       0.309900
       9459.50       106.3700         2.2000         2.4871       0.324000
       9460.00       121.7200         2.2100         2.4990       0.318600
       9460.50       115.4600         2.2300         2.4820       0.295500
       9461.00        98.6700         2.2300         2.4529       0.302600
       9461.50        99.3200         2.3200         2.4500       0.306400
       9462.00       108.2000         2.3900         2.4590       0.295000
       9462.50       103.4200         2.4000         2.4420       0.264700
       9463.00        79.0600         2.3200         2.4490       0.257500
       9463.50        77.0600         2.2200         2.4590       0.253200
       9464.00        73.5600         2.1500         2.4510       0.237300
       9464.50        71.3400         2.0800         2.4500       0.248500
       9465.00        67.3800         1.9900         2.4320       0.242000
       9465.50        59.4300         1.8800         2.3939       0.216800
       9466.00        71.4500         1.8600         2.3720       0.214600
       9466.50        81.9700         1.8600         2.3610       0.220100
       9467.00       100.5400         1.8700         2.3600       0.270200
       9467.50       104.2700         1.9100         2.4140       0.312400
       9468.00       102.0200         1.9100         2.4380       0.331100
       9468.50        98.3600         1.9300         2.4670       0.348500
       9469.00       105.5500         1.9400         2.4790       0.344500
       9469.50       118.2200         1.9300         2.4710       0.402300
       9470.00       117.8900         1.9400         2.4700       0.410300
       9470.50       112.4300         1.9200         2.4790       0.363100
       9471.00       114.1600         1.9000         2.4800       0.341600
       9471.50       114.5200         1.9300         2.4890       0.313600
       9472.00       117.2300         2.0100         2.4900       0.316600
       9472.50       107.7800         2.0900         2.4900       0.367200
       9473.00       101.3700         2.1300         2.4990       0.354200
       9473.50       113.3700         2.1600         2.4910       0.320500
       9474.00       116.3800         2.1300         2.4541       0.293400
       9474.50        99.7500         2.1700         2.4500       0.278200
       9475.00        87.5400         2.2300         2.4590       0.314300
       9475.50        83.1600         2.2600         2.4690       0.334600
       9476.00        88.8600         2.3200         2.4700       0.311900
       9476.50        95.1300         2.3400         2.4610       0.278300
       9477.00        80.1700         2.2900         2.4420       0.238100
       9477.50        75.3400         2.2800         2.4400       0.244400
       9478.00        80.5200         2.2900         2.4310       0.294500
       9478.50        84.2200         2.3300         2.4300       0.289700
       9479.00        94.4000         2.3300         2.4390       0.267900
       9479.50        88.6400         2.3100         2.4490       0.259500
       9480.00        93.9500         2.3300         2.4321       0.272500
       9480.50       105.1600         2.3800         2.4300       0.344100
       9481.00       112.8700         2.3400         2.4300       0.363900
       9481.50       111.1600         2.2700         2.4390       0.351400
       9482.00       104.4900         2.1700         2.4490       0.335400
       9482.50        96.8200         2.0200         2.4500       0.320700
       9483.00        89.4900         1.8500         2.4500       0.362400
       9483.50        87.2200         1.9900         2.4590       0.338300
       9484.00        87.9300         2.2200         2.4690       0.292200
       9484.50        92.2400         2.4100         2.4790       0.258700
       9485.00        90.9300         2.4400         2.4621       0.261500
       9485.50        89.7500         2.4100         2.4510       0.260500
       9486.00        92.7400         2.4100         2.4500       0.246800
       9486.50        87.0800         2.5000         2.4500       0.232300
       9487.00        85.9500         2.5600         2.4411       0.272000
       9487.50        81.0900         2.5900         2.4489       0.264400
       9488.00        84.4900         2.6000         2.4500       0.237700
       9488.50        82.6700         2.6300         2.4500       0.218900
       9489.00        85.5400         2.6500         2.4589       0.228600
       9489.50        87.0200         2.7100         2.4868       0.245200
       9490.00        86.8600         2.7400         2.4989       0.232200
       9490.50        77.6200         2.7000         2.4821       0.211400
       9491.00        75.9400         2.7100         2.4800       0.206600
       9491.50        77.6700         2.7000         2.4800       0.236200
       9492.00        83.7200         2.6900         2.4800       0.235300
       9492.50        84.6300         2.6500         2.4800       0.226300
       9493.00        85.0900         2.5800         2.4800       0.222000
       9493.50        89.4200         2.5100         2.4711       0.270700
       9494.00        81.4500         2.4800         2.4700       0.275400
