~Version Information Block
VERS .                  2.0:  CWLS LOG ASCII STANDARD - VERSION 2.0
WRAP .                   NO:  One line per depth step
~Well Information Block
#MNEM.UNIT        Data Type   Information
#---------- ----------------  -----------
STRT .FT            3742.00:  START DEPTH
STOP .FT            8440.00:  STOP DEPTH
STEP .FT               0.50:  STEP
NULL .              -999.25:  NULL VALUE
COMP .                     :  COMPANY
WELL .                STA-2:  WELL
FLD  .                     :  FIELD
LOC  .                     :  LOCATION
CTRY .                     :  COUNTRY
STAT .                     :  STATE
CNTY .                     :  COUNTY
SRVC .                     :  SERVICE COMPANY
DATE .                     :  DATE
API  .                     :  API NUMBER
UWI  .                     :  UNIQUE WELL ID
~Curve Information Block
#MNEM.UNIT         API CODE   Curve Description
#---------- ----------------  -----------------
DEPTH.FT                   :  DEPTH
GR   .GAPI                 :  Gamma Ray
RT   .OHMM                 :  Deep resistivity
RHOB .G/C3                 :  Bulk Density
NPHI .V/V                  :  Neutron porosity
DT   .US/F                 :  Sonic
~Parameter Information Block
#MNEM.UNIT            Value   Description
#---------- ----------------  -----------
PROJECT.            SANTAN_FE:  
~Other Information Block
# 
~A       DEPTH             GR             RT           RHOB           NPHI             DT 
# ...
       7747.00        81.1500         3.3700         2.5100       0.220000        83.8000
       7747.50        89.1800         3.3800         2.5200       0.220000        83.5000
       7748.00        93.2800         3.3500         2.5200       0.210000        83.1500
       7748.50        96.0900         3.2200         2.5400       0.200000        83.8000
       7749.00        90.8100         3.2700         2.5400       0.200000        83.5500
       7749.50        91.7300         3.2100         2.5400       0.210000        84.0500
       7750.00        90.9100         3.2200         2.5400       0.210000        84.4000
       7750.50        92.3000         3.1600         2.5200       0.220000        84.8000
       7751.00        92.3600         2.8900         2.5200       0.220000        85.0500
       7751.50        93.6500         2.8000         2.5200       0.220000        86.2000
       7752.00        98.8100         2.7100         2.5400       0.220000        87.4000
       7752.50       104.8300         2.5200         2.5400       0.230000        87.8000
       7753.00       111.4500         2.4100         2.5400       0.240000        89.6500
       7753.50       112.7300         2.4700         2.5200       0.250000        90.4500
       7754.00       113.1500         2.2500         2.5300       0.250000        91.0000
       7754.50       110.9100         2.1400         2.5500       0.250000        92.1000
       7755.00       108.7000         2.2600         2.5400       0.250000        92.4000
       7755.50       109.2300         2.0700         2.5500       0.260000        92.6000
       7756.00       112.1400         1.9100         2.5500       0.260000        93.1500
       7756.50       113.9200         1.9300         2.5700       0.260000        92.1000
       7757.00       108.4900         1.9200         2.5800       0.250000        88.6500
       7757.50       100.5500         2.7700         2.5800       0.230000        85.5500
       7758.00        89.1800         4.4400         2.5700       0.200000        82.2000
       7758.50        82.2600         4.2400         2.5500       0.190000        81.1000
       7759.00        81.0700         3.8300         2.5200       0.190000        82.0500
       7759.50        85.4000         3.2100         2.5000       0.210000        83.6000
       7760.00        91.8700         2.9300         2.4800       0.220000        85.2000
       7760.50        97.1800         2.6300         2.4900       0.230000        86.9000
       7761.00       106.7800         2.3200         2.5000       0.250000        89.7000
       7761.50       117.5600         2.2800         2.5000       0.270000        93.4000
       7762.00       129.0900         2.2100         2.4800       0.290000        96.6500
       7762.50       131.7600         2.0700         2.4700       0.290000        98.2500
       7763.00       135.0500         1.9800         2.4700       0.300000        99.2500
       7763.50       138.1400         1.8300         2.4900       0.300000        99.0000
       7764.00       140.5300         1.8300         2.4800       0.300000        99.1000
       7764.50       133.6700         2.0800         2.4900       0.290000        98.4000
       7765.00       128.1500         2.1600         2.4800       0.290000        97.1500
       7765.50       126.7300         2.1700         2.4800       0.300000        98.2000
       7766.00       128.3800         2.0600         2.4600       0.310000        99.5000
       7766.50       126.8900         2.2200         2.4500       0.310000       100.1500
       7767.00       121.9800         2.1500         2.4500       0.280000        99.3500
       7767.50       116.9600         2.2100         2.4800       0.260000        96.5000
       7768.00       108.7200         2.6500         2.5100       0.250000        91.9000
       7768.50       107.7100         2.8700         2.5100       0.240000        88.1000
       7769.00       106.8500         2.9600         2.5100       0.240000        87.5000
       7769.50       106.5000         2.8900         2.5100       0.240000        87.0000
       7770.00       105.0500         2.7800         2.5100       0.240000        87.0000
       7770.50       106.3200         2.7900         2.5100       0.240000        87.9000
       7771.00       109.1100         2.5400         2.5200       0.240000        87.8500
       7771.50       107.7100         2.5200         2.5200       0.250000        88.4500
       7772.00       104.6100         2.7700         2.5200       0.250000        88.6000
       7772.50       107.0500         2.4500         2.5300       0.250000        88.3000
       7773.00       108.4400         2.5800         2.5400       0.250000        89.4500
       7773.50       115.6200         2.3900         2.5400       0.250000        90.5000
       7774.00       115.5000         2.1700         2.5400       0.250000        90.8000
       7774.50       112.5800         2.1100         2.5500       0.260000        91.1500
       7775.00       105.5700         2.1900         2.5600       0.250000        88.8000
       7775.50        93.7200         2.9500         2.5500       0.230000        84.9000
       7776.00        87.9900         4.4300         2.5500       0.200000        82.1000
       7776.50        77.6000         4.2400         2.5400       0.190000        80.5000
       7777.00        76.7100         3.8800         2.5400       0.190000        80.9500
       7777.50        79.4600         3.6500         2.5400       0.190000        82.5000
       7778.00        87.4100         3.5800         2.5200       0.190000        83.8000
       7778.50        91.4100         3.4300         2.5200       0.190000        83.9000
       7779.00        92.3100         3.1300         2.4900       0.200000        85.4500
       7779.50        84.4600         4.3100         2.4300       0.200000        87.2000
       7780.00        82.1500         4.4800         2.4000       0.200000        88.3000
       7780.50        82.7100         4.1900         2.4100       0.200000        88.8500
       7781.00        91.7800         3.7200         2.4700       0.210000        88.6500
       7781.50       104.3300         2.8900         2.4900       0.230000        88.2500
       7782.00       108.0400         2.4100         2.5100       0.250000        89.5500
       7782.50       108.7900         2.2300         2.5000       0.260000        89.8000
       7783.00       102.4000         2.6900         2.5000       0.240000        89.4000
       7783.50       102.7200         2.8100         2.5000       0.230000        88.7500
       7784.00       106.7000         2.5600         2.5200       0.230000        89.3000
       7784.50       106.0500         2.3700         2.5300       0.250000        91.1500
       7785.00       110.6500         2.1100         2.5400       0.260000        92.4000
       7785.50       117.0900         2.0500         2.5400       0.270000        93.4000
       7786.00       121.2700         2.1500         2.5400       0.280000        95.2000
       7786.50       124.2000         1.9600         2.5400       0.290000        96.1500
       7787.00       123.1000         1.7300         2.5400       0.290000        96.3000
       7787.50       128.1700         1.5700         2.5400       0.300000        98.0000
       7788.00       126.2700         1.5100         2.5500       0.330000        99.6000
       7788.50       122.1800         1.8000         2.5500       0.350000        97.4500
       7789.00       108.4000         1.6600         2.5600       0.300000        88.0500
       7789.50        86.7600         3.1700         2.5900       0.210000        78.1500
       7790.00        64.5400         7.5400         2.6600       0.120000        67.1500
       7790.50        56.4000        17.5300         2.6900       0.090000        61.8500
       7791.00        57.3300        10.6700         2.6200       0.110000        63.3000
