~Version Information Block
VERS .                  2.0:  CWLS LOG ASCII STANDARD - VERSION 2.0
WRAP .                   NO:  One line per depth step
~Well Information Block
#MNEM.UNIT        Data Type   Information
#---------- ----------------  -----------
STRT .FT             728.00:  START DEPTH
STOP .FT           10480.50:  STOP DEPTH
STEP .FT               0.50:  STEP
NULL .              -999.25:  NULL VALUE
COMP .                     :  COMPANY
WELL .               STA-21:  WELL
FLD  .                     :  FIELD
LOC  .                     :  LOCATION
CTRY .                     :  COUNTRY
STAT .                     :  STATE
CNTY .                     :  COUNTY
SRVC .                     :  SERVICE COMPANY
DATE .                     :  DATE
API  .                     :  API NUMBER
UWI  .                     :  UNIQUE WELL ID
~Curve Information Block
#MNEM.UNIT         API CODE   Curve Description
#---------- ----------------  -----------------
DEPTH.FT                   :  DEPTH
GR   .GAPI                 :  Gamma Ray
RT   .OHMM                 :  RESDE
RHOB .G/C3                 :  Bulk Density
NPHI .V/V                  :  Thermal Neutron Porosity (Ratio Method) in Selected Lithology
~Parameter Information Block
#MNEM.UNIT            Value   Description
#---------- ----------------  -----------
PROJECT.            SANTAN_FE:  
~Other Information Block
# 
~A       DEPTH             GR             RT           RHOB           NPHI 
# ...
       1423.50        23.6700         2.0888         2.1030         0.4209
       1424.00        24.6000         1.9978         2.0958         0.4331
       1424.50        25.0000         1.8825         2.0774         0.4369
       1425.00        25.4000         1.7485         2.0491         0.4506
       1425.50        24.8400         1.6501         2.0194         0.4629
       1426.00        24.0100         1.5216         1.9794         0.4751
       1426.50        23.1800         1.3842         1.9230         0.4945
       1427.00        22.4600         1.3169         1.8638         0.5081
       1427.50        22.2100         1.2739         1.8185         0.5099
       1428.00        21.0900         1.2259         1.7943         0.5000
       1428.50        19.8100         1.1708         1.7881         0.4812
       1429.00        18.5300         1.1383         1.7913         0.4677
       1429.50        18.4400         1.1391         1.7888         0.4743
       1430.00        18.7500         1.1568         1.7673         0.4997
       1430.50        19.4900         1.1916         1.7276         0.5321
       1431.00        19.9200         1.2266         1.7062         0.5418
       1431.50        20.2000         1.2476         1.7320         0.5192
       1432.00        20.0500         1.2580         1.8130         0.4806
       1432.50        19.6600         1.2600         1.8850         0.4486
       1433.00        19.4300         1.2535         1.9099         0.4087
       1433.50        19.2900         1.2385         1.9189         0.3682
       1434.00        19.3900         1.2450         1.9288         0.3614
       1434.50        19.4500         1.2755         1.9402         0.3887
       1435.00        19.4100         1.2802         1.9510         0.4316
       1435.50        19.2900         1.2625         1.9623         0.4569
       1436.00        18.7200         1.2479         1.9804         0.4650
       1436.50        18.1500         1.2219         1.9942         0.4673
       1437.00        17.8000         1.1812         1.9948         0.4726
       1437.50        18.1800         1.1577         1.9778         0.4835
       1438.00        18.5500         1.1642         1.9546         0.4931
       1438.50        19.0900         1.1843         1.9387         0.5001
       1439.00        19.5200         1.2056         1.9313         0.4898
       1439.50        20.2600         1.2161         1.9324         0.4519
       1440.00        20.6800         1.2135         1.9397         0.4071
       1440.50        21.5000         1.1911         1.9484         0.4089
       1441.00        22.3300         1.1691         1.9492         0.4335
       1441.50        23.1600         1.1206         1.9450         0.4722
       1442.00        23.9400         1.0617         1.9429         0.4732
       1442.50        24.1900         1.0507         1.9410         0.4860
       1443.00        24.4500         1.0803         1.9376         0.4710
       1443.50        24.4300         1.1117         1.9262         0.4610
       1444.00        24.1800         1.1392         1.9254         0.4524
       1444.50        22.0700         1.1963         1.9525         0.4419
       1445.00        20.7400         1.2722         1.9984         0.4241
       1445.50        19.9400         1.3205         2.0282         0.3967
       1446.00        20.9000         1.3415         2.0389         0.3827
       1446.50        20.8400         1.3426         2.0453         0.3787
       1447.00        20.1300         1.3420         2.0393         0.3732
       1447.50        18.6000         1.3648         2.0341         0.3622
       1448.00        17.0200         1.4390         2.0231         0.3473
       1448.50        15.9700         1.5541         2.0138         0.3315
       1449.00        15.8200         1.6341         1.9996         0.3314
       1449.50        15.8400         1.6441         1.9905         0.3451
       1450.00        16.0500         1.6155         1.9991         0.3743
       1450.50        16.4800         1.5771         2.0321         0.3775
       1451.00        16.5500         1.5308         2.0647         0.3925
       1451.50        16.5400         1.4618         2.0746         0.3653
       1452.00        16.2800         1.4371         2.0680         0.3684
       1452.50        16.5500         1.4185         2.0380         0.3558
       1453.00        16.9500         1.4340         2.0085         0.3584
       1453.50        17.5000         1.4544         2.0006         0.3545
       1454.00        17.9300         1.5268         2.0294         0.3616
       1454.50        18.4000         1.6603         2.0732         0.3705
       1455.00        18.7900         1.8347         2.1088         0.3789
       1455.50        19.7200         1.9755         2.1254         0.3739
       1456.00        20.4200         2.0266         2.1331         0.3594
       1456.50        21.3000         2.0040         2.1452         0.3529
       1457.00        21.5100         1.9749         2.1525         0.3645
       1457.50        21.7000         1.9982         2.1499         0.3769
       1458.00        21.0500         1.9931         2.1266         0.3781
       1458.50        19.9200         1.9802         2.0790         0.3775
       1459.00        17.9100         2.0618         2.0443         0.3733
       1459.50        16.5600         2.2453         1.9594         0.3837
       1460.00        15.6800         2.3500         1.8913         0.3945
       1460.50        15.7600         2.3266         1.8933         0.4000
       1461.00        16.4600         2.2442         2.0022         0.3856
       1461.50        17.5500         2.2018         2.1852         0.3735
       1462.00        19.1000         2.2064         2.2563         0.3592
       1462.50        20.0500         2.2075         2.2475         0.3532
       1463.00        20.9000         2.1718         2.2452         0.3444
       1463.50        21.3200         2.1332         2.2309         0.3503
       1464.00        21.7400         2.1097         2.2152         0.3636
       1464.50        22.0000         2.0800         2.1950         0.3816
       1465.00        22.3100         2.0095         2.1750         0.4009
       1465.50        23.0200         1.8875         2.1561         0.4186
       1466.00        23.9400         1.7866         2.1374         0.4265
       1466.50        24.7000         1.7359         2.1250         0.4163
       1467.00        25.8700         1.6714         2.1252         0.4101
       1467.50        27.9500         1.5995         2.1275         0.4308
       1468.00        30.4700         1.5469         2.1275         0.4714
       1468.50        32.1700         1.4917         2.1158         0.4944
       1469.00        32.5300         1.4498         2.0973         0.4711
       1469.50        32.8400         1.4360         2.0886         0.4323
       1470.00        33.1600         1.4359         2.0805         0.4183
       1470.50        33.4600         1.4505         2.0707         0.4227
       1471.00        32.7500         1.4766         2.0590         0.4341
       1471.50        32.0300         1.4926         2.0306         0.4534
       1472.00        30.6100         1.5062         2.0069         0.4799
       1472.50        29.8800         1.5075         1.9980         0.4922
       1473.00        29.3000         1.5001         2.0041         0.4874
       1473.50        30.0200         1.4700         2.0262         0.4658
       1474.00        31.1700         1.4285         2.0523         0.4358
       1474.50        32.6000         1.3958         2.0730         0.4014
       1475.00        33.5300         1.3787         2.0812         0.3904
       1475.50        34.1600         1.3696         2.0790         0.4135
       1476.00        33.9400         1.3615         2.0641         0.4673
       1476.50        33.7200         1.3580         2.0433         0.5127
