~Version Information Block
VERS .                  2.0:  CWLS LOG ASCII STANDARD - VERSION 2.0
WRAP .                   NO:  One line per depth step
~Well Information Block
#MNEM.UNIT        Data Type   Information
#---------- ----------------  -----------
STRT .FT            5224.50:  START DEPTH
STOP .FT           13237.50:  STOP DEPTH
STEP .FT               0.50:  STEP
NULL .              -999.25:  NULL VALUE
COMP .                     :  COMPANY
WELL .               STA-32:  WELL
FLD  .                     :  FIELD
LOC  .                     :  LOCATION
CTRY .                     :  COUNTRY
STAT .                     :  STATE
CNTY .                     :  COUNTY
SRVC .                     :  SERVICE COMPANY
DATE .                     :  DATE
API  .                     :  API NUMBER
UWI  .                     :  UNIQUE WELL ID
~Curve Information Block
#MNEM.UNIT         API CODE   Curve Description
#---------- ----------------  -----------------
DEPTH.FT                   :  Depth
GR   .GAPI                 :  Gamma Ray
RT   .OHMM                 :  True Resistivity
RHOB .G/C3                 :  Bulk Density
NPHI .V/V                  :  Neutron Porosity
~Parameter Information Block
#MNEM.UNIT            Value   Description
#---------- ----------------  -----------
PROJECT.            SANTAN_FE:  
~Other Information Block
# 
~A       DEPTH             GR             RT           RHOB           NPHI 
# ...
       5759.50        48.0070         2.0211         2.1650       0.335757
       5760.00        55.0970         1.8184         2.2055       0.334141
       5760.50        58.8641         1.6845         2.2344       0.340658
       5761.00        57.6075         1.6406         2.2439       0.348778
       5761.50        57.1388         1.6059         2.2424       0.347334
       5762.00        57.2126         1.5746         2.2406       0.344625
       5762.50        55.3928         1.5736         2.2355       0.348967
       5763.00        57.8407         1.5762         2.2254       0.350258
       5763.50        57.5413         1.5962         2.2129       0.345381
       5764.00        55.5318         1.6314         2.2011       0.345175
       5764.50        55.1031         1.6880         2.1912       0.350493
       5765.00        50.3581         1.7517         2.1712       0.353159
       5765.50        50.9339         1.7953         2.1335       0.348633
       5766.00        48.3455         1.8662         2.0931       0.337830
       5766.50        49.1971         1.8728         2.0700       0.327005
       5767.00        48.0841         1.7790         2.0707       0.324005
       5767.50        50.1356         1.7050         2.0787       0.327808
       5768.00        50.9784         1.6691         2.0883       0.335173
       5768.50        56.0625         1.5665         2.1178       0.345043
       5769.00        61.4469         1.4247         2.1672       0.352077
       5769.50        63.6279         1.3623         2.2160       0.356918
       5770.00        60.7893         1.3558         2.2510       0.370488
       5770.50        62.9492         1.3553         2.2564       0.390311
       5771.00        65.1104         1.3444         2.2386       0.400372
       5771.50        62.4539         1.3402         2.2246       0.396470
       5772.00        62.9796         1.3416         2.2208       0.384029
       5772.50        62.9356         1.3367         2.2222       0.375286
       5773.00        64.0576         1.3148         2.2236       0.380136
       5773.50        67.2767         1.2850         2.2220       0.384196
       5774.00        68.2180         1.2699         2.2206       0.380376
       5774.50        71.2364         1.2486         2.2228       0.385068
       5775.00        69.7429         1.2258         2.2274       0.400868
       5775.50        70.9517         1.2184         2.2327       0.410124
       5776.00        72.3420         1.1889         2.2389       0.408013
       5776.50        76.6752         1.1828         2.2463       0.407511
       5777.00        79.1150         1.1684         2.2460       0.414731
       5777.50        79.4474         1.1582         2.2380       0.421772
       5778.00        77.0199         1.1586         2.2350       0.422146
       5778.50        76.6710         1.1538         2.2359       0.417644
       5779.00        79.5499         1.1454         2.2375       0.413472
       5779.50        83.2824         1.1293         2.2422       0.411689
       5780.00        83.2334         1.1053         2.2490       0.410073
       5780.50        82.9713         1.0846         2.2545       0.412107
       5781.00        85.6245         1.1078         2.2547       0.423545
       5781.50        84.7059         1.1177         2.2519       0.433789
       5782.00        86.4201         1.0875         2.2547       0.427399
       5782.50        87.5866         1.1132         2.2621       0.411322
       5783.00        89.2022         1.1029         2.2691       0.403087
       5783.50        89.3195         1.0708         2.2720       0.402685
       5784.00        87.9680         1.1050         2.2704       0.401746
       5784.50        86.3979         1.0986         2.2709       0.403586
       5785.00        84.1321         1.0554         2.2780       0.413396
       5785.50        81.1933         1.0739         2.2887       0.426850
       5786.00        81.7267         1.1093         2.2963       0.433376
       5786.50        80.6696         1.1471         2.3000       0.429902
       5787.00        81.7411         1.2030         2.3048       0.428447
       5787.50        82.6202         1.2444         2.3108       0.432113
       5788.00        79.3714         1.2818         2.3150       0.431114
       5788.50        81.2314         1.3292         2.3208       0.425433
       5789.00        80.3093         1.3614         2.3308       0.422520
       5789.50        85.0355         1.3743         2.3401       0.422469
       5790.00        83.0941         1.3583         2.3443       0.417733
       5790.50        83.2236         1.3470         2.3436       0.407151
       5791.00        83.5638         1.3421         2.3416       0.401050
       5791.50        86.1132         1.3318         2.3394       0.404351
       5792.00        86.2762         1.3625         2.3350       0.410472
       5792.50        86.5019         1.3644         2.3323       0.412764
       5793.00        89.8020         1.3402         2.3374       0.409608
       5793.50        88.6182         1.3194         2.3472       0.403017
       5794.00        86.7878         1.3374         2.3530       0.404123
       5794.50        79.6168         1.4904         2.3515       0.416482
       5795.00        78.3027         1.5789         2.3428       0.422786
       5795.50        79.9855         1.4336         2.3345       0.417480
       5796.00        78.3262         1.3625         2.3325       0.408000
       5796.50        81.6772         1.3303         2.3331       0.402303
       5797.00        80.5875         1.2898         2.3342       0.402748
       5797.50        83.4114         1.2741         2.3366       0.406471
       5798.00        86.1037         1.2330         2.3400       0.416006
       5798.50        83.8389         1.1883         2.3405       0.429250
       5799.00        81.1223         1.1824         2.3351       0.433121
       5799.50        86.7734         1.2505         2.3293       0.427965
       5800.00        84.5117         1.2956         2.3255       0.427943
       5800.50        80.2469         1.2848         2.3192       0.437965
       5801.00        78.2524         1.3183         2.3153       0.435843
       5801.50        68.5940         1.7429         2.3205       0.387076
       5802.00        48.8375         2.8970         2.3387       0.295113
       5802.50        33.7103         4.1446         2.3814       0.211374
       5803.00        27.1907         4.2242         2.4422       0.156222
       5803.50        24.7685         3.6142         2.4653       0.137311
       5804.00        24.3896         2.8967         2.3999       0.163242
       5804.50        20.2803         2.4510         2.2770       0.219239
       5805.00        17.3994         2.2467         2.1677       0.267897
       5805.50        16.2594         2.0999         2.1234       0.288322
       5806.00        14.6243         2.0255         2.1293       0.292016
       5806.50        14.3262         1.9344         2.1361       0.296477
       5807.00        17.5262         1.9359         2.1357       0.301539
       5807.50        25.0414         1.9540         2.1385       0.304717
       5808.00        31.1584         1.8186         2.1465       0.308718
       5808.50        35.8613         1.7479         2.1530       0.312112
       5809.00        37.2880         1.7547         2.1501       0.313416
       5809.50        33.9483         1.7791         2.1452       0.319130
       5810.00        36.6072         1.7983         2.1452       0.331718
       5810.50        36.2528         1.8180         2.1476       0.338302
       5811.00        38.4669         1.8331         2.1490       0.327723
       5811.50        38.5898         1.8382         2.1519       0.311581
       5812.00        38.0992         1.8324         2.1573       0.305678
       5812.50        38.6701         1.8276         2.1614       0.307976
