~Version Information Block
VERS .                  2.0:  CWLS LOG ASCII STANDARD - VERSION 2.0
WRAP .                   NO:  One line per depth step
~Well Information Block
#MNEM.UNIT        Data Type   Information
#---------- ----------------  -----------
STRT .FT            6114.50:  START DEPTH
STOP .FT           14965.50:  STOP DEPTH
STEP .FT               0.50:  STEP
NULL .              -999.25:  NULL VALUE
COMP .                     :  COMPANY
WELL .               STA-36:  WELL
FLD  .                     :  FIELD
LOC  .                     :  LOCATION
CTRY .                     :  COUNTRY
STAT .                     :  STATE
CNTY .                     :  COUNTY
SRVC .                     :  SERVICE COMPANY
DATE .                     :  DATE
API  .                     :  API NUMBER
UWI  .                     :  UNIQUE WELL ID
~Curve Information Block
#MNEM.UNIT         API CODE   Curve Description
#---------- ----------------  -----------------
DEPTH.FT                   :  Depth
GR   .GAPI                 :  Gamma Ray
RT   .OHMM                 :  True Resistivity
RHOB .G/C3                 :  Bulk Density
NPHI .V/V                  :  Neutron Porosity
~Parameter Information Block
#MNEM.UNIT            Value   Description
#---------- ----------------  -----------
PROJECT.            SANTAN_FE:  
~Other Information Block
# 
~A       DEPTH             GR             RT           RHOB           NPHI 
# ...
      14888.50        65.9538         6.9517         2.6402       0.109600
      14889.00        67.7601         6.8908         2.6370       0.115100
      14889.50        70.3083         6.7126         2.6359       0.122600
      14890.00        75.3476         6.8024         2.6417       0.121200
      14890.50        73.4955         6.9773         2.6501       0.109500
      14891.00        65.4149         7.1348         2.6500       0.095800
      14891.50        60.3526         7.4464         2.6411       0.086500
      14892.00        56.7722         7.7935         2.6319       0.084600
      14892.50        59.0624         8.1072         2.6329       0.091700
      14893.00        68.2806         7.9003         2.6421       0.106000
      14893.50        79.1913         7.6427         2.6457       0.117500
      14894.00        82.1605         7.3966         2.6428       0.116900
      14894.50        73.7216         7.1593         2.6430       0.109300
      14895.00        63.1142         7.3607         2.6364       0.104800
      14895.50        60.7446         7.2237         2.6120       0.105100
      14896.00        60.4358         6.8948         2.5829       0.107200
      14896.50        56.6725         6.8291         2.5581       0.108700
      14897.00        53.4730         6.7505         2.5321       0.109200
      14897.50        52.4502         6.6828         2.5086       0.109000
      14898.00        52.2550         6.7381         2.4972       0.109100
      14898.50        52.3036         6.9332         2.5000       0.109400
      14899.00        55.1103         7.2916         2.5062       0.108000
      14899.50        55.9302         7.4050         2.5143       0.103100
      14900.00        51.4419         7.9809         2.5353       0.097200
      14900.50        50.6539         8.5632         2.5613       0.094800
      14901.00        53.6830         8.7958         2.5767       0.097200
      14901.50        57.9042         8.6401         2.5839       0.102400
      14902.00        62.9554         8.4033         2.5890       0.108800
      14902.50        65.1334         8.1844         2.5840       0.115300
      14903.00        65.4957         8.0740         2.5617       0.121300
      14903.50        68.5001         8.0831         2.5460       0.125200
      14904.00        69.2596         7.8387         2.5456       0.124000
      14904.50        66.7531         7.6855         2.5422       0.118300
      14905.00        57.2845         7.6189         2.5346       0.114400
      14905.50        53.4820         7.5523         2.5387       0.115100
      14906.00        54.6098         7.4234         2.5547       0.117700
      14906.50        53.9215         7.1782         2.5721       0.119500
      14907.00        54.3213         6.9943         2.5808       0.120500
      14907.50        54.1880         6.9985         2.5738       0.122800
      14908.00        53.3668         6.9268         2.5590       0.125900
      14908.50        55.9563         6.8051         2.5556       0.127600
      14909.00        58.3402         6.8734         2.5629       0.128100
      14909.50        65.3504         6.7185         2.5748       0.128700
      14910.00        68.2230         6.8210         2.5909       0.129000
      14910.50        68.6423         6.5751         2.6055       0.129800
      14911.00        70.4010         6.6633         2.6126       0.132300
      14911.50        72.8857         6.6409         2.6098       0.134700
      14912.00        71.9961         6.2283         2.6068       0.134200
      14912.50        66.1363         6.6653         2.6085       0.131800
      14913.00        60.9605         6.9451         2.5981       0.130900
      14913.50        63.3673         6.8592         2.5762       0.131400
      14914.00        65.8367         6.7802         2.5683       0.133900
      14914.50        74.3547         6.3971         2.5798       0.138900
      14915.00        77.7056         6.6967         2.5957       0.140800
      14915.50        75.7574         6.8702         2.6078       0.133700
      14916.00        64.8943         7.1591         2.6092       0.122200
      14916.50        55.8696         7.4961         2.5979       0.115100
      14917.00        57.5833         7.4964         2.5874       0.112600
      14917.50        55.3247         7.4177         2.5875       0.111000
      14918.00        55.7192         7.3338         2.5931       0.111900
      14918.50        59.9908         7.7210         2.5986       0.118100
      14919.00        70.4946         6.8266         2.6049       0.124000
      14919.50        72.7391         6.2741         2.6085       0.126000
      14920.00        71.9693         5.9438         2.6075    -999.250000
      14920.50        73.6489         5.4308         2.6099    -999.250000
      14921.00        70.0076         5.1375         2.6206    -999.250000
      14921.50        70.7916         4.9198         2.6305    -999.250000
      14922.00        70.5072         4.5857         2.6363    -999.250000
      14922.50        67.4354         4.2374         2.6404    -999.250000
      14923.00        65.2554         4.2283         2.6393    -999.250000
      14923.50        68.1863         4.1329         2.6269    -999.250000
      14924.00        69.1065         3.8226         2.6079    -999.250000
      14924.50        69.7804         3.1835         2.5978    -999.250000
      14925.00        74.5289         2.8213         2.6002    -999.250000
      14925.50        74.9787         2.6637         2.5994    -999.250000
      14926.00        71.8052         2.6010         2.5905    -999.250000
      14926.50        72.9353         2.3001         2.5847    -999.250000
      14927.00        72.6715         2.2216         2.5823    -999.250000
      14927.50        73.9522         2.1517         2.5792    -999.250000
      14928.00        70.3698         2.2096         2.5774    -999.250000
      14928.50        70.0252         2.1841         2.5768    -999.250000
      14929.00        71.0562         2.0285      -999.2500    -999.250000
      14929.50        71.3715         2.0052      -999.2500    -999.250000
      14930.00        74.5970         1.8909      -999.2500    -999.250000
      14930.50        75.5274         2.1604      -999.2500    -999.250000
      14931.00        71.7670         2.1212      -999.2500    -999.250000
      14931.50        75.0881         1.8188      -999.2500    -999.250000
      14932.00        75.4368         1.6878      -999.2500    -999.250000
      14932.50        75.5600         1.6507      -999.2500    -999.250000
      14933.00        76.2027         1.6311      -999.2500    -999.250000
      14933.50        76.7366         1.6353      -999.2500    -999.250000
      14934.00        77.4052         1.6793      -999.2500    -999.250000
      14934.50        80.3665         2.1573      -999.2500    -999.250000
      14935.00        75.7696         2.4457      -999.2500    -999.250000
      14935.50        77.5672         2.8914      -999.2500    -999.250000
      14936.00        78.3365         4.1461      -999.2500    -999.250000
      14936.50        79.7676         4.6056      -999.2500    -999.250000
      14937.00        81.7903         4.7819      -999.2500    -999.250000
      14937.50        84.9556         5.0942      -999.2500    -999.250000
      14938.00        85.5141         5.9789      -999.2500    -999.250000
      14938.50        81.5020         6.3818      -999.2500    -999.250000
      14939.00        83.1145         6.1948      -999.2500    -999.250000
      14939.50        83.7737         6.4453      -999.2500    -999.250000
      14940.00        80.8946         6.9196      -999.2500    -999.250000
      14940.50        78.7439         7.3711      -999.2500    -999.250000
      14941.00        79.1863         7.0799      -999.2500    -999.250000
      14941.50        82.1369         6.4792      -999.2500    -999.250000
