~Version Information Block
VERS .                  2.0:  CWLS LOG ASCII STANDARD - VERSION 2.0
WRAP .                   NO:  One line per depth step
~Well Information Block
#MNEM.UNIT        Data Type   Information
#---------- ----------------  -----------
STRT .FT            4880.50:  START DEPTH
STOP .FT           10428.00:  STOP DEPTH
STEP .FT               0.50:  STEP
NULL .              -999.25:  NULL VALUE
COMP .                     :  COMPANY
WELL .                STA-3:  WELL
FLD  .                     :  FIELD
LOC  .                     :  LOCATION
CTRY .                     :  COUNTRY
STAT .                     :  STATE
CNTY .                     :  COUNTY
SRVC .                     :  SERVICE COMPANY
DATE .                     :  DATE
API  .                     :  API NUMBER
UWI  .                     :  UNIQUE WELL ID
~Curve Information Block
#MNEM.UNIT         API CODE   Curve Description
#---------- ----------------  -----------------
DEPTH.FT                   :  DEPTH
GR   .GAPI                 :  Gamma Ray
RT   .OHMM                 :  Deep resistivity
RHOB .G/C3                 :  Bulk Density
NPHI .V/V                  :  Neutron porosity
DT   .US/F                 :  Sonic
~Parameter Information Block
#MNEM.UNIT            Value   Description
#---------- ----------------  -----------
PROJECT.            SANTAN_FE:  
~Other Information Block
# 
~A       DEPTH             GR             RT           RHOB           NPHI             DT 
# ...
       7150.00        90.0496         3.2267         2.4931       0.242600        88.3000
       7150.50        92.8952         3.0370         2.5130       0.238400        89.5000
       7151.00        95.3139         3.0468         2.4963       0.247200        90.3000
       7151.50        97.5715         3.3889         2.4932       0.249400        91.0500
       7152.00       102.5912         3.0470         2.4946       0.260600        92.6000
       7152.50       108.5074         2.4294         2.4893       0.270700        95.0500
       7153.00       111.2975         2.0953         2.4796       0.304300        97.5000
       7153.50       113.6614         1.8807         2.4713       0.324700        99.1000
       7154.00       110.7178         1.8355         2.4371       0.339100        99.2000
       7154.50        91.1848         2.0504         2.3520       0.313300        99.9500
       7155.00        65.7469         3.3433         2.2799       0.284500        97.9000
       7155.50        47.5103         3.2814         2.2406       0.243800        97.4000
       7156.00        48.8290         3.1808         2.2421       0.227100        95.9000
       7156.50        58.2598         3.6705         2.2637       0.216000        94.0000
       7157.00        67.2225         3.7326         2.3156       0.221000        92.7000
       7157.50        74.9716         3.8598         2.3839       0.220800        91.1500
       7158.00        77.8654         3.8331         2.4097       0.231000        91.1000
       7158.50        80.3785         3.9203         2.4182       0.243100        91.8000
       7159.00        81.6363         3.9840         2.4327       0.253300        92.3500
       7159.50        79.3597         3.5780         2.4187       0.265800        93.6000
       7160.00        74.2321         3.5174         2.4076       0.268200        95.1500
       7160.50        68.6515         3.5470         2.3843       0.264000        94.2500
       7161.00        71.0522         3.5161         2.3764       0.246000        93.9000
       7161.50        74.8975         3.6411         2.3888       0.239800        93.9500
       7162.00        78.5024         3.1487         2.4025       0.239900        94.0000
       7162.50        79.9668         3.3325         2.4083       0.244400        94.1000
       7163.00        81.0276         3.3480         2.4002       0.249100        95.9000
       7163.50        85.9097         2.9347         2.3987       0.267800        96.7000
       7164.00        89.2898         2.7921         2.4035       0.278300        97.5500
       7164.50        91.8796         2.7639         2.4167       0.291400        97.2000
       7165.00        85.6961         2.8776         2.4065       0.281200        96.9000
       7165.50        88.9196         2.9043         2.3948       0.281000        97.2000
       7166.00        91.6601         3.0115         2.3928       0.279800        96.9500
       7166.50        93.8261         2.6063         2.4076       0.279300        96.0000
       7167.00        86.9678         3.0670         2.4199       0.287400        94.1000
       7167.50        75.8803         3.2662         2.4171       0.269600        92.4500
       7168.00        69.4542         3.3648         2.3765       0.256200        95.0000
       7168.50        63.1563         3.5747         2.3279       0.233000        95.6500
       7169.00        72.5251         3.7728         2.3213       0.232900        95.7000
       7169.50        79.3669         3.7623         2.3725       0.235500        97.1000
       7170.00        97.4916         3.3166         2.4545       0.244900        94.4000
       7170.50       106.5173         2.8035         2.4810       0.271900        95.0000
       7171.00       115.4628         2.2917         2.4848       0.298500        98.4500
       7171.50       110.6099         2.1667         2.4713       0.302000        98.0000
       7172.00        97.6435         2.2511         2.4445       0.268300        96.2000
       7172.50        83.9178         3.5410         2.4317       0.249800        94.3000
       7173.00        74.0312         3.7789         2.4115       0.236900        92.4000
       7173.50        69.6096         3.6476         2.3963       0.237300        92.2000
       7174.00        69.8694         3.5127         2.3756       0.232500        92.7000
       7174.50        67.7580         3.6712         2.3723       0.226900        93.0000
       7175.00        71.2885         3.8450         2.3776       0.220200        92.2000
       7175.50        73.1236         3.8870         2.3991       0.215200        90.9000
       7176.00        82.7969         3.9031         2.4044       0.218100        91.3500
       7176.50        85.5048         3.8651         2.4127       0.240000        92.2000
       7177.00        90.6213         3.6748         2.4159       0.241300        92.1500
       7177.50        91.4339         3.5486         2.4218       0.253500        92.6500
       7178.00        87.9526         3.9605         2.4267       0.236100        92.1000
       7178.50        89.4470         3.5834         2.4254       0.232600        91.7000
       7179.00        84.7254         3.3132         2.4198       0.231900        91.7000
       7179.50        88.6049         3.5379         2.4310       0.238900        92.3000
       7180.00        84.4694         3.2335         2.4279       0.242900        92.6000
       7180.50        82.6074         3.3397         2.4381       0.235800        91.8000
       7181.00        79.8800         3.6061         2.4344       0.231200        91.8000
       7181.50        82.8203         3.8760         2.4345       0.239200        91.3000
       7182.00        90.5459         3.8737         2.4444       0.252700        91.8000
       7182.50        98.2541         3.0120         2.4671       0.263100        93.2000
       7183.00        96.4093         2.7479         2.4855       0.267800        94.3500
       7183.50        92.3518         2.5831         2.4683       0.267900        94.3000
       7184.00        86.8108         2.8696         2.4532       0.255200        93.4500
       7184.50        86.1275         3.4316         2.4313       0.243600        92.2000
       7185.00        82.9508         3.5916         2.4095       0.234000        91.9000
       7185.50        77.8086         3.4976         2.3955       0.244700        91.2000
       7186.00        73.0211         3.5263         2.3775       0.245700        91.2500
       7186.50        66.4936         3.3895         2.3319       0.252500        92.4000
       7187.00        60.7603         2.9317         2.2889       0.263400        94.4500
       7187.50        54.3975         2.7882         2.2888       0.248700        93.2500
       7188.00        53.5820         2.9431         2.3486       0.215700        90.2000
       7188.50        56.1611         4.2516         2.4199       0.191700        87.5500
       7189.00        63.8389         3.6444         2.4596       0.201900        85.7000
       7189.50        73.7787         4.0149         2.4461       0.212300        87.6000
       7190.00        80.8888         3.8367         2.4575       0.224800        89.2000
       7190.50        81.7101         3.6528         2.4566       0.227400        89.3000
       7191.00        75.7705         3.3867         2.4646       0.238100        89.7500
       7191.50        73.2823         3.2905         2.4614       0.233400        90.5500
       7192.00        73.9265         3.0819         2.4639       0.235300        90.7000
       7192.50        80.8703         3.2604         2.4672       0.242600        90.8500
       7193.00        85.9781         3.2892         2.4700       0.255700        90.9000
       7193.50        92.8253         3.1780         2.4756       0.260500        91.4000
       7194.00        93.5753         3.0290         2.4686       0.264900        91.6500
