~Version Information Block
VERS .                  2.0:  CWLS LOG ASCII STANDARD - VERSION 2.0
WRAP .                   NO:  One line per depth step
~Well Information Block
#MNEM.UNIT        Data Type   Information
#---------- ----------------  -----------
STRT .FT             780.00:  START DEPTH
STOP .FT            8996.00:  STOP DEPTH
STEP .FT               0.50:  STEP
NULL .              -999.25:  NULL VALUE
COMP .                     :  COMPANY
WELL .                STA-4:  WELL
FLD  .                     :  FIELD
LOC  .                     :  LOCATION
CTRY .                     :  COUNTRY
STAT .                     :  STATE
CNTY .                     :  COUNTY
SRVC .                     :  SERVICE COMPANY
DATE .                     :  DATE
API  .                     :  API NUMBER
UWI  .                     :  UNIQUE WELL ID
~Curve Information Block
#MNEM.UNIT         API CODE   Curve Description
#---------- ----------------  -----------------
DEPTH.FT                   :  DEPTH
GR   .GAPI                 :  Gamma Ray
RT   .OHMM                 :  SEDP
RHOB .G/C3                 :  Bulk Density
NPHI .V/V                  :  Neutron porosity
~Parameter Information Block
#MNEM.UNIT            Value   Description
#---------- ----------------  -----------
PROJECT.            SANTAN_FE:  
~Other Information Block
# 
~A       DEPTH             GR             RT           RHOB           NPHI 
# ...
       2385.00        77.1700         1.8400         2.1600       0.466300
       2385.50        76.1100         1.8200         2.1600       0.465800
       2386.00        64.7300         1.7900         2.1600       0.462800
       2386.50        65.4300         1.7600         2.1600       0.461600
       2387.00        79.5800         1.7400         2.1600       0.465900
       2387.50        80.9300         1.6900         2.1600       0.475200
       2388.00        81.7800         1.6400         2.1600       0.498500
       2388.50        84.1400         1.6200         2.1600       0.522800
       2389.00        85.2600         1.6100         2.1600       0.542300
       2389.50        77.6200         1.6000         2.1600       0.539800
       2390.00        76.1800         1.6000         2.1600       0.523600
       2390.50        81.4000         1.6000         2.1600       0.517500
       2391.00        81.0300         1.6400         2.1700       0.512700
       2391.50        74.7700         1.6700         2.1700       0.508800
       2392.00        74.0900         1.7000         2.1800       0.505400
       2392.50        77.5000         1.7300         2.1800       0.507300
       2393.00        77.0100         1.7900         2.1800       0.503300
       2393.50        73.5000         1.8500         2.1800       0.486600
       2394.00        69.1700         1.9000         2.1800       0.471800
       2394.50        69.2000         1.9400         2.1700       0.474000
       2395.00        74.3300         1.9400         2.1500       0.476700
       2395.50        80.8000         1.8800         2.1200       0.475500
       2396.00        80.1800         1.7800         2.0900       0.478700
       2396.50        77.6100         1.7000         2.0700       0.487900
       2397.00        83.5100         1.6800         2.0700       0.507500
       2397.50        85.0900         1.6000         2.0700       0.514800
       2398.00        87.1500         1.5400         2.0800       0.515900
       2398.50        89.8600         1.5000         2.1100       0.512100
       2399.00        90.8200         1.4700         2.1500       0.517600
       2399.50        90.5800         1.4500         2.1900       0.523200
       2400.00        90.3900         1.4300         2.2000       0.530500
       2400.50        89.9700         1.4300         2.2100       0.537600
       2401.00        92.1600         1.4400         2.2400       0.543200
       2401.50        90.2600         1.4700         2.2600       0.552800
       2402.00        82.7100         1.4500         2.2600       0.574800
       2402.50        76.6300         1.4300         2.2600       0.573300
       2403.00        75.9400         1.4300         2.2600       0.552300
       2403.50        75.9300         1.4500         2.2500       0.533900
       2404.00        74.9500         1.4800         2.2200       0.516300
       2404.50        74.6700         1.5000         2.1800       0.513700
       2405.00        79.7300         1.5200         2.1700       0.526100
       2405.50        79.9500         1.5300         2.1600       0.525000
       2406.00        70.2400         1.5600         2.1400       0.513000
       2406.50        69.5100         1.6100         2.1300       0.508000
       2407.00        74.6900         1.6200         2.1300       0.502200
       2407.50        78.3300         1.6200         2.1200       0.502300
       2408.00        70.4300         1.6100         2.1100       0.508600
       2408.50        72.3400         1.6200         2.1100       0.516400
       2409.00        73.6600         1.6200         2.1100       0.523800
       2409.50        75.5000         1.6300         2.1000       0.540700
       2410.00        85.9400         1.6300         2.0900       0.546000
       2410.50        87.1300         1.6300         2.0900       0.541100
       2411.00        85.7400         1.6100         2.0800       0.543800
       2411.50        87.3500         1.6100         1.9800       0.554700
       2412.00        88.4100         1.6100         2.0700       0.571000
       2412.50        84.0200         1.6000         2.2400       0.576300
       2413.00        83.1600         1.5900         2.2900       0.579900
       2413.50        88.5000         1.6000         2.4700       0.580400
       2414.00        91.9600         1.6100         2.7200       0.574400
       2414.50        88.4800         1.6200         2.8100       0.570500
       2415.00        87.6700         1.6200         2.7200       0.576800
       2415.50        84.9400         1.6100         2.6200       0.584300
       2416.00        82.9600         1.6000         2.5900       0.592900
       2416.50        77.9800         1.6000         2.5500       0.600100
       2417.00        77.1000         1.6000         2.4900       0.607100
       2417.50        76.7300         1.5900         2.3500       0.607800
       2418.00        71.3600         1.5800         2.2200       0.609400
       2418.50        71.9700         1.5900         2.1000       0.615300
       2419.00        81.0900         1.5900         2.0600       0.620900
       2419.50        90.3700         1.6000         2.0300       0.616800
       2420.00        93.1900         1.6000         2.0200       0.598400
       2420.50        92.0100         1.6000         2.0300       0.582900
       2421.00        93.1100         1.6100         2.0400       0.586900
       2421.50        93.9000         1.6100         2.0500       0.594300
       2422.00        93.6000         1.6000         2.0500       0.600900
       2422.50        91.6400         1.5900         2.0600       0.607700
       2423.00        92.0000         1.6100         2.0800       0.612300
       2423.50        93.7000         1.6100         2.0800       0.616900
       2424.00        91.6100         1.6200         2.0800       0.620500
       2424.50        90.2300         1.6600         2.0900       0.622800
       2425.00        92.6100         1.6700         2.0800       0.626200
       2425.50        91.4600         1.6600         2.0800       0.628000
       2426.00        87.5300         1.6800         2.0800       0.624300
       2426.50        90.9800         1.7000         2.0800       0.620400
       2427.00        96.1500         1.7000         2.0800       0.610400
       2427.50        93.1100         1.6800         2.0900       0.599600
       2428.00        91.5000         1.6600         2.0900       0.592100
       2428.50        91.6000         1.6200         2.0900       0.588700
       2429.00        88.3600         1.6100         2.0900       0.587200
       2429.50        93.5600         1.6000         2.0800       0.579700
       2430.00        93.2000         1.6000         2.0800       0.571200
       2430.50        87.7400         1.6000         2.0800       0.551800
       2431.00        81.8500         1.5700         2.0800       0.523800
       2431.50        78.1300         1.5400         2.0800       0.516300
       2432.00        75.7800         1.5300         2.0800       0.508000
       2432.50        72.3600         1.5100         2.0800       0.489700
       2433.00        75.5800         1.5100         2.0800       0.483200
       2433.50        76.3300         1.5300         2.0800       0.493000
       2434.00        73.1500         1.5300         2.0800       0.521100
       2434.50        73.5800         1.5200         2.0800       0.529500
       2435.00        75.0800         1.5100         2.0800       0.528900
       2435.50        77.0600         1.5100         2.0900       0.517000
       2436.00        75.7300         1.5000         2.0900       0.505900
       2436.50        75.4600         1.5000         2.0900       0.510700
       2437.00        72.8400         1.4900         2.0900       0.529400
       2437.50        75.7100         1.5000         2.0900       0.530100
       2438.00        71.4200         1.5200         2.0900       0.515200
