~Version Information Block
VERS .                  2.0:  CWLS LOG ASCII STANDARD - VERSION 2.0
WRAP .                   NO:  One line per depth step
~Well Information Block
#MNEM.UNIT        Data Type   Information
#---------- ----------------  -----------
STRT .FT            4582.50:  START DEPTH
STOP .FT           10844.50:  STOP DEPTH
STEP .FT               0.50:  STEP
NULL .              -999.25:  NULL VALUE
COMP .                     :  COMPANY
WELL .               STA-34:  WELL
FLD  .                     :  FIELD
LOC  .                     :  LOCATION
CTRY .                     :  COUNTRY
STAT .                     :  STATE
CNTY .                     :  COUNTY
SRVC .                     :  SERVICE COMPANY
DATE .                     :  DATE
API  .                     :  API NUMBER
UWI  .                     :  UNIQUE WELL ID
~Curve Information Block
#MNEM.UNIT         API CODE   Curve Description
#---------- ----------------  -----------------
DEPTH.FT                   :  Depth
GR   .GAPI                 :  Gamma Ray
RT   .OHMM                 :  True Resistivity
RHOB .G/C3                 :  Bulk Density
NPHI .V/V                  :  Neutron Porosity
~Parameter Information Block
#MNEM.UNIT            Value   Description
#---------- ----------------  -----------
PROJECT.            SANTAN_FE:  
~Other Information Block
# 
~A       DEPTH             GR             RT           RHOB           NPHI 
# ...
      10360.50        64.7801         5.2027         2.7529       0.111800
      10361.00        78.2687         4.4412         2.7263       0.137600
      10361.50        92.9211         4.2967         2.7127       0.151700
      10362.00        93.1726         5.1781         2.7120       0.143100
      10362.50        87.1344         6.5513         2.7088       0.114200
      10363.00        77.0422         7.6991         2.7069       0.082900
      10363.50        53.0782         9.8563         2.7196       0.062400
      10364.00        41.6587        10.4660         2.7420       0.057000
      10364.50        46.0568        10.7509         2.7568       0.059700
      10365.00        51.6744        10.7840         2.7548       0.062800
      10365.50        49.6561        11.0258         2.7462       0.064200
      10366.00        41.7414        11.0984         2.7449       0.068700
      10366.50        45.9119         9.4157         2.7383       0.080600
      10367.00        66.2335         8.0348         2.7153       0.095400
      10367.50        69.5801         8.3581         2.6892       0.101600
      10368.00        66.8379         9.4540         2.6756       0.095000
      10368.50        58.4391        11.8720         2.6796       0.082300
      10369.00        43.5799        13.6251         2.6881       0.068400
      10369.50        31.9211        15.2382         2.7031       0.057800
      10370.00        30.6530        15.8678         2.7248       0.052200
      10370.50        38.7424        15.8970         2.7302       0.052000
      10371.00        43.6473        15.5651         2.7179       0.054300
      10371.50        35.7406        13.9245         2.6947       0.058500
      10372.00        27.9961        12.1072         2.6622       0.064300
      10372.50        24.2231        10.1610         2.6303       0.075200
      10373.00        26.3667         9.2427         2.6027       0.097400
      10373.50        25.8814         8.1704         2.5668       0.115000
      10374.00        26.3935         6.9224         2.4993       0.116600
      10374.50        23.8128         6.2035         2.4433       0.105900
      10375.00        21.9078         6.1217         2.4456       0.096300
      10375.50        25.6055         6.2798         2.4934       0.096800
      10376.00        26.6058         6.2635         2.5328       0.102100
      10376.50        30.6766         6.3422         2.5377       0.107200
      10377.00        32.5713         6.5370         2.5227       0.108100
      10377.50        29.5382         6.9049         2.5045       0.105800
      10378.00        28.7126         7.2109         2.4892       0.104400
      10378.50        30.3500         7.6292         2.4741       0.104200
      10379.00        28.3150         8.2596         2.4819       0.101300
      10379.50        27.1437         9.3964         2.5053       0.093100
      10380.00        25.4971        11.2914         2.5299       0.079400
      10380.50        26.8293        13.3168         2.5594       0.065300
      10381.00        30.1999        15.1190         2.5961       0.058600
      10381.50        32.5303        16.2620         2.6266       0.058000
      10382.00        34.9019        16.2942         2.6326       0.060800
      10382.50        37.2012        15.9910         2.6280       0.065600
      10383.00        34.0824        14.8052         2.6167       0.071900
      10383.50        29.2550        14.2355         2.6004       0.078200
      10384.00        27.4700        13.9415         2.5904       0.082600
      10384.50        27.2387        13.3696         2.5878       0.084000
      10385.00        28.6897        12.1337         2.5865       0.084000
      10385.50        30.9111        12.0482         2.5857       0.084800
      10386.00        31.2789        12.1143         2.5844       0.087100
      10386.50        28.2471        12.0460         2.5733       0.092100
      10387.00        27.9566        11.6859         2.5512       0.099100
      10387.50        29.4698        11.4255         2.5385       0.103000
      10388.00        29.9976        11.5107         2.5450       0.101800
      10388.50        30.3629        11.3175         2.5561       0.099400
      10389.00        31.6907        11.1960         2.5563       0.099900
      10389.50        33.1920        10.8216         2.5445       0.100800
      10390.00        34.9616        10.4111         2.5424       0.099000
      10390.50        39.6149        10.4980         2.5605       0.093700
      10391.00        41.8576        10.5037         2.5867       0.086000
      10391.50        43.1034        10.8552         2.6034       0.083600
      10392.00        39.2645        10.9464         2.5946       0.089900
      10392.50        31.4355        10.5826         2.5637       0.101800
      10393.00        28.0911        10.2094         2.5333       0.112100
      10393.50        27.9474        10.2889         2.5196       0.115400
      10394.00        26.4695        10.3324         2.5231       0.112100
      10394.50        27.8571        10.7752         2.5374       0.102300
      10395.00        30.2277        11.7577         2.5536       0.088100
      10395.50        28.9802        12.8750         2.5714       0.077100
      10396.00        31.0138        13.8494         2.6147       0.077600
      10396.50        43.5650        13.9879         2.6717       0.092700
      10397.00        65.2715        12.5580         2.7007       0.113500
      10397.50        80.1040        10.3534         2.6981       0.123000
      10398.00        81.6318         9.9644         2.7012       0.112700
      10398.50        78.6405        10.7668         2.7198       0.091100
      10399.00        64.0168        12.7208         2.7471       0.073000
      10399.50        55.1091        14.2633         2.7630       0.067100
      10400.00        47.5886        14.2503         2.7434       0.072900
      10400.50        41.5795        13.1587         2.7138       0.085300
      10401.00        56.9410         9.8845         2.6876       0.099300
      10401.50        65.0883         6.7103         2.6615       0.111500
      10402.00        67.1153         5.7090         2.6425       0.120000
      10402.50        72.2486         5.2361         2.6290       0.126900
      10403.00        72.5773         4.4656         2.6137       0.136900
      10403.50        80.8274         3.9430         2.6123       0.149800
      10404.00        83.4643         3.6260         2.6308       0.160700
      10404.50        91.2635         3.5235         2.6451       0.164100
      10405.00        91.4518         3.3856         2.6418       0.157900
      10405.50        86.2364         3.5032         2.6352       0.146800
      10406.00        84.2549         3.6563         2.6409       0.139100
      10406.50        78.9326         3.8236         2.6482       0.135600
      10407.00        74.8089         3.9475         2.6389       0.132800
      10407.50        72.6084         3.9618         2.6208       0.131400
      10408.00        67.1023         3.9374         2.6036       0.134100
      10408.50        53.9929         3.8103         2.5693       0.137500
      10409.00        44.1399         3.6457         2.5267       0.134400
      10409.50        38.2712         3.7181         2.5161       0.132100
      10410.00        38.6490         3.7906         2.5187       0.132700
      10410.50        40.2181         3.2748         2.4935       0.133300
      10411.00        41.3997         3.3535         2.4714       0.137100
      10411.50        40.9706         3.5785         2.4851       0.145400
      10412.00        44.3666         3.4445         2.5061       0.149800
      10412.50        51.4833         3.2919         2.5124       0.149700
      10413.00        62.1577         3.5496         2.5248       0.150800
      10413.50        67.1191         3.6822         2.5540       0.152300
