~Version Information Block
VERS .                  2.0:  CWLS LOG ASCII STANDARD - VERSION 2.0
WRAP .                   NO:  One line per depth step
~Well Information Block
#MNEM.UNIT        Data Type   Information
#---------- ----------------  -----------
STRT .FT             780.00:  START DEPTH
STOP .FT            8996.00:  STOP DEPTH
STEP .FT               0.50:  STEP
NULL .              -999.25:  NULL VALUE
COMP .                     :  COMPANY
WELL .                STA-4:  WELL
FLD  .                     :  FIELD
LOC  .                     :  LOCATION
CTRY .                     :  COUNTRY
STAT .                     :  STATE
CNTY .                     :  COUNTY
SRVC .                     :  SERVICE COMPANY
DATE .                     :  DATE
API  .                     :  API NUMBER
UWI  .                     :  UNIQUE WELL ID
~Curve Information Block
#MNEM.UNIT         API CODE   Curve Description
#---------- ----------------  -----------------
DEPTH.FT                   :  DEPTH
GR   .GAPI                 :  Gamma Ray
RT   .OHMM                 :  SEDP
RHOB .G/C3                 :  Bulk Density
NPHI .V/V                  :  Neutron porosity
~Parameter Information Block
#MNEM.UNIT            Value   Description
#---------- ----------------  -----------
PROJECT.            SANTAN_FE:  
~Other Information Block
# 
~A       DEPTH             GR             RT           RHOB           NPHI 
# ...
       5648.50        66.6300         3.3200         2.3269       0.354000
       5649.00        67.3700         3.2300         2.3028       0.360500
       5649.50        57.7200         3.2600         2.2914       0.363600
       5650.00        58.0100         3.3400         2.2900       0.350800
       5650.50        60.5400         3.4400         2.3245       0.303000
       5651.00        57.1600         3.6300         2.3818       0.258200
       5651.50        51.9600         4.4300         2.4159       0.224400
       5652.00        51.4300         4.6100         2.4372       0.208600
       5652.50        59.0100         4.6000         2.4486       0.206200
       5653.00        57.9000         4.6600         2.4586       0.209700
       5653.50        53.2700         4.8000         2.4600       0.212700
       5654.00        51.2800         4.9500         2.4600       0.212800
       5654.50        49.6400         5.5000         2.4686       0.209600
       5655.00        50.9400         5.6000         2.4700       0.211400
       5655.50        50.8600         5.6000         2.4700       0.217000
       5656.00        47.5200         5.7000         2.4614       0.221400
       5656.50        44.6300         5.8200         2.4428       0.217500
       5657.00        43.2900         5.7800         2.4400       0.207900
       5657.50        37.9500         5.7500         2.4486       0.193200
       5658.00        35.9900         5.7900         2.4586       0.181100
       5658.50        33.7100         5.7700         2.4686       0.181700
       5659.00        32.9600         5.6100         2.4700       0.192900
       5659.50        30.5300         5.1500         2.4700       0.208500
       5660.00        31.0700         4.8700         2.4528       0.234500
       5660.50        34.5800         4.7300         2.4414       0.259400
       5661.00        37.6600         4.4800         2.4314       0.287400
       5661.50        39.1200         4.1700         2.4128       0.306900
       5662.00        43.1200         3.9200         2.3928       0.317200
       5662.50        44.6200         3.7200         2.3900       0.314100
       5663.00        47.7900         3.6300         2.3900       0.295400
       5663.50        47.8800         3.5600         2.3986       0.273500
       5664.00        45.6600         3.5200         2.4000       0.259300
       5664.50        45.6200         3.4900         2.4000       0.261300
       5665.00        45.8700         3.4400         2.4000       0.272100
       5665.50        42.6200         3.3100         2.4000       0.284800
       5666.00        42.6300         3.2300         2.3914       0.297800
       5666.50        50.2800         3.2000         2.3900       0.310800
       5667.00        50.0800         3.1900         2.3814       0.322000
       5667.50        41.6700         3.1400         2.3800       0.333900
       5668.00        41.6400         3.0600         2.3800       0.328600
       5668.50        43.2500         3.0400         2.3886       0.318300
       5669.00        42.1300         3.1000         2.3986       0.308300
       5669.50        40.7600         3.0900         2.4000       0.305100
       5670.00        40.8600         2.9400         2.4172       0.296500
       5670.50        40.9700         3.0200         2.4457       0.281100
       5671.00        38.9300         3.2700         2.4672       0.270700
       5671.50        38.1900         3.3900         2.4700       0.263700
       5672.00        41.3600         3.4400         2.4614       0.271100
       5672.50        44.4600         3.5400         2.4429       0.288100
       5673.00        45.5200         3.4900         2.4057       0.324700
       5673.50        45.5700         3.1900         2.3657       0.365100
       5674.00        46.6900         2.9400         2.3257       0.398700
       5674.50        48.3200         2.6800         2.2943       0.409600
       5675.00        54.3300         2.4900         2.2814       0.402700
       5675.50        56.2500         2.3300         2.2886       0.390900
       5676.00        58.6100         2.2300         2.2900       0.382800
       5676.50        62.3000         2.1300         2.2986       0.394800
       5677.00        67.6700         2.0600         2.3000       0.407400
       5677.50        66.5800         1.9600         2.3000       0.410000
       5678.00        64.7000         1.8800         2.3000       0.401500
       5678.50        69.9000         1.7800         2.3086       0.392800
       5679.00        70.6200         1.7400         2.3186       0.385900
       5679.50        76.8800         1.6900         2.3114       0.379000
       5680.00        79.1700         1.6700         2.3186       0.380200
       5680.50        85.8900         1.6600         2.3200       0.391600
       5681.00        86.0500         1.6500         2.3286       0.399200
       5681.50        86.5000         1.6500         2.3214       0.408800
       5682.00        86.5800         1.6400         2.3200       0.418500
       5682.50        83.3500         1.6400         2.3115       0.417700
       5683.00        84.0000         1.6500         2.3185       0.422300
       5683.50        85.4400         1.6800         2.3200       0.427100
       5684.00        84.8600         1.7100         2.3285       0.426700
       5684.50        78.8800         1.7700         2.3385       0.407900
       5685.00        76.2900         1.8500         2.3315       0.384600
       5685.50        75.1300         1.9000         2.3215       0.363100
       5686.00        74.1200         1.9300         2.3200       0.346200
       5686.50        68.6100         1.9800         2.2944       0.335900
       5687.00        66.3200         2.0100         2.2558       0.331900
       5687.50        66.0800         2.0300         2.2244       0.325500
       5688.00        57.6600         2.0500         2.2200       0.324200
       5688.50        60.0400         2.0900         2.2285       0.328900
       5689.00        66.5400         2.1200         2.2471       0.336300
       5689.50        66.8000         2.1500         2.2585       0.334000
       5690.00        67.0300         2.1500         2.2600       0.334900
       5690.50        70.0300         2.1400         2.2685       0.332400
       5691.00        64.9900         2.1200         2.2871       0.321600
       5691.50        61.6500         2.0900         2.2985       0.314500
       5692.00        62.6000         2.0700         2.3000       0.315300
       5692.50        60.5900         2.0400         2.2915       0.321300
       5693.00        59.6000         2.0000         2.2985       0.331300
       5693.50        63.6600         1.9800         2.3000       0.343600
       5694.00        62.1600         1.9500         2.3085       0.354400
       5694.50        61.5200         1.9000         2.3100       0.363200
       5695.00        65.3000         1.8500         2.3100       0.367000
       5695.50        69.9300         1.8100         2.3100       0.378800
       5696.00        74.8200         1.7600         2.3100       0.390200
       5696.50        80.2300         1.7000         2.3185       0.398300
       5697.00        82.8900         1.6500         2.3200       0.402900
       5697.50        82.1300         1.6000         2.3285       0.403900
       5698.00        84.7500         1.5800         2.3385       0.406700
       5698.50        86.9300         1.5800         2.3315       0.411600
       5699.00        88.7400         1.5600         2.3215       0.421000
       5699.50        92.1200         1.5700         2.3200       0.432600
       5700.00        92.4900         1.6000         2.3285       0.444700
       5700.50        86.8900         1.6600         2.3385       0.433000
       5701.00        84.0600         1.7100         2.3400       0.418900
       5701.50        80.6400         1.7500         2.3315       0.403100
