~Version Information Block
VERS .                  2.0:  CWLS LOG ASCII STANDARD - VERSION 2.0
WRAP .                   NO:  One line per depth step
~Well Information Block
#MNEM.UNIT        Data Type   Information
#---------- ----------------  -----------
STRT .FT            4880.50:  START DEPTH
STOP .FT           10428.00:  STOP DEPTH
STEP .FT               0.50:  STEP
NULL .              -999.25:  NULL VALUE
COMP .                     :  COMPANY
WELL .                STA-3:  WELL
FLD  .                     :  FIELD
LOC  .                     :  LOCATION
CTRY .                     :  COUNTRY
STAT .                     :  STATE
CNTY .                     :  COUNTY
SRVC .                     :  SERVICE COMPANY
DATE .                     :  DATE
API  .                     :  API NUMBER
UWI  .                     :  UNIQUE WELL ID
~Curve Information Block
#MNEM.UNIT         API CODE   Curve Description
#---------- ----------------  -----------------
DEPTH.FT                   :  DEPTH
GR   .GAPI                 :  Gamma Ray
RT   .OHMM                 :  Deep resistivity
RHOB .G/C3                 :  Bulk Density
NPHI .V/V                  :  Neutron porosity
DT   .US/F                 :  Sonic
~Parameter Information Block
#MNEM.UNIT            Value   Description
#---------- ----------------  -----------
PROJECT.            SANTAN_FE:  
~Other Information Block
# 
~A       DEPTH             GR             RT           RHOB           NPHI             DT 
# ...
       9998.00        87.4551         2.9173         2.5678       0.190900        79.3000
       9998.50        86.0094         3.1042         2.5497       0.180200        78.8000
       9999.00        87.0566         3.2466         2.5414       0.179900        77.8500
       9999.50        86.4081         3.4529         2.5431       0.178000        77.7000
      10000.00        89.6961         3.3214         2.5629       0.190200        78.2500
      10000.50        94.2963         2.8524         2.5700       0.196300        79.5000
      10001.00       103.4515         2.5624         2.5807       0.199100        80.6000
      10001.50       108.1867         2.6058         2.5551       0.207700        81.7000
      10002.00       109.4992         2.1860         2.5470       0.233000        83.8000
      10002.50       112.2539         2.0085         2.5446       0.263600        86.2000
      10003.00       120.7433         1.8586         2.5416       0.280600        88.7000
      10003.50       118.5333         1.7247         2.5541       0.280300        90.6000
      10004.00       119.2191         1.6219         2.5672       0.287900        91.9000
      10004.50       113.7887         1.5813         2.5768       0.294600        92.7500
      10005.00       117.5758         1.6266         2.5697       0.304500        92.6000
      10005.50       120.4586         1.6921         2.5588       0.305900        93.4000
      10006.00       122.0755         1.6646         2.5622       0.303300        93.9000
      10006.50       118.3363         1.6022         2.5747       0.277000        91.9500
      10007.00        97.5866         1.7819         2.6006       0.232500        87.2500
      10007.50        80.6989         2.8457         2.6063       0.185100        81.6000
      10008.00        75.1469         4.4604         2.5845       0.165300        77.8000
      10008.50        84.9959         3.6089         2.5577       0.174000        77.1500
      10009.00        97.8540         3.0323         2.5461       0.195600        78.2000
      10009.50       100.4053         2.8005         2.5558       0.215800        81.4000
      10010.00       103.3116         2.7116         2.5671       0.219700        82.9000
      10010.50       105.6048         2.4990         2.5781       0.232700        84.4500
      10011.00       112.4776         2.1642         2.5718       0.245700        86.7000
      10011.50       118.4566         2.0064         2.5711       0.272100        88.4500
      10012.00       116.2775         1.8490         2.5676       0.286100        89.7000
      10012.50       119.5595         1.7903         2.5670       0.287900        90.7500
      10013.00       118.4757         1.8426         2.5604       0.276100        90.4500
      10013.50       125.0305         1.8075         2.5509       0.275500        90.3500
      10014.00       121.8814         1.8231         2.5527       0.274500        89.8000
      10014.50       120.5616         1.9224         2.5622       0.266300        89.6000
      10015.00       120.2285         1.9511         2.5734       0.256400        89.2500
      10015.50       124.4131         1.9012         2.5769       0.261000        89.1000
      10016.00       128.1454         1.9383         2.5677       0.268600        88.6000
      10016.50       121.3923         1.9877         2.5612       0.268500        88.9000
      10017.00       122.1228         1.9572         2.5598       0.271200        89.5000
      10017.50       115.9916         1.9019         2.5688       0.269800        88.3500
      10018.00       115.0188         2.1352         2.5790       0.260500        85.9500
      10018.50       104.0046         2.9751         2.5859       0.244700        83.0000
      10019.00        98.6737         2.7781         2.5885       0.244300        81.1000
      10019.50        96.0430         2.7687         2.5922       0.238500        81.7000
      10020.00        98.1813         2.5897         2.5847       0.233000        82.6000
      10020.50       104.1418         2.4430         2.5804       0.226200        82.8000
      10021.00       106.2132         2.4415         2.5652       0.232900        82.9000
      10021.50       108.4586         2.5336         2.5639       0.229200        81.4500
      10022.00        96.9005         2.8365         2.5691       0.202300        78.3000
      10022.50        87.2544         4.1958         2.5705       0.166900        76.0000
      10023.00        75.4471         5.2710         2.5474       0.152200        75.1000
      10023.50        76.2191         4.0833         2.5168       0.157100        74.9500
      10024.00        76.1805         3.7336         2.5157       0.166300        76.7500
      10024.50        81.5210         3.5671         2.5229       0.168000        78.0000
      10025.00        86.3464         3.8031         2.5350       0.167300        77.6000
      10025.50        85.0381         3.7586         2.4952       0.173200        79.0000
      10026.00        75.8469         3.6899         2.4669       0.182100        81.3000
      10026.50        63.1760         6.6490         2.4198       0.186500        83.7000
      10027.00        60.0758         5.9763         2.3915       0.197600        85.3500
      10027.50        55.8976         5.6385         2.3692       0.188700        85.0000
      10028.00        53.7316         7.8850         2.3977       0.164500        81.2000
      10028.50        49.4353        10.2500         2.4427       0.138000        77.1000
      10029.00        50.5498         9.9172         2.4781       0.142600        77.1000
      10029.50        54.0374         5.7215         2.4650       0.173000        77.6500
      10030.00        62.0634         5.2344         2.4568       0.195200        80.7500
      10030.50        68.1233         3.5218         2.4507       0.218300        85.9000
      10031.00        70.6764         3.7371         2.4520       0.222400        85.9000
      10031.50        71.0253         4.0272         2.4351       0.223200        85.2000
      10032.00        80.1016         4.9021         2.4582       0.218900        85.9500
      10032.50        91.0127         3.1362         2.5007       0.219700        85.7500
      10033.00       103.5276         2.8377         2.5340       0.226500        85.3000
      10033.50       110.2909         2.6457         2.5418       0.211200        84.3000
      10034.00       111.1700         2.9773         2.5447       0.213800        81.8500
      10034.50       106.1994         3.2327         2.5393       0.212700        79.9500
      10035.00       102.6350         3.3315         2.5510       0.219200        78.5500
      10035.50        99.2139         3.2771         2.5495       0.219300        78.8000
      10036.00       105.9165         3.3416         2.5491       0.214700        79.5000
      10036.50       109.7069         3.2724         2.5474       0.223000        81.4000
      10037.00       117.8055         2.8581         2.5489       0.226400        83.1000
      10037.50       117.2367         2.5387         2.5631       0.228500        84.9000
      10038.00       118.6562         2.3319         2.5673       0.227300        86.2000
      10038.50       120.0343         2.3615         2.5726       0.236900        87.5500
      10039.00       117.9401         2.1541         2.5663       0.255700        88.3500
      10039.50       114.7371         1.9871         2.5725       0.277100        89.9000
      10040.00       116.1548         1.8746         2.5528       0.287400        91.1500
      10040.50       124.5984         1.8509         2.5562       0.302700        91.2500
      10041.00       121.8667         1.8238         2.5649       0.288100        89.5000
      10041.50       112.4977         2.0591         2.5800       0.262400        86.2000
      10042.00       101.3083         3.0294         2.5808       0.226300        83.3500
