~Version Information Block
VERS .                  2.0:  CWLS LOG ASCII STANDARD - VERSION 2.0
WRAP .                   NO:  One line per depth step
~Well Information Block
#MNEM.UNIT        Data Type   Information
#---------- ----------------  -----------
STRT .FT            5000.50:  START DEPTH
STOP .FT           14504.00:  STOP DEPTH
STEP .FT               0.50:  STEP
NULL .              -999.25:  NULL VALUE
COMP .                     :  COMPANY
WELL .               STA-18:  WELL
FLD  .                     :  FIELD
LOC  .                     :  LOCATION
CTRY .                     :  COUNTRY
STAT .                     :  STATE
CNTY .                     :  COUNTY
SRVC .                     :  SERVICE COMPANY
DATE .                     :  DATE
API  .                     :  API NUMBER
UWI  .                     :  UNIQUE WELL ID
~Curve Information Block
#MNEM.UNIT         API CODE   Curve Description
#---------- ----------------  -----------------
DEPTH.FT                   :  DEPTH
GR   .GAPI                 :  Gamma Ray
RT   .OHMM                 :  SEDP
RHOB .G/C3                 :  Bulk Density
NPHI .V/V                  :  Neutron porosity
~Parameter Information Block
#MNEM.UNIT            Value   Description
#---------- ----------------  -----------
PROJECT.            SANTAN_FE:  
~Other Information Block
# 
~A       DEPTH             GR             RT           RHOB           NPHI 
# ...
      11313.50       106.5200         4.1200         2.5712       0.197000
      11314.00        99.4500         4.2700         2.5770       0.190500
      11314.50        86.0000         4.4700         2.5946       0.182000
      11315.00        77.9100         4.6100         2.6041       0.175200
      11315.50        72.9500         4.7100         2.5871       0.164500
      11316.00        68.6300         4.8700         2.5647       0.150500
      11316.50        67.8500         5.0800         2.5600       0.135600
      11317.00        68.2300         5.2200         2.5600       0.126400
      11317.50        72.3000         5.1000         2.5565       0.129100
      11318.00        82.1700         4.8900         2.5441       0.136800
      11318.50        91.1500         4.7000         2.5252       0.145600
      11319.00        93.4300         4.5600         2.5088       0.159100
      11319.50        98.9400         4.4600         2.5083       0.171600
      11320.00        94.7600         4.4400         2.5213       0.176600
      11320.50        84.3000         4.4200         2.5324       0.171600
      11321.00        87.4800         4.4300         2.5317       0.168500
      11321.50        92.1000         4.4200         2.5151       0.164900
      11322.00        95.3300         4.3600         2.5023       0.165300
      11322.50        93.2900         4.2600         2.5036       0.168700
      11323.00        86.3300         4.1300         2.5125       0.171200
      11323.50        87.5800         3.9800         2.5189       0.171300
      11324.00        89.7100         3.8300         2.5309       0.167400
      11324.50        84.4700         3.6500         2.5466       0.163900
      11325.00        67.0800         3.4300         2.5354       0.165200
      11325.50        64.9500         3.1800         2.5035       0.167200
      11326.00        57.9400         2.8000         2.4723       0.171400
      11326.50        51.3400         2.4000         2.4239       0.177100
      11327.00        51.6300         2.2300         2.3641       0.182400
      11327.50        54.4100         2.2000         2.3344       0.188900
      11328.00        51.9000         2.2000         2.3300       0.201600
      11328.50        52.2000         2.1200         2.3300       0.212700
      11329.00        53.4700         2.1600         2.3263       0.210300
      11329.50        54.1700         2.5700         2.3285       0.182000
      11330.00        57.2200         3.2800         2.3825       0.141200
      11330.50        75.4100         3.5000         2.4732       0.119700
      11331.00        95.5500         3.4600         2.5225       0.132500
      11331.50       110.0400         3.3800         2.5300       0.172000
      11332.00       113.6000         3.4000         2.5338       0.206100
      11332.50       115.9300         3.5600         2.5465       0.222500
      11333.00       117.7400         3.6300         2.5541       0.222300
      11333.50       116.7200         3.6000         2.5473       0.220500
      11334.00       110.3700         3.5800         2.5448       0.223500
      11334.50       113.2100         3.5900         2.5528       0.226200
      11335.00        99.7600         3.7300         2.5590       0.217800
      11335.50        91.7700         3.9300         2.5600       0.195700
      11336.00        88.7600         4.1600         2.5600       0.181600
      11336.50        86.2300         4.2700         2.5523       0.172600
      11337.00        91.8000         4.2600         2.5497       0.173600
      11337.50       103.2500         4.2400         2.5541       0.180800
      11338.00       104.9900         4.1700         2.5510       0.184900
      11338.50       105.8100         4.1300         2.5500       0.189800
      11339.00       107.2200         4.1100         2.5500       0.193200
      11339.50       110.5800         4.1000         2.5539       0.193300
      11340.00       104.8800         4.1700         2.5590       0.190700
      11340.50       102.5000         4.2200         2.5561       0.183500
      11341.00       101.6800         4.2400         2.5471       0.177900
      11341.50       103.6800         4.2400         2.5410       0.184200
      11342.00       108.4400         4.2200         2.5439       0.188200
      11342.50       114.7500         4.1900         2.5490       0.185800
      11343.00       111.5700         4.2000         2.5500       0.184000
      11343.50       110.5000         4.2600         2.5539       0.183800
      11344.00        99.0600         4.3100         2.5590       0.182400
      11344.50        99.5000         4.4000         2.5560       0.177400
      11345.00       104.0000         4.4600         2.5549       0.169500
      11345.50        98.5500         4.5000         2.5511       0.164300
      11346.00        90.7600         4.4900         2.5459       0.168300
      11346.50        87.8500         4.4400         2.5530       0.171900
      11347.00       100.0000         4.3800         2.5551       0.175700
      11347.50        93.4200         4.2500         2.5549       0.181200
      11348.00        96.1900         4.1800         2.5591       0.189100
      11348.50        94.1200         4.1600         2.5600       0.186200
      11349.00        98.1900         4.2500         2.5600       0.175800
      11349.50        95.2700         4.3000         2.5560       0.166500
      11350.00        99.0000         4.2800         2.5509       0.169000
      11350.50       101.2800         4.1800         2.5500       0.179400
      11351.00       110.9200         4.0900         2.5459       0.187500
      11351.50       110.6200         4.1200         2.5450       0.190500
      11352.00       113.8600         4.1800         2.5450       0.191700
      11352.50       115.0400         4.2100         2.5450       0.198000
      11353.00       104.6400         4.1800         2.5491       0.207700
      11353.50       100.9300         4.2300         2.5459       0.216000
      11354.00       100.5100         4.2800         2.5409       0.214200
      11354.50       104.9000         4.3100         2.5482       0.210200
      11355.00       101.7900         4.4000         2.5541       0.200800
      11355.50        97.1700         4.5200         2.5509       0.189000
      11356.00        90.2600         4.6600         2.5500       0.179900
      11356.50        78.9200         4.8400         2.5500       0.171300
      11357.00        74.3500         5.0000         2.5500       0.161700
      11357.50        73.0500         5.1700         2.5500       0.153400
      11358.00        75.2200         5.2900         2.5500       0.149400
      11358.50        75.9300         5.2700         2.5500       0.150400
      11359.00        78.8700         5.1100         2.5500       0.155300
      11359.50        72.4800         4.9600         2.5542       0.161300
      11360.00        72.0000         4.8500         2.5591       0.161100
      11360.50        71.3600         4.8500         2.5516       0.152700
      11361.00        73.5000         4.8700         2.5291       0.143200
      11361.50        73.1600         4.8700         2.5041       0.141300
      11362.00        82.5400         4.8500         2.4832       0.145500
      11362.50        92.6300         4.7300         2.4717       0.154100
      11363.00        96.7800         4.5500         2.4743       0.163300
      11363.50        95.3000         4.3600         2.5004       0.168600
      11364.00        93.5600         4.1700         2.5343       0.172200
      11364.50       100.0800         4.0400         2.5569       0.169700
      11365.00        87.1200         3.9400         2.5598       0.166900
      11365.50        72.1600         3.8800         2.5388       0.163200
      11366.00        65.4000         3.7000         2.5053       0.157500
      11366.50        63.4000         3.3700         2.4661       0.159500
