~Version Information Block
VERS .                  2.0:  CWLS LOG ASCII STANDARD - VERSION 2.0
WRAP .                   NO:  One line per depth step
~Well Information Block
#MNEM.UNIT        Data Type   Information
#---------- ----------------  -----------
STRT .FT             780.00:  START DEPTH
STOP .FT            8996.00:  STOP DEPTH
STEP .FT               0.50:  STEP
NULL .              -999.25:  NULL VALUE
COMP .                     :  COMPANY
WELL .                STA-4:  WELL
FLD  .                     :  FIELD
LOC  .                     :  LOCATION
CTRY .                     :  COUNTRY
STAT .                     :  STATE
CNTY .                     :  COUNTY
SRVC .                     :  SERVICE COMPANY
DATE .                     :  DATE
API  .                     :  API NUMBER
UWI  .                     :  UNIQUE WELL ID
~Curve Information Block
#MNEM.UNIT         API CODE   Curve Description
#---------- ----------------  -----------------
DEPTH.FT                   :  DEPTH
GR   .GAPI                 :  Gamma Ray
RT   .OHMM                 :  SEDP
RHOB .G/C3                 :  Bulk Density
NPHI .V/V                  :  Neutron porosity
~Parameter Information Block
#MNEM.UNIT            Value   Description
#---------- ----------------  -----------
PROJECT.            SANTAN_FE:  
~Other Information Block
# 
~A       DEPTH             GR             RT           RHOB           NPHI 
# ...
       6718.50       135.0000         1.9700         2.1562       0.408800
       6719.00       124.6400         1.9000         2.1662       0.412100
       6719.50       121.0000         1.8500         2.1762       0.414200
       6720.00       114.9600         1.8100         2.1923       0.416000
       6720.50       113.5300         1.7900         2.2123       0.415500
       6721.00       115.6400         1.8000         2.2324       0.410300
       6721.50       116.6300         1.8400         2.2523       0.399900
       6722.00       115.6300         1.8600         2.2662       0.391500
       6722.50       109.9700         1.9100         2.2762       0.390600
       6723.00       108.2400         1.9700         2.2800       0.389100
       6723.50       104.4200         2.0400         2.2800       0.385300
       6724.00       101.9400         2.1200         2.2677       0.389900
       6724.50        94.7800         2.2500         2.2662       0.399100
       6725.00        93.0900         2.4000         2.2762       0.402000
       6725.50        92.0800         2.5400         2.2800       0.402600
       6726.00        88.9100         2.7700         2.2738       0.404400
       6726.50        87.6700         3.0100         2.2762       0.407200
       6727.00        84.8200         3.3600         2.2862       0.420800
       6727.50        80.6800         3.7700         2.2592       0.453500
       6728.00        69.7100         4.1000         2.2031       0.479400
       6728.50        65.5400         4.3800         2.1923       0.456000
       6729.00        64.0500         5.0300         2.2431       0.381400
       6729.50        57.4400         6.4000         2.3131       0.305300
       6730.00        53.8000         7.1100         2.3708       0.257100
       6730.50        57.1000         7.6500         2.4023       0.235700
       6731.00        58.4100         8.1000         2.3916       0.231200
       6731.50        61.0700         8.4400         2.3677       0.233100
       6732.00        62.4700         8.6800         2.3600       0.237400
       6732.50        69.1600         8.8500         2.3784       0.251600
       6733.00        69.8500         9.0500         2.3593       0.284300
       6733.50        62.6000         9.4000         2.3093       0.329300
       6734.00        64.3800         9.8600         2.2470       0.361900
       6734.50        67.7500        10.3200         2.1893       0.369500
       6735.00        70.7900        10.5700         2.1270       0.349600
       6735.50        68.3900        10.7300         2.0877       0.327900
       6736.00        64.8000        10.9000         2.1353       0.310600
       6736.50        64.0800        10.7400         2.2129       0.293900
       6737.00        68.0600        10.5400         2.2523       0.264400
       6737.50        64.8900        10.4000         2.2600       0.230300
       6738.00        62.8900        10.3200         2.2845       0.207000
       6738.50        59.3100        10.2300         2.3430       0.197900
       6739.00        56.6500        10.1400         2.3884       0.200900
       6739.50        54.2800        10.0100         2.4061       0.221900
       6740.00        54.4300         9.8600         2.4039       0.250000
       6740.50        55.2900         9.6600         2.3939       0.294400
       6741.00        56.5600         9.3500         2.3716       0.357900
       6741.50        63.3400         8.9500         2.3110       0.408100
       6742.00        65.6800         8.7100         2.2004       0.423400
       6742.50        65.5100         8.6700         2.1316       0.407700
       6743.00        70.1300         8.4700         2.1690       0.389000
       6743.50        76.6400         8.1700         2.2245       0.373500
       6744.00        68.7900         7.9900         2.2461       0.359800
       6744.50        61.1300         7.9200         2.2622       0.348700
       6745.00        56.9300         7.8900         2.2761       0.342400
       6745.50        48.9100         7.8600         2.2800       0.341400
       6746.00        39.9500         7.8400         2.2800       0.344000
       6746.50        32.8100         7.9400         2.2800       0.350800
       6747.00        32.4100         8.2800         2.2739       0.356400
       6747.50        28.2100         8.3400         2.2700       0.353100
       6748.00        24.6200         8.2400         2.2700       0.344500
       6748.50        23.9400         8.1300         2.2761       0.338700
       6749.00        24.9300         8.0000         2.2800       0.336500
       6749.50        23.4900         7.8100         2.2800       0.335400
       6750.00        27.6500         7.5200         2.2800       0.332300
       6750.50        29.9300         7.2200         2.2861       0.324900
       6751.00        29.5900         7.0600         2.3022       0.316900
       6751.50        33.4400         6.8800         2.3161       0.312900
       6752.00        38.7400         6.5900         2.3322       0.313300
       6752.50        47.2800         6.4800         2.3461       0.317500
       6753.00        59.1800         6.4600         2.3744       0.317300
       6753.50        44.4400         6.4100         2.4022       0.300600
       6754.00        42.0300         6.5000         2.4222       0.277900
       6754.50        43.8300         6.5700         2.4422       0.262800
       6755.00        45.9900         6.5500         2.4561       0.253100
       6755.50        46.7000         6.5100         2.4661       0.247900
       6756.00        48.2500         6.4800         2.4639       0.251000
       6756.50        51.1000         6.4200         2.4539       0.262800
       6757.00        53.5300         6.2300         2.4561       0.270500
       6757.50        52.0300         6.2100         2.4722       0.266800
       6758.00        47.4200         6.5300         2.4922       0.257000
       6758.50        43.6100         7.0100         2.5061       0.253300
       6759.00        44.0000         7.3400         2.5161       0.257000
       6759.50        42.9200         7.4600         2.5261       0.268200
       6760.00        41.6000         7.3800         2.5361       0.289200
       6760.50        41.2600         7.4900         2.5339       0.305500
       6761.00        42.1600         7.7000         2.5361       0.301400
       6761.50        42.4700         7.6900         2.5522       0.284300
       6762.00        43.0600         7.7600         2.5600       0.251700
       6762.50        46.4000         7.5400         2.5539       0.220100
       6763.00        47.5000         7.3900         2.5439       0.206000
       6763.50        46.5200         7.4100         2.5461       0.204700
       6764.00        47.7100         7.3500         2.5622       0.206200
       6764.50        49.6400         7.2100         2.5700       0.208900
       6765.00        45.0600         7.0300         2.5639       0.216700
       6765.50        44.8700         6.9200         2.5721       0.221300
       6766.00        53.4900         6.7700         2.5739       0.215500
       6766.50        54.8400         6.6400         2.5578       0.205200
       6767.00        52.7700         6.3600         2.5318       0.191000
       6767.50        53.6000         5.7700         2.5139       0.172400
       6768.00        56.5300         5.3100         2.5039       0.157500
       6768.50        59.7900         4.9500         2.5000       0.152000
       6769.00        59.6100         4.5400         2.4879       0.158300
       6769.50        58.8700         4.2300         2.4557       0.179900
       6770.00        58.5100         3.9500         2.4036       0.211700
       6770.50        59.5400         3.6700         2.3679       0.241000
       6771.00        58.2600         3.5200         2.3661       0.269300
       6771.50        58.4300         3.4400         2.3821       0.298600
