~Version Information Block
VERS .                  2.0:  CWLS LOG ASCII STANDARD - VERSION 2.0
WRAP .                   NO:  One line per depth step
~Well Information Block
#MNEM.UNIT        Data Type   Information
#---------- ----------------  -----------
STRT .FT             350.00:  START DEPTH
STOP .FT           16021.50:  STOP DEPTH
STEP .FT               0.50:  STEP
NULL .              -999.25:  NULL VALUE
COMP .                     :  COMPANY
WELL .               STA-30:  WELL
FLD  .                     :  FIELD
LOC  .                     :  LOCATION
CTRY .                     :  COUNTRY
STAT .                     :  STATE
CNTY .                     :  COUNTY
SRVC .                     :  SERVICE COMPANY
DATE .                     :  DATE
API  .                     :  API NUMBER
UWI  .                     :  UNIQUE WELL ID
~Curve Information Block
#MNEM.UNIT         API CODE   Curve Description
#---------- ----------------  -----------------
DEPTH.FT                   :  
GR   .GAPI                 :  Merged RAW_LOG.GR_17P_1 with RAW_LOG.GR_12P_1 and RAW_LOG.GR_8P_1 and RAW_LOG.GR_6P_1 at 1127.75, 5954.49, 11516.11 F
RT   .OHMM                 :  RT_1 Depth Shifted (Shift Pairs in MATCH_RT set)
RHOB .G/C3                 :  RHOB_1 Depth Shifted (Shift Pairs in MATCH_RHOB set)
NPHI .V/V                  :  NPHI_1 Depth Shifted (Shift Pairs in MATCH_NPHI set)
~Parameter Information Block
#MNEM.UNIT            Value   Description
#---------- ----------------  -----------
PROJECT.            SANTAN_FE:  
~Other Information Block
# 
~A       DEPTH             GR             RT           RHOB           NPHI 
# ...
      12869.00        39.4345         3.0466         2.4366       0.155825
      12869.50        39.7343         3.0665         2.4533       0.165757
      12870.00        44.7545         3.0725         2.4816       0.174169
      12870.50        54.0002         3.1436         2.5161       0.180277
      12871.00        62.5624         3.2081         2.5438       0.180247
      12871.50        65.5326         3.1435         2.5540       0.170071
      12872.00        63.7285         3.1020         2.5504       0.155146
      12872.50        60.7306         3.2030         2.5468       0.144384
      12873.00        61.4016         3.2851         2.5501       0.142288
      12873.50        63.6174         3.3213         2.5564       0.148383
      12874.00        67.7925         3.3920         2.5604       0.159048
      12874.50        71.4687         3.4133         2.5634       0.168569
      12875.00        73.4468         3.3790         2.5705       0.173877
      12875.50        72.8107         3.3384         2.5824       0.175775
      12876.00        71.3266         3.3743         2.5930       0.175124
      12876.50        72.1878         3.4996         2.5953       0.173279
      12877.00        74.4244         3.8354         2.5902       0.170539
      12877.50        74.4853         3.8297         2.5844       0.161333
      12878.00        69.3324         4.1404         2.5822       0.144542
      12878.50        60.2072         4.8687         2.5824       0.125572
      12879.00        50.8311         5.6721         2.5858       0.109036
      12879.50        44.4299         6.6814         2.5978       0.096381
      12880.00        39.2847         8.5973         2.6191       0.086442
      12880.50        34.4688         9.8232         2.6411       0.078710
      12881.00        29.8500        10.5157         2.6558       0.073967
      12881.50        26.1233        11.2014         2.6650       0.073801
      12882.00        23.2165        11.9256         2.6732       0.079024
      12882.50        22.0417        12.9366         2.6789       0.088957
      12883.00        24.0603        12.8788         2.6803       0.098957
      12883.50        28.2613        13.0049         2.6838       0.102648
      12884.00        31.2621        13.5077         2.6948       0.098067
      12884.50        32.1570        13.0339         2.7097       0.090509
      12885.00        31.7464        13.0855         2.7210       0.086063
      12885.50        30.9341        13.5180         2.7243       0.084916
      12886.00        32.0821        13.7187         2.7173       0.084604
      12886.50        33.9025        13.5032         2.7002       0.083614
      12887.00        36.8889        12.2505         2.6801       0.082220
      12887.50        39.9414        11.4080         2.6671       0.082791
      12888.00        43.8623        10.9285         2.6624       0.088419
      12888.50        48.1939         9.9986         2.6591       0.099737
      12889.00        51.5779         9.1676         2.6513       0.113601
      12889.50        52.8052         8.2316         2.6413       0.125924
      12890.00        52.0667         8.0439         2.6333       0.132507
      12890.50        49.6351         8.0287         2.6261       0.130826
      12891.00        45.5841         7.8565         2.6163       0.122717
      12891.50        41.1546         7.6148         2.6061       0.110574
      12892.00        37.0823         7.6564         2.6001       0.097783
      12892.50        35.8249         7.6333         2.5978       0.090798
      12893.00        36.0862         7.3313         2.5913       0.092277
      12893.50        37.1896         6.8882         2.5737       0.099594
      12894.00        38.0221         6.2798         2.5490       0.109065
      12894.50        38.5689         5.7946         2.5278       0.115213
      12895.00        38.6776         5.6111         2.5181       0.112836
      12895.50        38.0811         5.3966         2.5184       0.106393
      12896.00        37.8611         5.0578         2.5203       0.103934
      12896.50        38.5136         4.5510         2.5167       0.107843
      12897.00        40.0058         4.0937         2.5066       0.115885
      12897.50        41.5984         3.8586         2.4946       0.125759
      12898.00        45.3154         3.7218         2.4884       0.137335
      12898.50        52.8782         3.4176         2.4948       0.150216
      12899.00        64.7938         3.1357         2.5131       0.168637
      12899.50        76.5061         2.9355         2.5340       0.195121
      12900.00        82.6176         2.9524         2.5482       0.218173
      12900.50        81.4211         3.0757         2.5558       0.222936
      12901.00        74.1635         3.2653         2.5629       0.205848
      12901.50        64.8983         3.5123         2.5706       0.177013
      12902.00        56.2609         3.6823         2.5746       0.151463
      12902.50        50.9536         3.8838         2.5737       0.135722
      12903.00        49.9176         3.9570         2.5714       0.128698
      12903.50        51.4955         4.0837         2.5681       0.130079
      12904.00        52.8155         4.1432         2.5589       0.135719
      12904.50        52.3220         4.2148         2.5436       0.137180
      12905.00        50.2566         4.2817         2.5311       0.129609
      12905.50        47.7277         4.3663         2.5281       0.117178
      12906.00        47.0040         4.4838         2.5308       0.108226
      12906.50        49.4174         4.5007         2.5330       0.109776
      12907.00        55.2049         4.3935         2.5363       0.124390
      12907.50        62.7674         4.0791         2.5451       0.148851
      12908.00        70.9413         3.8050         2.5562       0.174634
      12908.50        76.8518         3.6184         2.5632       0.190970
      12909.00        78.6957         3.5881         2.5663       0.193677
      12909.50        77.0571         3.5600         2.5698       0.187732
      12910.00        75.0777         3.4284         2.5703       0.181068
      12910.50        72.0305         3.3604         2.5545       0.173865
      12911.00        65.9954         3.3212         2.5161       0.162736
      12911.50        57.5635         3.2806         2.4675       0.151979
      12912.00        50.3882         3.2661         2.4309       0.147614
      12912.50        47.3133         3.2223         2.4203       0.148196
      12913.00        48.6284         3.1230         2.4335       0.149917
      12913.50        55.0121         3.1091         2.4583       0.155381
      12914.00        62.0753         3.0928         2.4862       0.168745
      12914.50        68.6071         2.9929         2.5124       0.185360
      12915.00        72.6833         2.8680         2.5337       0.195687
      12915.50        75.7573         2.7933         2.5480       0.197090
      12916.00        77.1899         2.7578         2.5539       0.192437
      12916.50        76.2081         2.7333         2.5526       0.186686
      12917.00        74.7680         2.7031         2.5489       0.184093
      12917.50        73.9631         2.6722         2.5488       0.187169
      12918.00        76.1930         2.4606         2.5513       0.198008
      12918.50        80.4985         2.3600         2.5537       0.215852
      12919.00        85.4168         2.3141         2.5566       0.233205
      12919.50        88.4188         2.3036         2.5607       0.244267
      12920.00        89.2481         2.2834         2.5656       0.250513
      12920.50        88.9531         2.2892         2.5690       0.253514
      12921.00        88.6439         2.3784         2.5690       0.252048
      12921.50        88.2834         2.4548         2.5672       0.245546
      12922.00        85.8208         2.4995         2.5677       0.232531
