~Version Information Block
VERS .                  2.0:  CWLS LOG ASCII STANDARD - VERSION 2.0
WRAP .                   NO:  One line per depth step
~Well Information Block
#MNEM.UNIT        Data Type   Information
#---------- ----------------  -----------
STRT .FT             750.00:  START DEPTH
STOP .FT            8283.50:  STOP DEPTH
STEP .FT               0.50:  STEP
NULL .              -999.25:  NULL VALUE
COMP .                     :  COMPANY
WELL .               STA-20:  WELL
FLD  .                     :  FIELD
LOC  .                     :  LOCATION
CTRY .                     :  COUNTRY
STAT .                     :  STATE
CNTY .                     :  COUNTY
SRVC .                     :  SERVICE COMPANY
DATE .                     :  DATE
API  .                     :  API NUMBER
UWI  .                     :  UNIQUE WELL ID
~Curve Information Block
#MNEM.UNIT         API CODE   Curve Description
#---------- ----------------  -----------------
DEPTH.FT                   :  DEPTH
GR   .GAPI                 :  Gamma Ray
RT   .OHMM                 :  RESDE
RHOB .G/C3                 :  Bulk Density
NPHI .V/V                  :  Thermal Neutron Porosity (Ratio Method) in Selected Lithology
~Parameter Information Block
#MNEM.UNIT            Value   Description
#---------- ----------------  -----------
PROJECT.            SANTAN_FE:  
~Other Information Block
# 
~A       DEPTH             GR             RT           RHOB           NPHI 
# ...
       4762.50        65.7550         1.5397         2.2634       0.353900
       4763.00        69.0500         1.4328         2.2721       0.369800
       4763.50        70.4350         1.3557         2.2809       0.382900
       4764.00        70.9775         1.2970         2.2864       0.395200
       4764.50        71.9800         1.2351         2.2877       0.411400
       4765.00        72.8650         1.2141         2.2894       0.425800
       4765.50        73.2400         1.2076         2.2946       0.428700
       4766.00        73.2500         1.1836         2.3033       0.423300
       4766.50        73.7100         1.1356         2.3093       0.412300
       4767.00        75.1700         1.0812         2.3063       0.408400
       4767.50        77.6275         1.0425         2.2967       0.415500
       4768.00        80.3600         1.0001         2.2909       0.445200
       4768.50        82.3075         0.9680         2.2879       0.478700
       4769.00        84.1800         0.9587         2.2876       0.497200
       4769.50        86.5100         0.9575         2.2943       0.500300
       4770.00        87.9950         0.9595         2.3099       0.505600
       4770.50        88.5525         0.9553         2.3184       0.498400
       4771.00        87.7800         0.9521         2.3201       0.476400
       4771.50        86.5100         0.9475         2.3219       0.453900
       4772.00        85.8675         0.9484         2.3284       0.447000
       4772.50        86.9250         0.9487         2.3367       0.460600
       4773.00        90.1850         0.9392         2.3421       0.484100
       4773.50        93.8875         0.9188         2.3424       0.496100
       4774.00        94.5600         0.9130         2.3408       0.484500
       4774.50        91.4025         0.9368         2.3350       0.452700
       4775.00        84.2950         1.0247         2.3269       0.443000
       4775.50        75.9850         1.1846         2.3124       0.449000
       4776.00        69.2500         1.3745         2.2967       0.456700
       4776.50        68.4775         1.4699         2.2931       0.449600
       4777.00        72.0650         1.3851         2.3006       0.429200
       4777.50        79.0175         1.1816         2.3055       0.401400
       4778.00        83.5250         1.1434         2.3000       0.381400
       4778.50        85.1975         1.2485         2.2833       0.371800
       4779.00        86.5400         1.3285         2.2656       0.367800
       4779.50        87.6125         1.3464         2.2612       0.367500
       4780.00        87.2275         1.3265         2.2662       0.368200
       4780.50        84.8525         1.2823         2.2781       0.373800
       4781.00        81.8325         1.2835         2.2934       0.384900
       4781.50        77.5550         1.3211         2.3054       0.397500
       4782.00        73.5800         1.3602         2.3095       0.400800
       4782.50        72.1925         1.4306         2.3073       0.396500
       4783.00        72.0800         1.5087         2.3051       0.389600
       4783.50        71.1650         1.5260         2.3092       0.388300
       4784.00        70.1050         1.4758         2.3201       0.394500
       4784.50        70.8100         1.4067         2.3299       0.414500
       4785.00        73.7800         1.3762         2.3367       0.431500
       4785.50        75.6600         1.3700         2.3410       0.434700
       4786.00        75.8650         1.3661         2.3425       0.432000
       4786.50        75.6875         1.3422         2.3422       0.429900
       4787.00        75.9500         1.3038         2.3404       0.428800
       4787.50        76.9850         1.2662         2.3375       0.424400
       4788.00        78.2800         1.2396         2.3380       0.416000
       4788.50        80.1150         1.2157         2.3397       0.410400
       4789.00        82.4625         1.1892         2.3390       0.412000
       4789.50        84.5075         1.1685         2.3342       0.410000
       4790.00        84.9500         1.1526         2.3298       0.403600
       4790.50        84.2925         1.1371         2.3304       0.393400
       4791.00        83.7525         1.1263         2.3355       0.383700
       4791.50        83.6975         1.1121         2.3399       0.379100
       4792.00        84.2150         1.0928         2.3383       0.382500
       4792.50        84.8900         1.0758         2.3303       0.397800
       4793.00        85.4575         1.0742         2.3275       0.416600
       4793.50        85.7575         1.0775         2.3235       0.420300
       4794.00        85.8225         1.0739         2.3188       0.413000
       4794.50        85.0250         1.0684         2.3096       0.406800
       4795.00        83.4600         1.0642         2.2986       0.413700
       4795.50        82.7500         1.0461         2.2934       0.439200
       4796.00        83.3500         1.0244         2.2986       0.463200
       4796.50        84.9800         1.0094         2.3094       0.476300
       4797.00        85.7925         1.0114         2.3202       0.491600
       4797.50        85.7225         1.0200         2.3265       0.505500
       4798.00        84.8925         1.0377         2.3233       0.504100
       4798.50        80.2750         1.1234         2.3195       0.485000
       4799.00        70.6925         1.3026         2.3130       0.456900
       4799.50        59.9950         1.5198         2.2980       0.429600
       4800.00        52.9025         1.6951         2.2791       0.406100
       4800.50        51.7450         1.7845         2.2693       0.392900
       4801.00        54.0600         1.7747         2.2677       0.388400
       4801.50        58.9800         1.7133         2.2701       0.384300
       4802.00        63.1850         1.6655         2.2763       0.377400
       4802.50        65.0875         1.6419         2.2854       0.367500
       4803.00        66.0600         1.6406         2.2901       0.361600
       4803.50        67.3325         1.6564         2.2879       0.363100
       4804.00        68.7425         1.6675         2.2854       0.368300
       4804.50        69.6175         1.6520         2.2918       0.370500
       4805.00        69.2550         1.6325         2.2995       0.367000
       4805.50        67.3725         1.6480         2.2973       0.361900
       4806.00        65.5950         1.6775         2.2858       0.361600
       4806.50        65.0700         1.6856         2.2732       0.365800
       4807.00        65.5275         1.6678         2.2691       0.369200
       4807.50        66.3875         1.6359         2.2735       0.450100
       4808.00        66.9900         1.6017         2.2835       0.500000
       4808.50        66.9325         1.5617         2.2888       0.503200
       4809.00        67.6150         1.5114         2.2870       0.508200
       4809.50        68.7725         1.4584         2.2813       0.508200
       4810.00        70.4175         1.4128         2.2770       0.501500
       4810.50        70.3625         1.4040         2.2732       0.493000
       4811.00        68.4625         1.4187         2.2339       0.496400
       4811.50        65.8875         1.4246         2.1769       0.510900
       4812.00        64.3850         1.3980         2.1345       0.528900
       4812.50        65.1000         1.3393         2.1077       0.531500
       4813.00        68.3900         1.2838         2.1107       0.515700
       4813.50        73.4400         1.2372         2.1900       0.515400
       4814.00        77.5325         1.2019         2.2505       0.527600
       4814.50        77.6900         1.1804         2.1781       0.549400
       4815.00        74.0850         1.1594         2.1465       0.573300
       4815.50        70.5650         1.1522         2.1263       0.564400
