~Version Information Block
VERS .                  2.0:  CWLS LOG ASCII STANDARD - VERSION 2.0
WRAP .                   NO:  One line per depth step
~Well Information Block
#MNEM.UNIT        Data Type   Information
#---------- ----------------  -----------
STRT .FT            4582.50:  START DEPTH
STOP .FT           10844.50:  STOP DEPTH
STEP .FT               0.50:  STEP
NULL .              -999.25:  NULL VALUE
COMP .                     :  COMPANY
WELL .               STA-34:  WELL
FLD  .                     :  FIELD
LOC  .                     :  LOCATION
CTRY .                     :  COUNTRY
STAT .                     :  STATE
CNTY .                     :  COUNTY
SRVC .                     :  SERVICE COMPANY
DATE .                     :  DATE
API  .                     :  API NUMBER
UWI  .                     :  UNIQUE WELL ID
~Curve Information Block
#MNEM.UNIT         API CODE   Curve Description
#---------- ----------------  -----------------
DEPTH.FT                   :  Depth
GR   .GAPI                 :  Gamma Ray
RT   .OHMM                 :  True Resistivity
RHOB .G/C3                 :  Bulk Density
NPHI .V/V                  :  Neutron Porosity
~Parameter Information Block
#MNEM.UNIT            Value   Description
#---------- ----------------  -----------
PROJECT.            SANTAN_FE:  
~Other Information Block
# 
~A       DEPTH             GR             RT           RHOB           NPHI 
# ...
       8755.50        99.0399         2.4569         2.5882       0.203800
       8756.00        88.2411         2.5370         2.5801       0.194300
       8756.50        82.0088         2.7142         2.5805       0.186500
       8757.00        93.2892         2.6622         2.5830       0.191000
       8757.50        97.5054         2.4814         2.5859       0.206400
       8758.00       100.0140         2.4066         2.5881       0.219700
       8758.50        96.1546         2.3801         2.5828       0.220600
       8759.00        87.5144         2.4835         2.5799       0.213600
       8759.50        84.4598         2.8338         2.6002       0.200900
       8760.00        80.1799         3.1012         2.6317       0.184000
       8760.50        75.5623         3.4636         2.6389       0.164600
       8761.00        69.5965         3.9254         2.6274       0.148900
       8761.50        67.9075         4.3011         2.6187       0.139400
       8762.00        68.5976         4.5005         2.6152       0.136000
       8762.50        67.5301         4.7047         2.6126       0.132000
       8763.00        66.6076         5.0263         2.6043       0.123400
       8763.50        67.5937         5.7523         2.5923       0.109500
       8764.00        61.8809         6.7303         2.5982       0.100000
       8764.50        54.7437         7.1080         2.6316       0.104700
       8765.00        51.8546         6.4472         2.6683       0.132500
       8765.50        55.7761         4.8343         2.6834       0.179700
       8766.00        64.3115         3.8821         2.6666       0.218300
       8766.50        76.6602         3.3090         2.6334       0.237300
       8767.00        82.0474         2.9710         2.6151       0.238400
       8767.50        92.3396         2.8021         2.6109       0.225800
       8768.00        94.3868         2.7935         2.6021       0.199400
       8768.50        88.1902         3.0856         2.5899       0.164600
       8769.00        75.0971         3.7864         2.5899       0.134900
       8769.50        67.7934         4.2425         2.6039       0.121500
       8770.00        68.4835         4.2536         2.6062       0.126800
       8770.50        68.9236         4.1362         2.5900       0.144200
       8771.00        70.1852         4.0334         2.5800       0.156600
       8771.50        73.4516         3.9525         2.5783       0.153100
       8772.00        77.2759         3.9111         2.5739       0.142100
       8772.50        73.7717         3.8738         2.5673       0.137200
       8773.00        74.6247         3.8545         2.5631       0.141200
       8773.50        76.5346         3.8249         2.5580       0.144800
       8774.00        76.1809         3.7553         2.5478       0.145200
       8774.50        79.1598         3.6747         2.5423       0.147900
       8775.00        82.3632         3.5954         2.5451       0.157800
       8775.50        90.8435         3.4260         2.5403       0.168600
       8776.00        94.4132         3.2809         2.5267       0.172400
       8776.50        91.2041         3.2697         2.5241       0.169700
       8777.00        85.6704         3.3975         2.5324       0.162200
       8777.50        77.7643         3.6444         2.5346       0.153300
       8778.00        65.9659         3.8575         2.5199       0.147700
       8778.50        59.6258         3.9104         2.5031       0.143700
       8779.00        60.2945         3.9685         2.5080       0.138700
       8779.50        65.2008         4.1193         2.5301       0.134200
       8780.00        65.3353         4.3905         2.5476       0.128800
       8780.50        63.8407         4.9552         2.5594       0.116100
       8781.00        57.4909         6.0896         2.5810       0.097400
       8781.50        50.0105         6.9932         2.6163       0.087900
       8782.00        55.8049         6.9874         2.6444       0.093400
       8782.50        59.3421         6.5553         2.6351       0.097000
       8783.00        46.8434         6.5632         2.6009       0.090200
       8783.50        43.7246         6.3869         2.5838       0.088100
       8784.00        43.7663         5.2683         2.5726       0.102000
       8784.50        46.5518         4.0434         2.5361       0.121000
       8785.00        49.7099         3.3016         2.4907       0.133900
       8785.50        50.0714         2.9528         2.4586       0.143300
       8786.00        50.6537         2.6485         2.4321       0.154100
       8786.50        51.5928         2.7174         2.4168       0.161900
       8787.00        57.6202         3.0723         2.4315       0.162400
       8787.50        62.0581         3.3578         2.4743       0.159600
       8788.00        71.0002         3.5325         2.5214       0.154700
       8788.50        74.1102         3.6023         2.5581       0.150500
       8789.00        77.4772         3.5907         2.5747       0.151600
       8789.50        76.4642         3.4828         2.5736       0.159400
       8790.00        81.4964         3.2927         2.5690       0.173400
       8790.50        87.8041         3.0029         2.5646       0.190300
       8791.00        96.0863         2.7882         2.5610       0.201300
       8791.50        87.1196         2.7947         2.5621       0.192500
       8792.00        74.2816         2.9875         2.5595       0.167800
       8792.50        61.0097         3.1839         2.5484       0.146100
       8793.00        56.1606         3.3031         2.5389       0.135700
       8793.50        59.5835         3.4131         2.5360       0.135600
       8794.00        66.7050         3.5799         2.5408       0.142400
       8794.50        73.4512         3.5783         2.5520       0.153600
       8795.00        76.7626         3.4744         2.5632       0.162900
       8795.50        80.9450         3.3521         2.5681       0.166400
       8796.00        78.9756         3.2214         2.5700       0.166400
       8796.50        76.3185         3.1894         2.5762       0.160400
       8797.00        65.1212         3.2656         2.5792       0.144500
       8797.50        58.5070         3.3716         2.5722       0.130600
       8798.00        57.4676         3.1673         2.5654       0.126600
       8798.50        59.4319         2.9324         2.5688       0.131300
       8799.00        56.6442         2.2576         2.5660       0.148500
       8799.50        42.7872         1.7176         2.5111       0.170600
       8800.00        31.7520         1.5679         2.4176       0.178800
       8800.50        27.9090         1.6282         2.3480       0.175800
       8801.00        30.7528         1.4504         2.3256       0.177100
       8801.50        27.7228         1.6485         2.3189       0.183500
       8802.00        31.7836         1.8401         2.3202       0.189200
       8802.50        49.0804         2.2064         2.3679       0.196000
       8803.00        78.9785         2.3204         2.4562       0.210600
       8803.50        96.2348         2.2466         2.5350       0.228600
       8804.00       102.6391         2.2015         2.5603       0.232500
       8804.50       102.6525         2.3350         2.5632       0.219200
       8805.00        97.4520         2.5665         2.5654       0.206500
       8805.50        94.4271         2.8029         2.5765       0.197500
       8806.00        90.8091         3.1207         2.5848       0.180300
       8806.50        82.8105         3.3955         2.5870       0.159700
       8807.00        74.3358         3.5746         2.5915       0.146800
       8807.50        72.0259         3.6801         2.5916       0.141800
       8808.00        70.0064         3.6970         2.5851       0.141700
       8808.50        71.2779         3.6648         2.5841       0.144800
