~Version Information Block
VERS .                  2.0:  CWLS LOG ASCII STANDARD - VERSION 2.0
WRAP .                   NO:  One line per depth step
~Well Information Block
#MNEM.UNIT        Data Type   Information
#---------- ----------------  -----------
STRT .FT             750.00:  START DEPTH
STOP .FT            8283.50:  STOP DEPTH
STEP .FT               0.50:  STEP
NULL .              -999.25:  NULL VALUE
COMP .                     :  COMPANY
WELL .               STA-20:  WELL
FLD  .                     :  FIELD
LOC  .                     :  LOCATION
CTRY .                     :  COUNTRY
STAT .                     :  STATE
CNTY .                     :  COUNTY
SRVC .                     :  SERVICE COMPANY
DATE .                     :  DATE
API  .                     :  API NUMBER
UWI  .                     :  UNIQUE WELL ID
~Curve Information Block
#MNEM.UNIT         API CODE   Curve Description
#---------- ----------------  -----------------
DEPTH.FT                   :  DEPTH
GR   .GAPI                 :  Gamma Ray
RT   .OHMM                 :  RESDE
RHOB .G/C3                 :  Bulk Density
NPHI .V/V                  :  Thermal Neutron Porosity (Ratio Method) in Selected Lithology
~Parameter Information Block
#MNEM.UNIT            Value   Description
#---------- ----------------  -----------
PROJECT.            SANTAN_FE:  
~Other Information Block
# 
~A       DEPTH             GR             RT           RHOB           NPHI 
# ...
       6260.50        75.5881         1.7218         2.4704       0.309400
       6261.00        73.6757         1.7180         2.4639       0.303900
       6261.50        70.6291         1.7236         2.4410       0.274500
       6262.00        66.4633         1.7732         2.4100       0.247100
       6262.50        62.5772         1.9692         2.3929       0.240100
       6263.00        59.8057         2.2826         2.4054       0.247500
       6263.50        60.0585         2.4982         2.4252       0.250600
       6264.00        63.0828         2.4547         2.4279       0.258800
       6264.50        65.5524         2.3054         2.4101       0.267900
       6265.00        63.3872         2.1945         2.3849       0.267100
       6265.50        58.2148         2.2238         2.3723       0.253500
       6266.00        52.8068         2.4351         2.3712       0.242400
       6266.50        51.7119         2.6621         2.3849       0.240000
       6267.00        54.2234         2.7491         2.3898       0.240000
       6267.50        57.1893         2.7065         2.4099       0.240000
       6268.00        58.8397         2.5828         2.4250       0.240000
       6268.50        58.2603         2.5736         2.4237       0.240000
       6269.00        56.4355         2.6054         2.3665       0.220200
       6269.50        53.4884         2.6478         2.2824       0.184400
       6270.00        48.7212         2.7715         2.1995       0.151100
       6270.50        43.4139         3.3543         2.1422       0.131300
       6271.00        38.7160         4.4957         2.1235       0.122100
       6271.50        36.0355         5.6017         2.1270       0.120000
       6272.00        35.5000         6.1939         2.1229       0.120000
       6272.50        34.8952         6.6222         2.1082       0.120000
       6273.00        33.7803         7.3791         2.0858       0.114800
       6273.50        31.6531         7.9425         2.0819       0.106700
       6274.00        30.7076         8.0283         2.0905       0.101300
       6274.50        30.9024         7.6400         2.1067       0.107300
       6275.00        33.1141         6.9406         2.1318       0.121800
       6275.50        35.6694         6.3517         2.1519       0.133600
       6276.00        38.7250         5.9541         2.1787       0.144200
       6276.50        41.0866         5.5768         2.1983       0.149300
       6277.00        43.7248         5.1088         2.2124       0.150000
       6277.50        45.0756         4.8270         2.2237       0.156400
       6278.00        44.3816         4.7681         2.2108       0.159600
       6278.50        42.2580         5.1361         2.1717       0.154000
       6279.00        41.3172         5.4888         2.1155       0.150600
       6279.50        41.8082         5.4346         2.1075       0.150000
       6280.00        42.6256         5.0513         2.1540       0.155100
       6280.50        43.1428         4.7638         2.2024       0.163800
       6281.00        43.5528         4.6636         2.2243       0.169000
       6281.50        43.9554         4.6259         2.2220       0.174100
       6282.00        45.5666         4.4364         2.2218       0.178700
       6282.50        47.6066         4.0832         2.2280       0.180000
       6283.00        50.8578         3.9213         2.2339       0.183200
       6283.50        53.0251         3.8522         2.2483       0.191300
       6284.00        54.6555         3.7050         2.2691       0.200900
       6284.50        55.3832         3.4125         2.3033       0.210400
       6285.00        56.3923         3.1923         2.3182       0.218100
       6285.50        57.3165         3.1174         2.3150       0.221600
       6286.00        58.4323         3.0029         2.3060       0.230400
       6286.50        59.6523         2.8149         2.3192       0.247400
       6287.00        62.0852         2.5402         2.3576       0.267200
       6287.50        66.1507         2.2248         2.4038       0.292900
       6288.00        71.2398         1.9675         2.4338       0.307400
       6288.50        76.8430         1.8333         2.4400       0.309900
       6289.00        80.1420         1.7946         2.4368       0.330400
       6289.50        81.3865         1.7900         2.4348       0.339000
       6290.00        80.0912         1.7308         2.4420       0.346200
       6290.50        78.9535         1.6654         2.4557       0.349400
       6291.00        78.1409         1.6500         2.4710       0.350000
       6291.50        77.9300         1.6631         2.4750       0.355200
       6292.00        77.0190         1.6724         2.4674       0.354200
       6292.50        75.4928         1.6710         2.4612       0.341900
       6293.00        74.1664         1.6745         2.4559       0.328000
       6293.50        74.7536         1.6926         2.4511       0.325400
       6294.00        75.6773         1.7345         2.4453       0.333800
       6294.50        76.7936         1.7318         2.4459       0.339200
       6295.00        76.5027         1.7114         2.4438       0.340000
       6295.50        76.2900         1.7419         2.4464       0.328200
       6296.00        75.3864         1.7877         2.4370       0.314400
       6296.50        74.1664         1.8025         2.4439       0.296800
       6297.00        73.2427         1.7623         2.4427       0.290200
       6297.50        73.0300         1.7514         2.4549       0.290100
       6298.00        73.3337         1.7803         2.4610       0.297600
       6298.50        74.0399         1.7974         2.4745       0.300000
       6299.00        74.8573         1.7900         2.4721       0.300000
       6299.50        76.2785         1.7615         2.4666       0.300000
       6300.00        77.6123         1.7178         2.4537       0.302100
       6300.50        79.1389         1.7299         2.4475       0.310800
       6301.00        80.7689         1.7597         2.4416       0.321300
       6301.50        81.4941         1.7275         2.4400       0.331800
       6302.00        81.9041         1.7013         2.4474       0.335000
       6302.50        81.4018         1.6940         2.4577       0.335200
       6303.00        80.2852         1.6907         2.4555       0.339000
       6303.50        79.0577         1.7653         2.4509       0.344900
       6304.00        77.8352         1.8311         2.4553       0.338700
       6304.50        76.9118         1.8322         2.4707       0.319900
       6305.00        75.4911         1.8000         2.4791       0.304900
       6305.50        74.1652         1.7437         2.4865       0.300300
       6306.00        74.4508         1.6977         2.4898       0.300000
       6306.50        75.5723         1.6593         2.4900       0.307300
       6307.00        77.6997         1.6367         2.4825       0.317900
       6307.50        79.2422         1.5962         2.4792       0.327700
       6308.00        79.8644         1.5504         2.4722       0.331200
       6308.50        79.6655         1.4974         2.4733       0.338000
       6309.00        78.6465         1.4733         2.4884       0.340000
       6309.50        77.7284         1.4346         2.4958       0.340000
       6310.00        76.3094         1.4131         2.4915       0.340000
       6310.50        75.8900         1.4279         2.4866       0.340000
       6311.00        76.7961         1.4385         2.4851       0.340000
       6311.50        78.9296         1.4461         2.4846       0.335700
       6312.00        81.9812         1.4007         2.4762       0.330900
       6312.50        84.9442         1.3428         2.4759       0.335200
       6313.00        86.8906         1.3160         2.4738       0.350500
       6313.50        85.4904         1.2917         2.4763       0.353100
