~Version Information Block
VERS .                  2.0:  CWLS LOG ASCII STANDARD - VERSION 2.0
WRAP .                   NO:  One line per depth step
~Well Information Block
#MNEM.UNIT        Data Type   Information
#---------- ----------------  -----------
STRT .FT             350.00:  START DEPTH
STOP .FT           16021.50:  STOP DEPTH
STEP .FT               0.50:  STEP
NULL .              -999.25:  NULL VALUE
COMP .                     :  COMPANY
WELL .               STA-30:  WELL
FLD  .                     :  FIELD
LOC  .                     :  LOCATION
CTRY .                     :  COUNTRY
STAT .                     :  STATE
CNTY .                     :  COUNTY
SRVC .                     :  SERVICE COMPANY
DATE .                     :  DATE
API  .                     :  API NUMBER
UWI  .                     :  UNIQUE WELL ID
~Curve Information Block
#MNEM.UNIT         API CODE   Curve Description
#---------- ----------------  -----------------
DEPTH.FT                   :  
GR   .GAPI                 :  Merged RAW_LOG.GR_17P_1 with RAW_LOG.GR_12P_1 and RAW_LOG.GR_8P_1 and RAW_LOG.GR_6P_1 at 1127.75, 5954.49, 11516.11 F
RT   .OHMM                 :  RT_1 Depth Shifted (Shift Pairs in MATCH_RT set)
RHOB .G/C3                 :  RHOB_1 Depth Shifted (Shift Pairs in MATCH_RHOB set)
NPHI .V/V                  :  NPHI_1 Depth Shifted (Shift Pairs in MATCH_NPHI set)
~Parameter Information Block
#MNEM.UNIT            Value   Description
#---------- ----------------  -----------
PROJECT.            SANTAN_FE:  
~Other Information Block
# 
~A       DEPTH             GR             RT           RHOB           NPHI 
# ...
       4576.50        18.7468         5.6997         2.1738       0.342837
       4577.00        18.1831         6.0745         2.1670       0.353180
       4577.50        17.9557         6.0007         2.1627       0.355917
       4578.00        17.8806         6.2218         2.1520       0.347327
       4578.50        18.1508         6.0030         2.1394       0.322868
       4579.00        17.9820         5.7701         2.1478       0.282618
       4579.50        17.8894         5.9734         2.1874       0.240774
       4580.00        18.0929         6.3022         2.2354       0.215047
       4580.50        18.7410         5.8722         2.2716       0.213218
       4581.00        19.7017         5.6473         2.2929       0.236185
       4581.50        22.2696         5.2384         2.3037       0.276235
       4582.00        25.3629         6.1170         2.3014       0.319359
       4582.50        27.8651         8.6539         2.2891       0.354372
       4583.00        30.0874         8.8525         2.2828       0.376747
       4583.50        32.1590         4.6348         2.2900       0.386076
       4584.00        33.1859         4.2092         2.3017       0.389643
       4584.50        34.1502         5.0578         2.3073       0.397542
       4585.00        34.8326         5.4154         2.3061       0.410694
       4585.50        35.8714         5.4037         2.3031       0.423340
       4586.00        37.0080         4.4369         2.3026       0.433431
       4586.50        38.0061         3.0886         2.3023       0.440622
       4587.00        38.7112         2.7564         2.2968       0.443032
       4587.50        39.9088         2.3535         2.2840       0.440457
       4588.00        40.7324         2.2456         2.2701       0.435771
       4588.50        41.5100         2.1508         2.2634       0.432644
       4589.00        42.0530         1.9374         2.2636       0.431843
       4589.50        42.9971         1.8893         2.2643       0.429965
       4590.00        44.6715         1.8694         2.2651       0.426125
       4590.50        46.1607         1.8648         2.2700       0.422294
       4591.00        47.4635         1.8615         2.2766       0.418521
       4591.50        49.0589         1.8204         2.2769       0.414861
       4592.00        50.8428         1.8210         2.2660       0.413324
       4592.50        53.0596         1.8037         2.2492       0.414658
       4593.00        55.0570         1.7942         2.2347       0.419257
       4593.50        56.0082         1.8024         2.2254       0.424792
       4594.00        55.8506         1.8181         2.2191       0.425257
       4594.50        54.7077         1.8536         2.2158       0.421066
       4595.00        52.3112         1.9093         2.2172       0.417640
       4595.50        49.5314         1.9094         2.2216       0.414375
       4596.00        47.2653         1.9021         2.2252       0.410445
       4596.50        45.9128         1.9119         2.2264       0.409731
       4597.00        45.2420         1.9179         2.2272       0.410147
       4597.50        44.5430         1.9647         2.2269       0.408601
       4598.00        44.6203         2.0338         2.2219       0.407538
       4598.50        44.3219         2.0895         2.2126       0.406394
       4599.00        43.9378         2.1622         2.2075       0.401923
       4599.50        43.4574         2.1632         2.2159       0.396002
       4600.00        42.2261         2.1622         2.2382       0.389464
       4600.50        40.2243         2.2605         2.2659       0.380542
       4601.00        37.5025         2.3972         2.2883       0.371123
       4601.50        34.2723         2.5088         2.2997       0.365064
       4602.00        29.9108         2.5516         2.3005       0.364049
       4602.50        26.3788         2.5291         2.2956       0.366616
       4603.00        22.9209         2.5497         2.2900       0.369653
       4603.50        20.8526         2.5704         2.2840       0.370337
       4604.00        19.5078         2.6711         2.2742       0.367986
       4604.50        19.6358         2.7980         2.2606       0.364841
       4605.00        19.6488         2.9942         2.2493       0.362604
       4605.50        19.6234         3.1228         2.2474       0.359980
       4606.00        19.5282         3.2704         2.2553       0.356788
       4606.50        19.6551         3.4046         2.2662       0.354752
       4607.00        19.7470         3.4491         2.2717       0.353624
       4607.50        19.6287         3.4364         2.2716       0.352746
       4608.00        20.3903         3.3506         2.2754       0.350028
       4608.50        21.5477         3.2744         2.2893       0.344034
       4609.00        22.6713         3.2998         2.3084       0.336444
       4609.50        23.2914         3.5511         2.3242       0.327184
       4610.00        24.0300         3.5850         2.3358       0.316252
       4610.50        24.2754         3.3931         2.3476       0.312065
       4611.00        24.0838         3.0429         2.3584       0.322213
       4611.50        24.0255         3.0124         2.3612       0.343662
       4612.00        24.2650         3.0108         2.3507       0.373167
       4612.50        24.8034         3.2219         2.3238       0.406962
       4613.00        25.5005         3.1111         2.2851       0.433666
       4613.50        25.9423         2.6420         2.2456       0.445814
       4614.00        26.2783         2.3858         2.2150       0.447709
       4614.50        26.7950         2.2884         2.1961       0.442177
       4615.00        27.1652         2.2236         2.1849       0.429874
       4615.50        27.9557         2.0894         2.1806       0.418779
       4616.00        29.2390         1.9179         2.1831       0.415800
       4616.50        30.1302         1.8995         2.1874       0.418928
       4617.00        31.1950         1.8413         2.1869       0.425406
       4617.50        32.6185         1.7254         2.1814       0.434433
       4618.00        33.7618         1.6886         2.1788       0.440950
       4618.50        34.6293         1.7365         2.1854       0.440784
       4619.00        36.4825         1.7801         2.1987       0.436790
       4619.50        37.6369         1.7770         2.2105       0.431141
       4620.00        38.4930         1.7881         2.2172       0.423819
       4620.50        39.3910         1.7981         2.2216       0.418620
       4621.00        40.6535         1.8018         2.2250       0.417633
       4621.50        40.2708         1.8085         2.2246       0.417519
       4622.00        40.0264         1.8193         2.2184       0.417168
       4622.50        39.6780         1.8028         2.2092       0.418978
       4623.00        39.3289         1.7750         2.2018       0.424837
       4623.50        38.4054         1.7789         2.1942       0.433804
       4624.00        37.9454         1.7206         2.1811       0.442608
       4624.50        37.2630         1.6641         2.1609       0.449554
       4625.00        35.2095         1.6344         2.1347       0.455577
       4625.50        32.7576         1.6585         2.1074       0.459800
       4626.00        29.8458         1.7119         2.0880       0.459206
       4626.50        27.2817         1.6268         2.0829       0.453701
       4627.00        24.7590         1.5508         2.0877       0.448154
       4627.50        23.8452         1.5216         2.0904       0.447259
       4628.00        22.9635         1.5061         2.0854       0.451904
       4628.50        22.4891         1.4665         2.0794       0.460311
       4629.00        22.0123         1.4775         2.0792       0.469644
       4629.50        21.8170         1.5086         2.0845       0.477831
