~Version Information Block
VERS .                  2.0:  CWLS LOG ASCII STANDARD - VERSION 2.0
WRAP .                   NO:  One line per depth step
~Well Information Block
#MNEM.UNIT        Data Type   Information
#---------- ----------------  -----------
STRT .FT            4880.50:  START DEPTH
STOP .FT           10428.00:  STOP DEPTH
STEP .FT               0.50:  STEP
NULL .              -999.25:  NULL VALUE
COMP .                     :  COMPANY
WELL .                STA-3:  WELL
FLD  .                     :  FIELD
LOC  .                     :  LOCATION
CTRY .                     :  COUNTRY
STAT .                     :  STATE
CNTY .                     :  COUNTY
SRVC .                     :  SERVICE COMPANY
DATE .                     :  DATE
API  .                     :  API NUMBER
UWI  .                     :  UNIQUE WELL ID
~Curve Information Block
#MNEM.UNIT         API CODE   Curve Description
#---------- ----------------  -----------------
DEPTH.FT                   :  DEPTH
GR   .GAPI                 :  Gamma Ray
RT   .OHMM                 :  Deep resistivity
RHOB .G/C3                 :  Bulk Density
NPHI .V/V                  :  Neutron porosity
DT   .US/F                 :  Sonic
~Parameter Information Block
#MNEM.UNIT            Value   Description
#---------- ----------------  -----------
PROJECT.            SANTAN_FE:  
~Other Information Block
# 
~A       DEPTH             GR             RT           RHOB           NPHI             DT 
# ...
       6794.00       138.7763         1.2521         2.4664       0.346900       114.8000
       6794.50       138.4875         1.2195         2.4513       0.337800       114.8500
       6795.00       131.8670         1.2086         2.4620       0.351600       115.1500
       6795.50       129.0737         1.2535         2.4427       0.361600       115.8000
       6796.00       126.2309         1.2976         2.4324       0.360400       115.4500
       6796.50       133.3950         1.3014         2.4248       0.355000       115.9000
       6797.00       138.3201         1.2962         2.4257       0.341000       115.7000
       6797.50       139.3491         1.3156         2.4270       0.359100       115.7500
       6798.00       137.6279         1.3640         2.4304       0.346900       114.4000
       6798.50       135.8474         1.4263         2.4368       0.356100       112.1000
       6799.00       131.8775         1.4851         2.4383       0.338600       111.2000
       6799.50       126.9592         1.4514         2.4364       0.336600       109.1000
       6800.00       120.3671         1.4211         2.4367       0.325800       107.3000
       6800.50       121.9976         1.7696         2.4340       0.327800       107.4500
       6801.00       120.1932         1.9349         2.4076       0.367800       109.7000
       6801.50       119.5499         2.1177         2.3515       0.399300       112.5500
       6802.00       118.7455         1.7849         2.3383       0.393400       110.7000
       6802.50       117.4874         1.8710         2.3581       0.337200       106.9000
       6803.00       119.3971         2.1733         2.4207       0.291800       102.8000
       6803.50       116.9489         2.1340         2.4483       0.285000        96.6000
       6804.00       117.0079         2.2417         2.4631       0.278600        96.3500
       6804.50       112.0469         2.3003         2.4582       0.275000        96.2500
       6805.00       110.8299         2.2966         2.4566       0.271500        98.1500
       6805.50       117.2954         2.0933         2.4424       0.281400       101.0500
       6806.00       128.3423         1.9336         2.4173       0.294200       105.5000
       6806.50       140.2048         1.7467         2.3950       0.313600       111.6500
       6807.00       142.8508         1.5872         2.3782       0.341700       113.8500
       6807.50       151.9689         1.5765         2.3831       0.360300       115.2000
       6808.00       151.7339         1.6514         2.3865       0.359000       115.6500
       6808.50       153.4815         1.6849         2.3875       0.348400       114.5000
       6809.00       143.8870         1.7150         2.3956       0.345600       112.4000
       6809.50       141.7256         1.8088         2.4213       0.341600       111.3000
       6810.00       143.1573         1.8707         2.4170       0.329800       109.6000
       6810.50       137.7122         1.9662         2.4104       0.305500       107.8000
       6811.00       129.8016         2.1050         2.4002       0.305800       106.0500
       6811.50       122.4306         2.1621         2.4164       0.307100       104.3000
       6812.00       124.1370         2.1717         2.4520       0.322600       104.1000
       6812.50       127.1836         2.0145         2.4686       0.311900       103.5000
       6813.00       125.5291         1.9472         2.4655       0.326100       103.7000
       6813.50       123.2383         1.9653         2.4567       0.315600       104.1000
       6814.00       114.6710         2.1245         2.4398       0.299600       102.2000
       6814.50       104.1585         2.5072         2.4313       0.264800       100.1500
       6815.00        96.6487         2.7649         2.4427       0.257800        97.6000
       6815.50        95.7283         2.7486         2.4428       0.256100        96.5500
       6816.00        97.2122         2.7478         2.4496       0.257300        96.9500
       6816.50        97.8392         2.6103         2.4551       0.252900        97.3000
       6817.00        97.6077         2.4825         2.4648       0.265100        97.8000
       6817.50       100.5978         2.4349         2.4692       0.273600        98.2000
       6818.00        98.5141         2.4198         2.4622       0.275300        98.6000
       6818.50       103.6107         2.3781         2.4481       0.285000        98.8500
       6819.00       101.5213         2.3064         2.4414       0.296100        99.5000
       6819.50       106.9150         2.2336         2.4468       0.318500       100.3500
       6820.00       103.0067         2.0882         2.4609       0.324400       101.9000
       6820.50       106.5234         1.9761         2.4765       0.332300       101.8000
       6821.00       106.1144         1.9614         2.4852       0.332600       102.6000
       6821.50       107.6859         1.9109         2.4921       0.331800       103.2500
       6822.00       110.1621         1.9127         2.5009       0.322600       103.9000
       6822.50       116.5565         1.8398         2.4914       0.317200       104.3000
       6823.00       125.1198         1.7708         2.4790       0.325800       106.1500
       6823.50       125.0071         1.6914         2.4682       0.339300       106.8000
       6824.00       126.3536         1.5938         2.4731       0.340600       108.5000
       6824.50       121.3989         1.5227         2.4786       0.348500       109.7500
       6825.00       119.1861         1.4642         2.4899       0.355600       108.9000
       6825.50       106.7936         1.5972         2.4873       0.335200       105.5000
       6826.00        96.5110         2.6279         2.4739       0.282700       102.2500
       6826.50        89.7406         3.0205         2.4648       0.253800        99.0000
       6827.00        88.4783         2.4826         2.4515       0.266700        96.7500
       6827.50        95.3742         2.3266         2.4634       0.289400        96.6500
       6828.00        92.9168         2.3410         2.4451       0.288200        96.1000
       6828.50        88.4816         2.7764         2.4228       0.270700        95.7000
       6829.00        75.4909         3.3314         2.3898       0.244400        93.6000
       6829.50        69.3213         3.6950         2.3814       0.223200        92.4000
       6830.00        71.0485         3.8047         2.3932       0.221900        92.0500
       6830.50        77.1898         3.5436         2.4359       0.229200        92.2000
       6831.00        88.9776         3.2492         2.4761       0.239800        92.2500
       6831.50        98.6511         2.8151         2.4890       0.247200        93.2500
       6832.00       106.2407         2.3838         2.5129       0.254400        95.2000
       6832.50       113.0115         2.1825         2.4782       0.276600        97.4000
       6833.00       110.1541         2.0175         2.4687       0.292400        98.5500
       6833.50       114.3262         1.9707         2.4790       0.297300       100.2000
       6834.00       112.1868         2.0384         2.4908       0.296400        99.8000
       6834.50       112.9552         1.9852         2.5129       0.294200        99.4000
       6835.00       109.7471         2.0310         2.5199       0.305500        99.2000
       6835.50       111.8864         2.1085         2.5223       0.295400        98.8500
       6836.00       112.2929         2.0643         2.5263       0.294200        98.6000
       6836.50       115.0028         2.0215         2.5073       0.294800        99.0000
       6837.00       117.7448         1.9386         2.4953       0.318500       100.7000
       6837.50       117.2856         1.7732         2.4991       0.327300       102.2000
       6838.00       116.7350         1.6906         2.5175       0.345100       103.2000
