~Version Information Block
VERS .                  2.0:  CWLS LOG ASCII STANDARD - VERSION 2.0
WRAP .                   NO:  One line per depth step
~Well Information Block
#MNEM.UNIT        Data Type   Information
#---------- ----------------  -----------
STRT .FT            3811.50:  START DEPTH
STOP .FT            9515.50:  STOP DEPTH
STEP .FT               0.50:  STEP
NULL .              -999.25:  NULL VALUE
COMP .                     :  COMPANY
WELL .                STA-6:  WELL
FLD  .                     :  FIELD
LOC  .                     :  LOCATION
CTRY .                     :  COUNTRY
STAT .                     :  STATE
CNTY .                     :  COUNTY
SRVC .                     :  SERVICE COMPANY
DATE .                     :  DATE
API  .                     :  API NUMBER
UWI  .                     :  UNIQUE WELL ID
~Curve Information Block
#MNEM.UNIT         API CODE   Curve Description
#---------- ----------------  -----------------
DEPTH.FT                   :  DEPTH
GR   .GAPI                 :  Gamma Ray
RT   .OHMM                 :  Deep resistivity
RHOB .G/C3                 :  Bulk Density
NPHI .V/V                  :  Neutron porosity
DT   .US/F                 :  Sonic
~Parameter Information Block
#MNEM.UNIT            Value   Description
#---------- ----------------  -----------
PROJECT.            SANTAN_FE:  
~Other Information Block
# 
~A       DEPTH             GR             RT           RHOB           NPHI             DT 
# ...
       6926.50        96.6700         1.0000         2.2700       0.400000       119.9000
       6927.00        94.3200         1.0200         2.2800       0.390000       118.0000
       6927.50        92.2000         1.1000         2.2700       0.360000       117.0000
       6928.00        88.7600         1.2400         2.2300       0.340000       115.9000
       6928.50        81.8800         1.3100         2.2100       0.320000       113.9000
       6929.00        75.0900         1.3900         2.2100       0.300000       111.7500
       6929.50        73.8000         1.3700         2.2000       0.310000       110.5500
       6930.00        78.7100         1.3100         2.2200       0.320000       109.9500
       6930.50        83.3900         1.2000         2.2400       0.330000       111.0000
       6931.00        89.4400         1.1400         2.2400       0.320000       110.5500
       6931.50        93.4400         1.1000         2.2300       0.330000       112.3000
       6932.00        99.0900         1.0600         2.2300       0.350000       113.2500
       6932.50       102.2900         1.0500         2.2300       0.370000       112.9000
       6933.00       100.5900         1.0300         2.2200       0.360000       112.9000
       6933.50        97.1000         1.0000         2.2100       0.350000       115.6000
       6934.00        90.7700         0.9800         2.2000       0.340000       117.2000
       6934.50        92.2000         0.9400         2.1700       0.370000       119.6000
       6935.00        92.4500         0.9100         2.1600       0.360000       122.5500
       6935.50        96.8000         0.8800         2.1600       0.370000       123.9500
       6936.00        93.3700         0.8800         2.1700       0.360000       125.4000
       6936.50        96.2000         0.8900         2.1600       0.380000       126.3000
       6937.00        91.5900         0.8700         2.1600       0.390000       126.4000
       6937.50        92.0700         0.8700         2.1700       0.410000       125.4000
       6938.00        89.1000         0.8700         2.1700       0.420000       125.4000
       6938.50        89.8400         0.8400         2.1800       0.400000       123.2000
       6939.00        94.0000         0.8500         2.1800       0.400000       123.2500
       6939.50        94.0100         0.8500         2.1800       0.380000       122.7500
       6940.00        99.1100         0.8400         2.1800       0.410000       124.0000
       6940.50       102.5000         0.8300         2.1700       0.400000       122.0000
       6941.00       100.5200         0.8200         2.1800       0.390000       122.1000
       6941.50       101.4900         0.8200         2.2000       0.360000       121.6000
       6942.00       100.5600         0.8600         2.2100       0.380000       122.2500
       6942.50       109.5500         0.8600         2.2100       0.410000       111.3000
       6943.00       106.0200         0.8400         2.2100       0.420000       122.9000
       6943.50        98.3100         0.8500         2.2300       0.410000       123.3000
       6944.00        93.8400         0.8500         2.2300       0.410000       123.1500
       6944.50        94.7000         0.8600         2.2400       0.410000       122.6500
       6945.00       105.0100         0.8400         2.2300       0.410000       122.9000
       6945.50       104.7000         0.8500         2.2200       0.400000       122.3000
       6946.00       105.4100         0.8500         2.2200       0.390000       121.6000
       6946.50       102.8000         0.8400         2.2400       0.400000       122.1000
       6947.00       102.9600         0.8200         2.2500       0.390000       121.4000
       6947.50       104.0000         0.8100         2.2600       0.390000       121.0000
       6948.00       101.3300         0.8000         2.2600       0.390000       120.5000
       6948.50       104.3800         0.8000         2.2600       0.400000       120.2000
       6949.00       100.0300         0.7800         2.2500       0.400000       120.8000
       6949.50        99.6900         0.7300         2.2300       0.400000       122.4000
       6950.00        97.4200         0.6800         2.2100       0.400000       124.1000
       6950.50        95.8000         0.6600         2.1800       0.410000       125.5000
       6951.00        97.7300         0.6400         2.1700       0.410000       125.7500
       6951.50        94.7600         0.6200         2.1600       0.420000       125.4000
       6952.00        93.2700         0.6100         2.1700       0.430000       125.9000
       6952.50        94.6400         0.6300         2.1700       0.410000       124.6000
       6953.00        88.4500         0.6500         2.1700       0.410000       123.4000
       6953.50        90.3800         0.6600         2.1700       0.390000       123.6500
       6954.00        88.3000         0.6500         2.1700       0.400000       123.5000
       6954.50        92.0600         0.6400         2.1700       0.390000       123.4000
       6955.00        91.8300         0.6700         2.1800       0.360000       124.6500
       6955.50        88.5900         0.7600         2.1800       0.350000       125.5500
       6956.00        92.9100         0.7800         2.1700       0.360000       125.5000
       6956.50        95.9300         0.6500         2.1600       0.370000       128.3000
       6957.00        96.5100         0.6100         2.1800       0.390000       127.7000
       6957.50        98.1800         0.6200         2.2000       0.370000       125.9500
       6958.00        98.4300         0.6900         2.2300       0.400000       106.9000
       6958.50        97.6400         0.7900         2.2400       0.380000       123.8000
       6959.00        93.9900         0.8300         2.2600       0.380000       122.4500
       6959.50        92.6100         0.8600         2.2700       0.370000       121.4500
       6960.00        95.7900         0.8900         2.2800       0.380000       121.4500
       6960.50       100.1500         0.9100         2.2900       0.410000       121.6500
       6961.00       102.2400         0.8600         2.2900       0.410000       122.6000
       6961.50       106.2600         0.8400         2.3000       0.420000       122.7500
       6962.00       103.7700         0.8700         2.3000       0.390000       121.4500
       6962.50       100.6800         0.9300         2.3100       0.370000       120.2000
       6963.00        97.8500         0.9400         2.3100       0.360000       119.9000
       6963.50        97.5900         0.9400         2.3100       0.370000       120.1500
       6964.00       101.5300         0.9400         2.3100       0.380000       120.2500
       6964.50       100.4000         0.9600         2.3000       0.390000       120.2000
       6965.00       104.4600         0.9700         2.3000       0.390000       119.7500
       6965.50       106.1900         0.9600         2.2900       0.390000       119.9000
       6966.00       109.9900         0.9000         2.2800       0.390000       121.3000
       6966.50       110.4700         0.8000         2.2800       0.380000       123.0000
       6967.00       109.0100         0.7500         2.3000       0.370000       122.9500
       6967.50       110.4800         0.8100         2.3100       0.370000       123.0000
       6968.00       109.8500         0.8600         2.3200       0.380000       121.7000
       6968.50       112.6400         0.9000         2.3200       0.390000       121.8000
       6969.00       115.1000         0.8700         2.3200       0.400000       122.5500
       6969.50       118.0700         0.8300         2.3000       0.400000       123.9500
       6970.00       113.9400         0.8200         2.3100       0.410000       125.2000
       6970.50       114.0700         0.8300         2.3200       0.440000       126.3000
