~Version Information Block
VERS .                  2.0:  CWLS LOG ASCII STANDARD - VERSION 2.0
WRAP .                   NO:  One line per depth step
~Well Information Block
#MNEM.UNIT        Data Type   Information
#---------- ----------------  -----------
STRT .FT             224.00:  START DEPTH
STOP .FT            7977.50:  STOP DEPTH
STEP .FT               0.50:  STEP
NULL .              -999.25:  NULL VALUE
COMP .                     :  COMPANY
WELL .               STA-22:  WELL
FLD  .                     :  FIELD
LOC  .                     :  LOCATION
CTRY .                     :  COUNTRY
STAT .                     :  STATE
CNTY .                     :  COUNTY
SRVC .                     :  SERVICE COMPANY
DATE .                     :  DATE
API  .                     :  API NUMBER
UWI  .                     :  UNIQUE WELL ID
~Curve Information Block
#MNEM.UNIT         API CODE   Curve Description
#---------- ----------------  -----------------
DEPTH.FT                   :  DEPTH
GR   .GAPI                 :  Gamma Ray
RT   .OHMM                 :  RESDE
RHOB .G/C3                 :  Bulk Density
NPHI .V/V                  :  Thermal Neutron Porosity (Ratio Method) in Selected Lithology
~Parameter Information Block
#MNEM.UNIT            Value   Description
#---------- ----------------  -----------
PROJECT.            SANTAN_FE:  
~Other Information Block
# 
~A       DEPTH             GR             RT           RHOB           NPHI 
# ...
       2310.50        51.8500         1.9128         2.1069       0.453600
       2311.00        52.9300         1.8478         2.0931       0.456900
       2311.50        54.0500         1.7974         2.1084       0.477500
       2312.00        54.8000         1.7800         2.1033       0.487500
       2312.50        56.3100         1.7534         2.1200       0.547800
       2313.00        58.1300         1.7130         2.1252       0.545100
       2313.50        60.6500         1.6659         2.1500       0.498800
       2314.00        63.2300         1.6431         2.1518       0.431600
       2314.50        65.9200         1.6470         2.1618       0.418900
       2315.00        68.8500         1.6288         2.1774       0.462400
       2315.50        69.6600         1.5986         2.2119       0.468300
       2316.00        71.8000         1.5828         2.2239       0.442600
       2316.50        73.5000         1.5727         2.2380       0.418000
       2317.00        76.5600         1.5774         2.2240       0.420700
       2317.50        77.7400         1.5651         2.1918       0.438700
       2318.00        78.5700         1.5450         2.1558       0.464800
       2318.50        78.8300         1.5172         2.1463       0.507600
       2319.00        79.6400         1.4793         2.1679       0.526300
       2319.50        80.3200         1.4700         2.1578       0.540800
       2320.00        80.5100         1.4700         2.1478       0.505400
       2320.50        80.0200         1.4700         2.1423       0.498100
       2321.00        80.2100         1.4700         2.1523       0.505100
       2321.50        80.8800         1.4700         2.1600       0.526200
       2322.00        81.5600         1.4700         2.1671       0.545300
       2322.50        81.2600         1.4536         2.1924       0.576500
       2323.00        80.9600         1.4500         2.1903       0.592800
       2323.50        80.7100         1.4166         2.1427       0.570200
       2324.00        80.7700         1.4100         2.0449       0.523700
       2324.50        81.1500         1.4100         1.9532       0.526200
       2325.00        81.4700         1.3928         2.0929       0.557500
       2325.50        81.6500         1.3900         2.1431       0.572800
       2326.00        81.5200         1.4075         2.1747       0.571400
       2326.50        81.0100         1.4100         2.1493       0.600200
       2327.00        80.6400         1.4100         2.1173       0.617000
       2327.50        80.2600         1.4100         2.1100       0.580600
       2328.00        80.2600         1.4191         2.1100       0.516700
       2328.50        81.3900         1.4200         2.1072       0.457100
       2329.00        82.5200         1.4384         2.0971       0.430600
       2329.50        83.6500         1.4400         2.0929       0.469000
       2330.00        84.3200         1.4494         2.1000       0.503200
       2330.50        85.0000         1.4500         2.0970       0.509300
       2331.00        85.3200         1.4500         2.0870       0.466300
       2331.50        85.3900         1.4500         2.0891       0.453700
       2332.00        85.3900         1.4500         2.1192       0.471400
       2332.50        85.7500         1.4598         2.1369       0.501600
       2333.00        85.7500         1.4600         2.1237       0.501100
       2333.50        85.8200         1.4798         2.1100       0.507900
       2334.00        84.8300         1.5000         2.1100       0.548300
       2334.50        83.7600         1.5100         2.1035       0.601600
       2335.00        82.1200         1.5099         2.0900       0.610000
       2335.50        81.5600         1.5000         2.0967       0.610000
       2336.00        80.8100         1.5000         2.1100       0.612900
       2336.50        80.8600         1.5000         2.1032       0.610400
       2337.00        80.8100         1.4995         2.0900       0.583900
       2337.50        80.9400         1.4900         2.0900       0.562700
       2338.00        81.2600         1.4906         2.0935       0.550900
       2338.50        82.3900         1.4986         2.0965       0.523300
       2339.00        85.9600         1.4800         2.0936       0.496200
       2339.50        89.2900         1.4800         2.0964       0.481600
       2340.00        91.9200         1.4800         2.0900       0.496000
       2340.50        90.9800         1.4810         2.0863       0.542600
       2341.00        89.8500         1.4868         2.0837       0.569900
       2341.50        88.4800         1.4611         2.0900       0.554700
       2342.00        88.2300         1.4712         2.0900       0.531200
       2342.50        87.1600         1.4774         2.0862       0.525500
       2343.00        86.3300         1.4628         2.0800       0.551100
       2343.50        84.3200         1.4785         2.0839       0.566400
       2344.00        83.1400         1.4700         2.0861       0.578900
       2344.50        82.7100         1.4716         2.0879       0.562000
       2345.00        83.4600         1.4800         2.1040       0.525300
       2345.50        84.2100         1.4782         2.1140       0.507300
       2346.00        84.2100         1.4700         2.1118       0.519100
       2346.50        85.0700         1.4700         2.0959       0.544000
       2347.00        85.0800         1.4700         2.0942       0.536600
       2347.50        85.0800         1.4700         2.1042       0.518800
       2348.00        84.9600         1.4700         2.1100       0.493300
       2348.50        85.7200         1.4722         2.0930       0.496600
       2349.00        87.7300         1.4800         2.0614       0.538700
       2349.50        88.9900         1.4871         2.0457       0.568400
       2350.00        90.7300         1.5100         2.0444       0.582300
       2350.50        91.3600         1.5100         2.0676       0.570100
       2351.00        92.7800         1.5152         2.0944       0.536000
       2351.50        92.8400         1.5300         2.1134       0.501500
       2352.00        93.2200         1.5328         2.1255       0.477700
       2352.50        91.4700         1.5400         2.1109       0.530600
       2353.00        91.1100         1.5459         2.0954       0.568000
       2353.50        90.3000         1.5570         2.0761       0.566300
       2354.00        90.3600         1.5408         2.0600       0.541400
       2354.50        91.1100         1.5231         2.0553       0.557600
       2355.00        92.4100         1.5300         2.0594       0.626300
       2355.50        93.2900         1.5333         2.0748       0.650700
       2356.00        92.7300         1.5400         2.0848       0.630200
       2356.50        91.3500         1.5435         2.0803       0.620500
       2357.00        90.3600         1.5571         2.0554       0.600400
       2357.50        87.9700         1.5700         2.0400       0.556000
       2358.00        85.3400         1.5774         2.0351       0.505300
       2358.50        84.2700         1.5900         2.0300       0.500000
       2359.00        85.3900         1.5900         2.0300       0.530100
       2359.50        88.1000         1.5900         2.0350       0.549800
       2360.00        92.0500         1.5860         2.0349       0.534300
       2360.50        95.5500         1.5759         2.0454       0.499600
       2361.00        98.4800         1.5783         2.0755       0.496400
       2361.50        98.0500         1.5858         2.0900       0.542100
       2362.00        96.8100         1.5757         2.0691       0.585400
       2362.50        94.4200         1.5612         2.0289       0.578500
       2363.00        91.7700         1.5500         1.9994       0.559800
       2363.50        90.1900         1.5409         1.9847       0.554900
