~Version Information Block
VERS .                  2.0:  CWLS LOG ASCII STANDARD - VERSION 2.0
WRAP .                   NO:  One line per depth step
~Well Information Block
#MNEM.UNIT        Data Type   Information
#---------- ----------------  -----------
STRT .FT            3742.00:  START DEPTH
STOP .FT            8440.00:  STOP DEPTH
STEP .FT               0.50:  STEP
NULL .              -999.25:  NULL VALUE
COMP .                     :  COMPANY
WELL .                STA-2:  WELL
FLD  .                     :  FIELD
LOC  .                     :  LOCATION
CTRY .                     :  COUNTRY
STAT .                     :  STATE
CNTY .                     :  COUNTY
SRVC .                     :  SERVICE COMPANY
DATE .                     :  DATE
API  .                     :  API NUMBER
UWI  .                     :  UNIQUE WELL ID
~Curve Information Block
#MNEM.UNIT         API CODE   Curve Description
#---------- ----------------  -----------------
DEPTH.FT                   :  DEPTH
GR   .GAPI                 :  Gamma Ray
RT   .OHMM                 :  Deep resistivity
RHOB .G/C3                 :  Bulk Density
NPHI .V/V                  :  Neutron porosity
DT   .US/F                 :  Sonic
~Parameter Information Block
#MNEM.UNIT            Value   Description
#---------- ----------------  -----------
PROJECT.            SANTAN_FE:  
~Other Information Block
# 
~A       DEPTH             GR             RT           RHOB           NPHI             DT 
# ...
       4276.00        51.8600         2.5100         1.9600       0.450000       118.8000
       4276.50        51.9800         3.3500         1.9100       0.510000       120.5500
       4277.00        53.6900         4.0600         1.9800       0.490000       122.0000
       4277.50        62.4000         2.9000         2.2100       0.380000       111.9000
       4278.00        69.3100         1.8400         2.3800       0.310000       106.9000
       4278.50        73.4800         1.6800         2.4100       0.300000       107.4500
       4279.00        73.9800         2.0900         2.4200       0.290000       108.3000
       4279.50        74.8200         2.1400         2.4100       0.300000       109.8000
       4280.00        77.3600         2.1700         2.3700       0.310000       110.4000
       4280.50        76.6900         2.3300         2.3400       0.310000       111.7000
       4281.00        79.0500         2.1000         2.3300       0.310000       112.5500
       4281.50        78.5200         1.8500         2.3400       0.310000       112.8000
       4282.00        81.5000         1.9900         2.3400       0.340000       113.7000
       4282.50        81.4300         1.9400         2.3200       0.350000       114.6000
       4283.00        81.5400         1.9500         2.3200       0.370000       116.3000
       4283.50        84.5500         1.9200         2.3100       0.370000       117.3000
       4284.00        84.9200         1.9600         2.3100       0.370000       117.6500
       4284.50        89.2800         1.6600         2.3000       0.370000       118.6000
       4285.00        92.4100         1.5700         2.2900       0.380000       120.9000
       4285.50        94.2800         1.5800         2.2900       0.420000       121.5500
       4286.00        96.2600         1.7900         2.3100       0.420000       122.3500
       4286.50        95.9900         1.5800         2.3200       0.400000       123.3000
       4287.00        98.4900         1.4500         2.3200       0.390000       125.2000
       4287.50        96.6600         1.5100         2.3200       0.390000       125.6000
       4288.00        95.8400         1.5600         2.3200       0.410000       126.6500
       4288.50        94.3300         1.5000         2.3200       0.410000       127.3000
       4289.00        91.9800         1.4000         2.3100       0.410000       127.8000
       4289.50        90.9300         1.4600         2.3100       0.400000       128.0000
       4290.00        90.9900         1.4500         2.3000       0.420000       128.5000
       4290.50        92.5100         1.4400         2.3100       0.410000       129.0000
       4291.00        95.5500         1.4000         2.3100       0.420000       129.4000
       4291.50        95.7500         1.3600         2.3100       0.450000       130.2000
       4292.00        99.5200         1.3300         2.3000       0.480000       131.2000
       4292.50       101.6900         1.3300         2.3000       0.460000       131.9000
       4293.00       104.9600         1.3100         2.3000       0.440000       132.8000
       4293.50       110.4800         1.2600         2.3000       0.430000       133.5000
       4294.00       105.5600         1.3500         2.3000       0.430000       133.8500
       4294.50        97.4200         1.4000         2.2900       0.430000       133.5500
       4295.00        78.5400         1.3400         2.2600       0.400000       128.8000
       4295.50        65.5400         1.6500         2.2000       0.380000       123.3500
       4296.00        54.2300         1.9700         2.1500       0.350000       120.2000
       4296.50        51.0000         1.7000         2.1200       0.340000       118.4500
       4297.00        54.4900         1.7300         2.1300       0.330000       117.7000
       4297.50        60.2300         1.6900         2.1700       0.350000       118.8000
       4298.00        71.0400         1.5000         2.2500       0.370000       119.5000
       4298.50        75.0300         1.6600         2.3000       0.390000       121.3000
       4299.00        82.4000         1.6200         2.3200       0.390000       123.4000
       4299.50        84.0300         1.4400         2.3200       0.400000       123.7500
       4300.00        92.9100         1.4600         2.3300       0.410000       124.1500
       4300.50        99.6300         1.5000         2.3100       0.420000       124.8500
       4301.00       101.7700         1.3700         2.3100       0.420000       126.7000
       4301.50       100.9900         1.4700         2.3100       0.400000       127.7500
       4302.00       103.5500         1.3600         2.3100       0.390000       128.3000
       4302.50       108.7700         1.3100         2.3100       0.380000       128.6500
       4303.00       110.0700         1.3300         2.3000       0.370000       129.4000
       4303.50       104.6400         1.4900         2.3100       0.390000       130.0000
       4304.00       100.1900         1.3100         2.3000       0.400000       130.6500
       4304.50        99.0700         1.2300         2.3000       0.410000       130.4500
       4305.00        99.2000         1.4100         2.2900       0.430000       131.2000
       4305.50        98.5000         1.3700         2.3000       0.430000       130.4000
       4306.00        92.3200         1.1300         2.3100       0.450000       126.1000
       4306.50        85.0300         1.2500         2.3100       0.400000       123.5000
       4307.00        74.4000         2.2800         2.2700       0.360000       119.5500
       4307.50        65.4900         2.1700         2.2000       0.330000       117.1000
       4308.00        57.7100         1.9800         2.1600       0.310000       117.6500
       4308.50        55.1700         1.9200         2.1400       0.320000       121.0000
       4309.00        57.1700         1.8300         2.1400       0.340000       121.1000
       4309.50        64.4900         1.7800         2.1500       0.360000       120.3500
       4310.00        73.5800         1.8500         2.1700       0.370000       120.7000
       4310.50        81.4300         1.6100         2.2200       0.350000       120.9000
       4311.00        83.1700         1.6400         2.2600       0.350000       118.1000
       4311.50        86.1100         1.6700         2.2900       0.340000       117.6000
       4312.00        82.5600         1.6700         2.3000       0.330000       116.5000
       4312.50        76.3900         1.6700         2.2600       0.330000       117.2000
       4313.00        63.2800         1.7000         2.1800       0.330000       120.2000
       4313.50        50.0400         1.6300         2.0900       0.320000       124.4000
       4314.00        40.5700         1.5200         2.0600       0.320000       127.1500
       4314.50        36.1700         1.4100         2.0600       0.330000       127.2500
       4315.00        35.8000         1.2500         2.0800       0.340000       127.2000
       4315.50        37.2800         1.2900         2.0800       0.350000       127.6000
       4316.00        36.4900         1.4600         2.0600       0.350000       128.7000
       4316.50        37.5400         1.3900         2.0500       0.340000       128.0000
       4317.00        36.8800         1.4200         2.0400       0.350000       127.1500
       4317.50        44.1900         1.4800         2.0700       0.370000       126.7000
       4318.00        55.9500         1.7400         2.1200       0.380000       124.3500
       4318.50        66.6700         1.6700         2.1900       0.400000       122.2500
       4319.00        68.7200         1.6000         2.2300       0.370000       123.7000
       4319.50        63.5100         1.4600         2.1800       0.350000       125.2000
       4320.00        55.0300         1.6000         2.1200       0.330000       125.7000
