~Version Information Block
VERS .                  2.0:  CWLS LOG ASCII STANDARD - VERSION 2.0
WRAP .                   NO:  One line per depth step
~Well Information Block
#MNEM.UNIT        Data Type   Information
#---------- ----------------  -----------
STRT .FT             350.00:  START DEPTH
STOP .FT           16021.50:  STOP DEPTH
STEP .FT               0.50:  STEP
NULL .              -999.25:  NULL VALUE
COMP .                     :  COMPANY
WELL .               STA-30:  WELL
FLD  .                     :  FIELD
LOC  .                     :  LOCATION
CTRY .                     :  COUNTRY
STAT .                     :  STATE
CNTY .                     :  COUNTY
SRVC .                     :  SERVICE COMPANY
DATE .                     :  DATE
API  .                     :  API NUMBER
UWI  .                     :  UNIQUE WELL ID
~Curve Information Block
#MNEM.UNIT         API CODE   Curve Description
#---------- ----------------  -----------------
DEPTH.FT                   :  
GR   .GAPI                 :  Merged RAW_LOG.GR_17P_1 with RAW_LOG.GR_12P_1 and RAW_LOG.GR_8P_1 and RAW_LOG.GR_6P_1 at 1127.75, 5954.49, 11516.11 F
RT   .OHMM                 :  RT_1 Depth Shifted (Shift Pairs in MATCH_RT set)
RHOB .G/C3                 :  RHOB_1 Depth Shifted (Shift Pairs in MATCH_RHOB set)
NPHI .V/V                  :  NPHI_1 Depth Shifted (Shift Pairs in MATCH_NPHI set)
~Parameter Information Block
#MNEM.UNIT            Value   Description
#---------- ----------------  -----------
PROJECT.            SANTAN_FE:  
~Other Information Block
# 
~A       DEPTH             GR             RT           RHOB           NPHI 
# ...
       9766.00        71.4979         2.5423         2.5202       0.251012
       9766.50        70.5906         2.5043         2.5467       0.251673
       9767.00        66.8593         2.6153         2.5503       0.244484
       9767.50        69.9078         2.7156         2.5253       0.240689
       9768.00        71.5961         2.6740         2.5014       0.246360
       9768.50        74.3789         2.3372         2.4900       0.251854
       9769.00        75.6644         2.0880         2.4840       0.250569
       9769.50        74.7334         2.2404         2.4802       0.252055
       9770.00        79.2000         2.3185         2.4758       0.266078
       9770.50        87.1196         2.1409         2.4683       0.293008
       9771.00        94.9391         1.8195         2.4568       0.325890
       9771.50        94.9597         1.7694         2.4423       0.349999
       9772.00        97.0254         1.9068         2.4339       0.353677
       9772.50        96.8136         1.9858         2.4475       0.338455
       9773.00        93.7284         2.0925         2.4867       0.317626
       9773.50        87.3943         2.1920         2.5239       0.304043
       9774.00        85.6459         2.2038         2.5393       0.297504
       9774.50        86.8341         2.2195         2.5387       0.295047
       9775.00        92.7634         2.2711         2.5362       0.293924
       9775.50        84.2076         2.3203         2.5364       0.288807
       9776.00        83.2289         2.3255         2.5356       0.278991
       9776.50        79.6866         2.3308         2.5337       0.268155
       9777.00        75.3891         2.3668         2.5338       0.258657
       9777.50        75.2575         2.4215         2.5362       0.253035
       9778.00        77.2369         2.4710         2.5358       0.255463
       9778.50        79.6864         2.5127         2.5322       0.260101
       9779.00        80.3636         2.5669         2.5302       0.260787
       9779.50        77.8815         2.5535         2.5236       0.261062
       9780.00        75.0923         2.4881         2.5144       0.263986
       9780.50        75.6657         2.4255         2.5182       0.267111
       9781.00        78.6593         2.4052         2.5293       0.267413
       9781.50        78.6243         2.3437         2.5246       0.263641
       9782.00        77.1329         2.2793         2.4982       0.257331
       9782.50        71.8559         2.2733         2.4709       0.253092
       9783.00        71.1166         2.2487         2.4680       0.253212
       9783.50        72.4582         2.2504         2.4950       0.252164
       9784.00        76.4941         2.3076         2.5301       0.244139
       9784.50        72.9901         2.5473         2.5491       0.232083
       9785.00        70.4698         2.7012         2.5506       0.223689
       9785.50        69.6216         2.6890         2.5433       0.220692
       9786.00        72.1238         2.5864         2.5339       0.220225
       9786.50        77.7521         2.4514         2.5330       0.224826
       9787.00        82.9750         2.3372         2.5396       0.235797
       9787.50        82.3771         2.2621         2.5459       0.246199
       9788.00        82.4392         2.2750         2.5532       0.249942
       9788.50        81.6543         2.3849         2.5601       0.250126
       9789.00        77.9884         2.5817         2.5605       0.245914
       9789.50        68.6795         2.7596         2.5517       0.229606
       9790.00        56.1937         2.9145         2.5376       0.205420
       9790.50        50.9060         3.0948         2.5222       0.188603
       9791.00        49.2423         3.0313         2.5015       0.186251
       9791.50        49.1970         2.6501         2.4733       0.193432
       9792.00        55.3636         2.4439         2.4515       0.203124
       9792.50        61.3418         2.3764         2.4465       0.212587
       9793.00        73.1269         2.3455         2.4555       0.223466
       9793.50        81.6820         2.3191         2.4702       0.237264
       9794.00        85.9821         2.4135         2.4791       0.251810
       9794.50        88.2848         2.3970         2.4822       0.262752
       9795.00        90.0962         2.4703         2.4908       0.270888
       9795.50        84.0866         2.6236         2.5038       0.275883
       9796.00        74.1034         2.7251         2.5089       0.270643
       9796.50        74.5452         2.7052         2.5024       0.257962
       9797.00        73.1421         2.6571         2.4934       0.245177
       9797.50        70.5614         2.6291         2.4911       0.231432
       9798.00        74.4492         2.5750         2.4980       0.221458
       9798.50        74.4994         2.5337         2.5099       0.221510
       9799.00        68.1440         2.4098         2.5123       0.227722
       9799.50        60.3645         2.1925         2.4886       0.230891
       9800.00        53.4308         1.9103         2.4422       0.228165
       9800.50        51.2759         1.6650         2.3904       0.226844
       9801.00        45.2482         1.5378         2.3435       0.232086
       9801.50        42.3406         1.4824         2.3070       0.239711
       9802.00        39.5745         1.4363         2.2843       0.245073
       9802.50        37.6707         1.3919         2.2775       0.247204
       9803.00        42.5618         1.4698         2.2882       0.246144
       9803.50        46.0726         1.5192         2.3100       0.242785
       9804.00        45.7150         1.5086         2.3267       0.242237
       9804.50        45.8759         1.3924         2.3253       0.247555
       9805.00        42.1608         1.3218         2.3093       0.253679
       9805.50        40.4912         1.3143         2.2935       0.258101
       9806.00        38.3633         1.3470         2.2821       0.263239
       9806.50        34.6273         1.3128         2.2700       0.266799
       9807.00        32.1685         1.2043         2.2584       0.263844
       9807.50        30.5648         1.1321         2.2484       0.255053
       9808.00        28.2037         1.0974         2.2368       0.247181
       9808.50        27.8585         1.0774         2.2276       0.245699
       9809.00        27.8885         1.0649         2.2273       0.250261
       9809.50        30.5280         1.1224         2.2383       0.257047
       9810.00        30.8775         1.1828         2.2462       0.264556
       9810.50        30.0819         1.0702         2.2366       0.271783
       9811.00        33.0568         1.0142         2.2345       0.276964
       9811.50        42.2705         1.1665         2.2755       0.279642
       9812.00        54.7068         1.4764         2.3450       0.280701
       9812.50        61.7157         1.4349         2.3878       0.278764
       9813.00        53.5243         1.3081         2.3768       0.272595
       9813.50        45.4795         1.2588         2.3379       0.264778
       9814.00        43.1948         1.2826         2.3131       0.258978
       9814.50        41.8850         1.3007         2.3083       0.259720
       9815.00        39.7074         1.2498         2.3014       0.268971
       9815.50        39.9074         1.2332         2.2921       0.275507
       9816.00        43.5868         1.3827         2.2973       0.270611
       9816.50        43.0088         1.3668         2.3103       0.261890
       9817.00        43.9930         1.5262         2.3221       0.257221
       9817.50        49.8981         1.7285         2.3452       0.257300
       9818.00        56.4535         1.7858         2.3787       0.260183
       9818.50        61.0893         1.8655         2.4057       0.261334
       9819.00        63.1703         1.9544         2.4199       0.257709
