~Version Information Block
VERS .                  2.0:  CWLS LOG ASCII STANDARD - VERSION 2.0
WRAP .                   NO:  One line per depth step
~Well Information Block
#MNEM.UNIT        Data Type   Information
#---------- ----------------  -----------
STRT .FT             780.00:  START DEPTH
STOP .FT            8996.00:  STOP DEPTH
STEP .FT               0.50:  STEP
NULL .              -999.25:  NULL VALUE
COMP .                     :  COMPANY
WELL .                STA-4:  WELL
FLD  .                     :  FIELD
LOC  .                     :  LOCATION
CTRY .                     :  COUNTRY
STAT .                     :  STATE
CNTY .                     :  COUNTY
SRVC .                     :  SERVICE COMPANY
DATE .                     :  DATE
API  .                     :  API NUMBER
UWI  .                     :  UNIQUE WELL ID
~Curve Information Block
#MNEM.UNIT         API CODE   Curve Description
#---------- ----------------  -----------------
DEPTH.FT                   :  DEPTH
GR   .GAPI                 :  Gamma Ray
RT   .OHMM                 :  SEDP
RHOB .G/C3                 :  Bulk Density
NPHI .V/V                  :  Neutron porosity
~Parameter Information Block
#MNEM.UNIT            Value   Description
#---------- ----------------  -----------
PROJECT.            SANTAN_FE:  
~Other Information Block
# 
~A       DEPTH             GR             RT           RHOB           NPHI 
# ...
       1315.00        81.7000         1.0800         1.9700       0.552600
       1315.50        80.5400         1.0600         1.9600       0.566800
       1316.00        81.0300         1.0400         1.9400       0.577200
       1316.50        80.6600         1.0400         1.9300       0.578100
       1317.00        82.3400         1.0400         1.9300       0.570500
       1317.50        82.7400         1.0400         1.9400       0.555100
       1318.00        87.1400         1.0500         1.9500       0.520900
       1318.50        86.9700         1.0600         1.9700       0.502100
       1319.00        91.9800         1.0200         1.9800       0.499700
       1319.50        94.9400         1.0100         1.9900       0.520500
       1320.00        94.9800         1.0000         2.0000       0.529600
       1320.50        89.5100         0.9900         2.0200       0.541600
       1321.00        86.0100         0.9900         2.0100       0.572000
       1321.50        83.4800         1.0000         1.9800       0.588800
       1322.00        80.1400         1.0300         1.9600       0.594800
       1322.50        81.2200         1.0900         1.9600       0.594300
       1323.00        81.3300         1.1600         1.9700       0.596500
       1323.50        79.9700         1.2600         1.9700       0.590500
       1324.00        76.1300         1.3600         1.9600       0.580400
       1324.50        71.1400         1.4200         1.9700       0.579300
       1325.00        69.3200         1.4200         1.9800       0.579500
       1325.50        63.9000         1.4200         1.9800       0.578700
       1326.00        51.6600         1.4000         1.9700       0.573200
       1326.50        44.3100         1.3400         1.9600       0.571200
       1327.00        43.3500         1.2900         1.9700       0.581400
       1327.50        44.1800         1.3000         1.9600       0.578700
       1328.00        36.1100         1.3300         1.9500       0.568900
       1328.50        32.2900         1.4000         1.9500       0.563100
       1329.00        31.9700         1.4500         1.9700       0.557300
       1329.50        34.7900         1.5000         1.9900       0.548000
       1330.00        36.0400         1.5400         1.9700       0.537200
       1330.50        38.8800         1.5900         2.0000       0.529600
       1331.00        40.3300         1.6300         2.0200       0.522200
       1331.50        38.5900         1.6500         2.0200       0.503000
       1332.00        33.9600         1.6300         2.0500       0.485800
       1332.50        34.2400         1.6100         2.0800       0.498800
       1333.00        30.5300         1.5800         2.1100       0.499100
       1333.50        30.2800         1.5300         2.1000       0.493000
       1334.00        30.1900         1.4900         2.0800       0.473900
       1334.50        32.8000         1.4500         2.0500       0.470400
       1335.00        31.1800         1.4700         2.0200       0.474800
       1335.50        29.1300         1.4700         2.0100       0.490000
       1336.00        26.0600         1.4400         2.0100       0.481600
       1336.50        26.6000         1.4100         2.0200       0.470700
       1337.00        26.3600         1.4500         2.0200       0.458400
       1337.50        22.8200         1.4500         2.0200       0.457000
       1338.00        27.4400         1.4500         2.0200       0.459500
       1338.50        29.3000         1.4600         2.0500       0.460200
       1339.00        28.1700         1.4500         2.0700       0.458100
       1339.50        29.2400         1.4400         2.0500       0.451600
       1340.00        31.7400         1.4500         2.0600       0.452700
       1340.50        33.0500         1.4500         2.0900       0.462400
       1341.00        33.6900         1.4500         2.0900       0.474200
       1341.50        35.1400         1.4800         2.0700       0.479100
       1342.00        39.9700         1.4900         2.0600       0.486100
       1342.50        34.7800         1.4900         2.0600       0.490100
       1343.00        30.8000         1.5500         2.0600       0.492500
       1343.50        27.2100         1.7400         2.0500       0.487900
       1344.00        25.5600         1.8700         2.0800       0.484700
       1344.50        23.5400         1.9500         2.1400       0.475500
       1345.00        21.7700         1.9600         2.1400       0.443200
       1345.50        20.3800         1.9100         2.0600       0.432400
       1346.00        21.1000         1.8900         2.0100       0.441600
       1346.50        19.9400         1.8900         1.9900       0.462100
       1347.00        20.0900         2.0000         1.9100       0.487900
       1347.50        22.3200         2.2700         1.8700       0.494600
       1348.00        31.4200         2.2400         1.8800       0.474600
       1348.50        27.5800         2.1200         1.9900       0.453200
       1349.00        27.2900         2.0500         2.1200       0.433400
       1349.50        24.7000         2.0800         2.1500       0.416200
       1350.00        25.4100         2.0400         2.1800       0.403400
       1350.50        27.3600         2.0000         2.2000       0.389400
       1351.00        27.9400         1.9600         2.1900       0.393000
       1351.50        22.5500         1.8900         2.1500       0.405000
       1352.00        25.9700         1.9100         2.1400       0.413700
       1352.50        27.0900         1.9100         2.1400       0.416300
       1353.00        25.6600         1.8600         2.1200       0.429900
       1353.50        28.2600         1.8200         2.0700       0.444700
       1354.00        38.1500         1.7600         2.0100       0.449000
       1354.50        27.4700         1.7900         1.9200       0.448700
       1355.00        23.0800         1.7800         1.8600       0.450500
       1355.50        21.9100         1.7800         1.8400       0.448800
       1356.00        20.1800         1.7500         1.7900       0.450500
       1356.50        20.9100         1.7300         1.7600       0.452000
       1357.00        20.6300         1.7100         1.7500       0.454300
       1357.50        20.6600         1.6700         1.7800       0.457800
       1358.00        21.8800         1.6300         1.8400       0.461800
       1358.50        22.6500         1.6100         1.8600       0.462500
       1359.00        21.7500         1.6400         1.8600       0.471300
       1359.50        24.1000         1.7000         1.8800       0.476000
       1360.00        29.4000         1.7600         1.8900       0.478500
       1360.50        25.3500         1.7800         1.9000       0.476300
       1361.00        22.2900         1.8000         1.9100       0.473200
       1361.50        22.6200         1.8000         1.9300       0.470900
       1362.00        22.4100         1.7700         1.9700       0.465600
       1362.50        20.5400         1.7700         1.9500       0.453600
       1363.00        20.2500         1.8200         1.9900       0.447100
       1363.50        22.3200         1.8100         2.0600       0.442300
       1364.00        21.0900         1.7700         2.0800       0.438000
       1364.50        21.6200         1.7400         2.0900       0.434900
       1365.00        21.2300         1.7400         2.1100       0.434600
       1365.50        21.8000         1.7600         2.1300       0.437200
       1366.00        30.2800         1.6900         2.1500       0.431600
       1366.50        29.5100         1.6200         2.1500       0.416000
       1367.00        17.9400         1.6800         2.1500       0.409000
       1367.50        17.0700         1.6800         2.1700       0.402700
       1368.00        21.9900         1.6400         2.1800       0.390300
