~Version Information Block
VERS .                  2.0:  CWLS LOG ASCII STANDARD - VERSION 2.0
WRAP .                   NO:  One line per depth step
~Well Information Block
#MNEM.UNIT        Data Type   Information
#---------- ----------------  -----------
STRT .FT            3742.00:  START DEPTH
STOP .FT            8440.00:  STOP DEPTH
STEP .FT               0.50:  STEP
NULL .              -999.25:  NULL VALUE
COMP .                     :  COMPANY
WELL .                STA-2:  WELL
FLD  .                     :  FIELD
LOC  .                     :  LOCATION
CTRY .                     :  COUNTRY
STAT .                     :  STATE
CNTY .                     :  COUNTY
SRVC .                     :  SERVICE COMPANY
DATE .                     :  DATE
API  .                     :  API NUMBER
UWI  .                     :  UNIQUE WELL ID
~Curve Information Block
#MNEM.UNIT         API CODE   Curve Description
#---------- ----------------  -----------------
DEPTH.FT                   :  DEPTH
GR   .GAPI                 :  Gamma Ray
RT   .OHMM                 :  Deep resistivity
RHOB .G/C3                 :  Bulk Density
NPHI .V/V                  :  Neutron porosity
DT   .US/F                 :  Sonic
~Parameter Information Block
#MNEM.UNIT            Value   Description
#---------- ----------------  -----------
PROJECT.            SANTAN_FE:  
~Other Information Block
# 
~A       DEPTH             GR             RT           RHOB           NPHI             DT 
# ...
       6011.50       108.4500         0.9800         2.3800       0.340000       115.4500
       6012.00       110.0900         0.8700         2.3800       0.360000       117.2000
       6012.50       112.2000         0.9100         2.3700       0.360000       117.8000
       6013.00       105.5500         1.0200         2.3800       0.350000       117.3000
       6013.50       100.9000         1.1300         2.3800       0.340000       115.1500
       6014.00        91.2700         1.0800         2.4000       0.340000       109.7000
       6014.50        89.9600         1.3600         2.4000       0.330000       106.6500
       6015.00        87.9500         1.5800         2.3800       0.330000       106.1000
       6015.50        94.2700         1.4700         2.3600       0.330000       106.4000
       6016.00       103.3000         1.2400         2.3500       0.330000       110.2000
       6016.50       104.8400         1.4000         2.3500       0.320000       110.8000
       6017.00       102.3000         1.5100         2.3600       0.310000       109.1000
       6017.50        94.0900         1.5800         2.3800       0.310000       106.6000
       6018.00        93.0400         1.5400         2.3800       0.300000       103.9000
       6018.50        89.8700         1.6100         2.3800       0.300000       104.2000
       6019.00        92.6000         1.6700         2.3800       0.300000       104.2500
       6019.50        94.4800         1.6100         2.3600       0.310000       104.9000
       6020.00        95.3200         1.4900         2.3400       0.320000       108.6000
       6020.50       103.1600         1.4100         2.2800       0.350000       116.5000
       6021.00       100.5500         1.3700         2.2500       0.400000       119.8000
       6021.50       104.1600         1.2400         2.2500       0.410000       119.6500
       6022.00        96.2500         1.0500         2.3100       0.380000       118.1500
       6022.50        94.2700         1.3500         2.3500       0.330000       112.5000
       6023.00        93.4200         1.3000         2.3700       0.310000       109.7000
       6023.50       100.7500         1.3300         2.3700       0.310000       111.0500
       6024.00       107.5600         1.3400         2.3600       0.330000       113.6000
       6024.50       106.2100         1.0600         2.3700       0.340000       115.8000
       6025.00       106.7100         1.0000         2.3700       0.360000       117.3000
       6025.50       106.4400         1.0600         2.3800       0.360000       116.5500
       6026.00       106.9100         1.0800         2.3800       0.360000       115.6000
       6026.50       105.4000         1.0600         2.3900       0.370000       116.4500
       6027.00       108.7400         1.0200         2.3900       0.380000       116.7000
       6027.50       110.6000         0.9600         2.3900       0.380000       117.8000
       6028.00       108.4100         0.9400         2.3900       0.380000       117.7000
       6028.50       101.5000         1.0400         2.3900       0.380000       116.4500
       6029.00       102.1600         1.0300         2.3900       0.370000       115.6500
       6029.50       103.0600         0.9900         2.4000       0.380000       115.6000
       6030.00       104.4400         0.9400         2.4000       0.360000       116.4000
       6030.50       101.3600         0.9300         2.3900       0.370000       116.3000
       6031.00        97.2300         0.9900         2.3900       0.350000       116.6000
       6031.50        99.1600         1.0300         2.3900       0.340000       115.5000
       6032.00       101.6000         1.0300         2.3900       0.360000       114.3500
       6032.50       100.3600         1.0700         2.4000       0.370000       113.3500
       6033.00       100.2300         1.1100         2.4000       0.380000       112.8000
       6033.50        96.5900         1.2100         2.3900       0.340000       111.9000
       6034.00        93.2800         1.2700         2.3600       0.320000       111.9500
       6034.50        81.7000         1.4300         2.3400       0.310000       109.8000
       6035.00        73.6800         1.4800         2.3400       0.300000       107.7500
       6035.50        68.3400         1.8900         2.3300       0.290000       106.2000
       6036.00        69.7600         1.8300         2.3500       0.300000       104.9000
       6036.50        73.8200         1.6800         2.3500       0.300000       104.7000
       6037.00        77.7200         1.5700         2.3400       0.290000       105.4500
       6037.50        79.1900         1.4900         2.3200       0.300000       105.7500
       6038.00        77.1300         1.4600         2.3300       0.300000       105.5000
       6038.50        77.1100         1.6000         2.3400       0.300000       106.2000
       6039.00        80.5600         1.4600         2.3500       0.310000       107.4000
       6039.50        86.0300         1.3600         2.3700       0.330000       109.0500
       6040.00        88.5400         1.2600         2.3800       0.360000       112.1000
       6040.50        92.2900         1.1200         2.3900       0.370000       113.9500
       6041.00        95.4500         1.1000         2.3700       0.360000       114.6000
       6041.50       100.9200         1.0500         2.3800       0.340000       115.3000
       6042.00        97.4700         1.0500         2.3600       0.340000       115.4000
       6042.50        95.1100         0.9900         2.3600       0.350000       115.2000
       6043.00        89.5300         0.9700         2.3800       0.340000       113.1500
       6043.50        88.6000         1.1400         2.3800       0.320000       110.5000
       6044.00        86.8600         1.4800         2.3600       0.310000       108.2000
       6044.50        82.5100         1.6400         2.3300       0.290000       106.0000
       6045.00        78.5600         1.7000         2.3100       0.290000       104.7000
       6045.50        72.2800         1.7200         2.3000       0.300000       104.5000
       6046.00        74.3100         1.7000         2.3000       0.310000       105.3500
       6046.50        70.4000         1.5600         2.3100       0.300000       105.6000
       6047.00        71.1800         1.4400         2.3000       0.300000       105.2000
       6047.50        67.1800         1.5900         2.2900       0.280000       105.5500
       6048.00        67.8200         1.7300         2.2600       0.290000       106.1500
       6048.50        68.2400         1.8000         2.2400       0.280000       107.3500
       6049.00        71.2300         1.9800         2.2300       0.280000       107.7000
       6049.50        75.0000         1.8400         2.2400       0.290000       110.7500
       6050.00        80.2400         1.4800         2.2400       0.330000       113.1000
       6050.50        82.1100         1.2000         2.2300       0.360000       116.6000
       6051.00        81.9500         1.1500         2.2100       0.360000       118.6000
       6051.50        84.2700         1.1800         2.2300       0.350000       117.2500
       6052.00        90.2100         1.0500         2.2900       0.330000       114.3500
       6052.50        92.1900         1.0400         2.3400       0.300000       111.0000
       6053.00        88.7400         0.9800         2.3800       0.300000       110.2000
       6053.50        86.2700         0.9600         2.3800       0.280000       110.0000
       6054.00        85.7600         1.0900         2.3500       0.290000       109.7500
       6054.50        75.3500         1.1900         2.2700       0.280000       110.2000
       6055.00        64.0400         1.4800         2.2300       0.280000       112.1500
       6055.50        55.2000         2.2900         2.2000       0.270000       113.3000
