~Version Information Block
VERS .                  2.0:  CWLS LOG ASCII STANDARD - VERSION 2.0
WRAP .                   NO:  One line per depth step
~Well Information Block
#MNEM.UNIT        Data Type   Information
#---------- ----------------  -----------
STRT .FT            6091.50:  START DEPTH
STOP .FT           14295.50:  STOP DEPTH
STEP .FT               0.50:  STEP
NULL .              -999.25:  NULL VALUE
COMP .                     :  COMPANY
WELL .               STA-35:  WELL
FLD  .                     :  FIELD
LOC  .                     :  LOCATION
CTRY .                     :  COUNTRY
STAT .                     :  STATE
CNTY .                     :  COUNTY
SRVC .                     :  SERVICE COMPANY
DATE .                     :  DATE
API  .                     :  API NUMBER
UWI  .                     :  UNIQUE WELL ID
~Curve Information Block
#MNEM.UNIT         API CODE   Curve Description
#---------- ----------------  -----------------
DEPTH.FT                   :  Depth
GR   .GAPI                 :  Gamma Ray
RT   .OHMM                 :  True Resistivity
RHOB .G/C3                 :  Bulk Density
NPHI .V/V                  :  Neutron Porosity
~Parameter Information Block
#MNEM.UNIT            Value   Description
#---------- ----------------  -----------
PROJECT.            SANTAN_FE:  
~Other Information Block
# 
~A       DEPTH             GR             RT           RHOB           NPHI 
# ...
      13688.50        89.6208         4.2126         2.6245       0.188900
      13689.00        88.9409         4.1550         2.6292       0.195800
      13689.50        94.8148         4.1299         2.6268       0.194700
      13690.00        93.9857         4.1040         2.6221       0.188900
      13690.50        91.6742         4.1295         2.6241       0.187400
      13691.00        91.6038         4.1426         2.6254       0.189700
      13691.50        94.8443         4.1187         2.6262       0.188900
      13692.00        95.5893         4.1212         2.6341       0.182600
      13692.50        93.5890         4.2169         2.6390       0.177900
      13693.00        90.1307         4.2766         2.6387       0.176700
      13693.50        90.2799         4.2779         2.6385       0.176800
      13694.00        92.8508         4.2870         2.6376       0.176700
      13694.50        91.2059         4.2951         2.6368       0.177200
      13695.00        92.4095         4.2759         2.6380       0.180400
      13695.50        92.6355         4.2313         2.6401       0.184900
      13696.00        92.1603         4.1392         2.6408       0.189100
      13696.50        93.4634         4.0584         2.6386       0.192700
      13697.00        94.4636         4.0254         2.6342       0.194400
      13697.50        95.0172         4.0272         2.6282       0.194300
      13698.00        92.4396         3.9521         2.6236       0.191400
      13698.50        96.0818         3.8922         2.6269       0.186200
      13699.00        98.4324         3.9160         2.6371       0.185400
      13699.50        95.6667         3.9839         2.6386       0.188700
      13700.00        89.4054         4.0344         2.6317       0.190300
      13700.50        95.9873         4.0684         2.6335       0.190200
      13701.00        96.8400         4.0827         2.6360       0.190600
      13701.50        96.3844         4.0441         2.6222       0.189500
      13702.00        93.4799         4.0598         2.6110       0.186000
      13702.50        93.8315         4.0620         2.6215       0.182000
      13703.00        91.9470         4.0118         2.6368       0.176800
      13703.50        91.1068         4.0689         2.6384       0.173100
      13704.00        93.8069         4.2486         2.6311       0.174200
      13704.50        95.3269         4.2861         2.6239       0.177400
      13705.00        89.3247         4.2111         2.6247       0.180300
      13705.50        91.1397         4.0871         2.6342       0.185800
      13706.00        93.2010         4.0494         2.6418       0.191500
      13706.50        93.0779         4.0875         2.6433       0.192000
      13707.00        92.9670         4.0894         2.6426       0.189600
      13707.50        92.4213         4.0148         2.6484       0.187700
      13708.00        90.8489         3.9353         2.6578       0.187000
      13708.50        90.1658         3.9421         2.6595       0.188300
      13709.00        92.1088         3.9854         2.6511       0.189000
      13709.50        94.7533         3.9300         2.6375       0.186700
      13710.00        98.7763         3.9070         2.6255       0.183400
      13710.50       100.9869         3.8934         2.6222       0.181100
      13711.00        96.7576         3.8990         2.6288       0.180400
      13711.50        95.9186         3.9144         2.6318       0.183100
      13712.00        95.7116         3.9172         2.6250       0.187300
      13712.50        97.2784         3.8671         2.6245       0.185900
      13713.00        97.9109         3.8300         2.6320       0.182700
      13713.50        96.5755         3.8158         2.6383       0.186600
      13714.00        98.1310         3.8077         2.6348       0.193800
      13714.50        94.8569         3.8391         2.6215       0.195800
      13715.00        93.9367         3.9140         2.6145       0.192900
      13715.50        95.1636         3.9288         2.6211       0.184100
      13716.00        94.7536         3.9453         2.6242       0.168800
      13716.50        90.7129         4.0156         2.6315       0.155500
      13717.00        81.2968         4.3485         2.6557       0.148800
      13717.50        77.3776         4.7565         2.6833       0.145300
      13718.00        71.8192         4.9858         2.6949       0.142200
      13718.50        72.4397         5.0876         2.6875       0.141000
      13719.00        67.4564         5.2538         2.6779       0.140000
      13719.50        68.2562         6.4291         2.6813       0.138000
      13720.00        66.4768         6.5432         2.6898       0.136900
      13720.50        64.8156         6.4182         2.6847       0.137500
      13721.00        66.9980         6.2523         2.6724       0.134500
      13721.50        70.6290         6.4348         2.6773       0.125700
      13722.00        71.0403         6.7699         2.6904       0.115300
      13722.50        66.8607         7.6240         2.6862       0.109800
      13723.00        65.2610         8.5037         2.6661       0.108200
      13723.50        62.7979         8.6640         2.6521       0.107700
      13724.00        60.6493         8.8366         2.6491       0.105500
      13724.50        61.1211         8.9745         2.6447       0.101300
      13725.00        62.2885         9.1355         2.6358       0.097100
      13725.50        60.4059         9.7183         2.6389       0.092900
      13726.00        58.2948        10.2825         2.6547       0.090300
      13726.50        56.9026        10.1228         2.6701       0.092500
      13727.00        60.3252         9.3570         2.6662       0.098900
      13727.50        63.4136         7.9755         2.6476       0.106100
      13728.00        64.6852         7.1926         2.6301       0.110600
      13728.50        66.8864         6.7282         2.6186       0.111500
      13729.00        68.0079         6.5778         2.6117       0.110800
      13729.50        68.4779         6.4384         2.6049       0.111100
      13730.00        67.7871         6.2108         2.5967       0.113400
      13730.50        68.5208         6.0431         2.5952       0.115600
      13731.00        71.5378         5.9492         2.6022       0.116600
      13731.50        71.3946         5.9339         2.6023       0.117400
      13732.00        71.7184         5.9798         2.6008       0.116100
      13732.50        70.2046         6.1236         2.6177       0.113600
      13733.00        65.9466         6.2599         2.6353       0.112400
      13733.50        65.0079         6.3272         2.6381       0.111500
      13734.00        68.0731         6.4202         2.6364       0.110300
      13734.50        67.2788         6.5348         2.6346       0.109800
      13735.00        66.0044         6.6726         2.6257       0.109400
      13735.50        62.0060         6.7987         2.6045       0.108400
      13736.00        62.9881         7.0078         2.5822       0.107800
      13736.50        65.7240         7.2148         2.5784       0.107800
      13737.00        61.8083         7.3600         2.5861       0.108700
      13737.50        58.7354         7.2616         2.5822       0.111500
      13738.00        61.4445         7.0872         2.5792       0.116400
      13738.50        65.6236         6.6880         2.5911       0.121200
      13739.00        67.4411         6.3603         2.6028       0.121400
      13739.50        67.8050         6.1846         2.6016       0.117200
      13740.00        66.0577         6.0959         2.5974       0.115400
      13740.50        65.5543         6.0104         2.5928       0.120300
      13741.00        67.2037         5.7330         2.5887       0.128400
      13741.50        71.6575         5.5455         2.5940       0.130400
