~Version Information Block
VERS .                  2.0:  CWLS LOG ASCII STANDARD - VERSION 2.0
WRAP .                   NO:  One line per depth step
~Well Information Block
#MNEM.UNIT        Data Type   Information
#---------- ----------------  -----------
STRT .FT             350.00:  START DEPTH
STOP .FT           16021.50:  STOP DEPTH
STEP .FT               0.50:  STEP
NULL .              -999.25:  NULL VALUE
COMP .                     :  COMPANY
WELL .               STA-30:  WELL
FLD  .                     :  FIELD
LOC  .                     :  LOCATION
CTRY .                     :  COUNTRY
STAT .                     :  STATE
CNTY .                     :  COUNTY
SRVC .                     :  SERVICE COMPANY
DATE .                     :  DATE
API  .                     :  API NUMBER
UWI  .                     :  UNIQUE WELL ID
~Curve Information Block
#MNEM.UNIT         API CODE   Curve Description
#---------- ----------------  -----------------
DEPTH.FT                   :  
GR   .GAPI                 :  Merged RAW_LOG.GR_17P_1 with RAW_LOG.GR_12P_1 and RAW_LOG.GR_8P_1 and RAW_LOG.GR_6P_1 at 1127.75, 5954.49, 11516.11 F
RT   .OHMM                 :  RT_1 Depth Shifted (Shift Pairs in MATCH_RT set)
RHOB .G/C3                 :  RHOB_1 Depth Shifted (Shift Pairs in MATCH_RHOB set)
NPHI .V/V                  :  NPHI_1 Depth Shifted (Shift Pairs in MATCH_NPHI set)
~Parameter Information Block
#MNEM.UNIT            Value   Description
#---------- ----------------  -----------
PROJECT.            SANTAN_FE:  
~Other Information Block
# 
~A       DEPTH             GR             RT           RHOB           NPHI 
# ...
      13885.50        18.6857        17.6522         2.6610       0.051439
      13886.00        17.9018        17.4163         2.6700       0.050225
      13886.50        18.9231        17.1915         2.6852       0.049495
      13887.00        21.4543        16.7376         2.6980       0.049661
      13887.50        23.9840        15.8772         2.7054       0.050060
      13888.00        24.9319        14.8754         2.7093       0.050100
      13888.50        24.6482        13.7454         2.7130       0.049812
      13889.00        24.2064        12.7177         2.7174       0.050294
      13889.50        25.6010        11.5895         2.7196       0.053095
      13890.00        29.1177        10.4672         2.7146       0.059043
      13890.50        33.9781         9.0262         2.6990       0.069323
      13891.00        40.7697         7.5077         2.6749       0.085276
      13891.50        48.2275         6.0786         2.6475       0.107152
      13892.00        54.7302         5.3213         2.6201       0.131478
      13892.50        58.0706         4.8874         2.5955       0.150512
      13893.00        58.5676         4.5979         2.5783       0.161151
      13893.50        59.4941         4.4337         2.5727       0.167279
      13894.00        60.2318         4.3227         2.5780       0.172716
      13894.50        61.9543         4.2304         2.5853       0.176719
      13895.00        62.6097         4.1468         2.5867       0.178269
      13895.50        63.2293         4.1171         2.5815       0.179005
      13896.00        63.7765         4.1108         2.5749       0.180970
      13896.50        64.0577         4.1001         2.5734       0.184989
      13897.00        64.7730         4.0758         2.5799       0.189622
      13897.50        65.0424         4.0735         2.5899       0.193157
      13898.00        65.1209         4.0582         2.5959       0.196450
      13898.50        65.7753         4.0879         2.5948       0.200101
      13899.00        65.9407         4.0927         2.5912       0.201414
      13899.50        66.4038         4.1051         2.5888       0.198071
      13900.00        66.0677         4.0911         2.5863       0.193413
      13900.50        65.7033         4.0805         2.5822       0.192230
      13901.00        65.3587         4.1353         2.5794       0.193641
      13901.50        64.3355         4.3001         2.5807       0.193625
      13902.00        64.3839         4.2972         2.5856       0.190633
      13902.50        64.3480         4.3071         2.5910       0.186514
      13903.00        65.2107         4.3071         2.5931       0.184229
      13903.50        64.7199         4.3430         2.5909       0.183315
      13904.00        64.2061         4.4109         2.5869       0.180951
      13904.50        62.4226         4.4335         2.5851       0.176934
      13905.00        60.8148         4.4279         2.5869       0.171606
      13905.50        58.4424         4.4036         2.5899       0.163865
      13906.00        57.3030         4.3716         2.5918       0.154958
      13906.50        55.7015         4.3501         2.5942       0.148370
      13907.00        55.5573         4.3130         2.6000       0.145913
      13907.50        56.1954         4.2336         2.6080       0.151879
      13908.00        59.2009         4.0631         2.6138       0.169990
      13908.50        62.7075         3.8063         2.6140       0.191753
      13909.00        65.6486         3.6444         2.6105       0.204631
      13909.50        67.1526         3.5766         2.6087       0.209228
      13910.00        67.3253         3.5059         2.6115       0.211862
      13910.50        66.5955         3.4253         2.6152       0.215098
      13911.00        65.5620         3.4109         2.6150       0.216907
      13911.50        65.3348         3.3639         2.6119       0.214928
      13912.00        66.5411         3.3327         2.6108       0.211512
      13912.50        67.1190         3.3361         2.6121       0.209761
      13913.00        66.7911         3.3419         2.6126       0.208961
      13913.50        65.8724         3.3396         2.6112       0.208273
      13914.00        66.4094         3.2829         2.6082       0.209881
      13914.50        67.4791         3.2628         2.6056       0.213699
      13915.00        68.5531         3.2784         2.6053       0.219980
      13915.50        68.6321         3.2873         2.6055       0.229564
      13916.00        68.2552         3.2739         2.6016       0.234309
      13916.50        66.7817         3.2550         2.5946       0.226089
      13917.00        66.2674         3.2528         2.5917       0.214009
      13917.50        66.6429         3.2265         2.5954       0.210579
      13918.00        69.8490         3.2081         2.5997       0.216430
      13918.50        73.9965         3.2103         2.5996       0.225044
      13919.00        77.5651         3.1457         2.5980       0.229756
      13919.50        78.1059         3.0615         2.6003       0.228802
      13920.00        77.3393         3.0445         2.6080       0.226915
      13920.50        76.8655         3.0425         2.6185       0.227249
      13921.00        77.2960         3.0445         2.6271       0.228127
      13921.50        77.7421         3.0435         2.6289       0.226485
      13922.00        77.9487         3.0604         2.6233       0.222154
      13922.50        78.2149         3.0645         2.6152       0.219251
      13923.00        77.5271         3.0505         2.6105       0.218134
      13923.50        75.8631         3.0425         2.6085       0.214637
      13924.00        74.9333         3.0465         2.6044       0.209368
      13924.50        74.4811         3.0631         2.5977       0.206839
      13925.00        75.4643         3.0755         2.5924       0.207678
      13925.50        75.0239         3.0776         2.5899       0.209181
      13926.00        74.5503         3.0938         2.5883       0.208630
      13926.50        73.6971         3.1091         2.5874       0.205154
      13927.00        73.1175         3.0914         2.5906       0.202344
      13927.50        72.6289         3.0813         2.5982       0.203424
      13928.00        71.9231         3.0675         2.6057       0.207985
      13928.50        72.0308         3.0524         2.6094       0.211556
      13929.00        72.2981         3.0465         2.6096       0.210535
      13929.50        71.6500         3.0319         2.6084       0.207203
      13930.00        71.0362         3.0227         2.6064       0.205363
      13930.50        69.8404         2.9993         2.6029       0.206789
      13931.00        69.0577         2.9576         2.5983       0.210549
      13931.50        66.8025         2.9419         2.5958       0.211451
      13932.00        65.0989         2.8942         2.5988       0.210757
      13932.50        63.6764         2.8597         2.6074       0.216382
      13933.00        63.0507         2.8255         2.6159       0.228581
      13933.50        63.0397         2.7347         2.6179       0.244521
      13934.00        64.4082         2.5234         2.6130       0.256574
      13934.50        66.3706         2.4678         2.6073       0.253649
      13935.00        67.1011         2.4213         2.6047       0.244805
      13935.50        66.7652         2.3693         2.6043       0.245142
      13936.00        66.0698         2.3482         2.6052       0.250079
      13936.50        66.1477         2.3129         2.6066       0.253895
      13937.00        67.5530         2.2782         2.6071       0.259976
      13937.50        70.9864         2.2336         2.6071       0.265405
      13938.00        74.2850         2.2393         2.6090       0.265258
      13938.50        75.6386         2.2615         2.6130       0.260248
