~Version Information Block
VERS .                  2.0:  CWLS LOG ASCII STANDARD - VERSION 2.0
WRAP .                   NO:  One line per depth step
~Well Information Block
#MNEM.UNIT        Data Type   Information
#---------- ----------------  -----------
STRT .FT             350.00:  START DEPTH
STOP .FT           16021.50:  STOP DEPTH
STEP .FT               0.50:  STEP
NULL .              -999.25:  NULL VALUE
COMP .                     :  COMPANY
WELL .               STA-30:  WELL
FLD  .                     :  FIELD
LOC  .                     :  LOCATION
CTRY .                     :  COUNTRY
STAT .                     :  STATE
CNTY .                     :  COUNTY
SRVC .                     :  SERVICE COMPANY
DATE .                     :  DATE
API  .                     :  API NUMBER
UWI  .                     :  UNIQUE WELL ID
~Curve Information Block
#MNEM.UNIT         API CODE   Curve Description
#---------- ----------------  -----------------
DEPTH.FT                   :  
GR   .GAPI                 :  Merged RAW_LOG.GR_17P_1 with RAW_LOG.GR_12P_1 and RAW_LOG.GR_8P_1 and RAW_LOG.GR_6P_1 at 1127.75, 5954.49, 11516.11 F
RT   .OHMM                 :  RT_1 Depth Shifted (Shift Pairs in MATCH_RT set)
RHOB .G/C3                 :  RHOB_1 Depth Shifted (Shift Pairs in MATCH_RHOB set)
NPHI .V/V                  :  NPHI_1 Depth Shifted (Shift Pairs in MATCH_NPHI set)
~Parameter Information Block
#MNEM.UNIT            Value   Description
#---------- ----------------  -----------
PROJECT.            SANTAN_FE:  
~Other Information Block
# 
~A       DEPTH             GR             RT           RHOB           NPHI 
# ...
      14955.50        15.0259         5.3520         2.4417       0.127359
      14956.00        15.6519         5.3395         2.4535       0.124069
      14956.50        16.0421         5.3208         2.4719       0.115033
      14957.00        15.8705         5.3178         2.4940       0.101415
      14957.50        15.2331         5.4201         2.5214       0.092744
      14958.00        15.3201         5.5127         2.5507       0.095930
      14958.50        16.7480         5.4597         2.5713       0.108991
      14959.00        19.9919         5.3531         2.5793       0.123302
      14959.50        23.0690         5.2966         2.5819       0.133872
      14960.00        25.1961         5.2566         2.5857       0.139191
      14960.50        25.6640         5.2137         2.5881       0.138225
      14961.00        25.7580         5.2079         2.5873       0.135256
      14961.50        25.7683         5.1703         2.5872       0.136870
      14962.00        25.7831         5.1382         2.5893       0.145612
      14962.50        26.3789         5.1489         2.5924       0.157947
      14963.00        28.0589         5.0684         2.5944       0.166315
      14963.50        30.6154         4.9763         2.5926       0.165308
      14964.00        31.9358         4.9896         2.5855       0.159237
      14964.50        32.5340         4.9931         2.5769       0.151916
      14965.00        34.8896         5.0738         2.5728       0.142027
      14965.50        39.3914         5.0979         2.5764       0.133296
      14966.00        44.7228         5.1050         2.5834       0.130829
      14966.50        48.6650         5.0884         2.5879       0.133194
      14967.00        51.6333         5.0794         2.5903       0.135914
      14967.50        53.0825         5.0669         2.5931       0.137696
      14968.00        53.1788         5.0336         2.5942       0.137455
      14968.50        53.2720         4.9892         2.5906       0.135939
      14969.00        54.1581         4.9417         2.5854       0.137208
      14969.50        54.9732         4.8594         2.5854       0.143939
      14970.00        56.8833         4.7679         2.5884       0.156643
      14970.50        59.1757         4.6758         2.5864       0.169968
      14971.00        61.6612         4.5983         2.5796       0.178059
      14971.50        60.9285         4.5675         2.5753       0.181795
      14972.00        57.6402         4.4949         2.5773       0.182376
      14972.50        52.3291         4.4780         2.5843       0.178585
      14973.00        47.7214         4.6144         2.5900       0.170971
      14973.50        44.8012         4.8360         2.5894       0.162614
      14974.00        43.4789         4.9902         2.5822       0.157743
      14974.50        41.7660         5.1371         2.5731       0.154996
      14975.00        39.5782         5.1992         2.5692       0.151701
      14975.50        38.0602         5.2924         2.5708       0.147624
      14976.00        38.2377         5.3627         2.5699       0.145104
      14976.50        39.3695         5.4217         2.5617       0.146499
      14977.00        40.0415         5.4347         2.5504       0.150642
      14977.50        40.2180         5.4012         2.5427       0.154071
      14978.00        39.9666         5.3831         2.5389       0.155899
      14978.50        40.7915         5.3805         2.5352       0.158217
      14979.00        41.9507         5.3985         2.5341       0.162872
      14979.50        43.3530         5.3882         2.5385       0.169811
      14980.00        43.1987         5.2765         2.5463       0.174530
      14980.50        41.9871         5.1513         2.5525       0.171964
      14981.00        40.9058         5.1704         2.5554       0.161970
      14981.50        40.9945         5.0485         2.5576       0.151741
      14982.00        42.3690         4.7714         2.5639       0.148706
      14982.50        43.2331         4.4724         2.5765       0.153449
      14983.00        44.6228         4.4050         2.5896       0.162637
      14983.50        46.1492         4.2029         2.5950       0.173759
      14984.00        49.4633         3.9934         2.5922       0.186125
      14984.50        52.8275         3.7339         2.5885       0.198983
      14985.00        56.4251         3.6219         2.5873       0.210275
      14985.50        58.2164         3.4865         2.5870       0.219584
      14986.00        58.1873         3.3673         2.5865       0.228532
      14986.50        56.7056         3.3213         2.5861       0.232127
      14987.00        55.1667         3.2828         2.5830       0.226008
      14987.50        53.5346         3.2419         2.5772       0.220431
      14988.00        52.4073         3.1739         2.5739       0.222047
      14988.50        51.2072         3.1339         2.5749       0.225606
      14989.00        52.0892         3.0777         2.5761       0.227703
      14989.50        52.6507         3.0168         2.5757       0.228737
      14990.00        52.8333         3.0061         2.5776       0.228978
      14990.50        51.8957         3.0051         2.5839       0.227566
      14991.00        50.9683         3.0247         2.5924       0.225066
      14991.50        51.5405         3.0604         2.6007       0.222716
      14992.00        52.3407         3.0604         2.6077       0.222115
      14992.50        53.0381         3.0907         2.6109       0.224919
      14993.00        53.5197         3.1194         2.6092       0.232918
      14993.50        53.2204         3.1195         2.6049       0.243584
      14994.00        53.4153         3.0786         2.6020       0.251181
      14994.50        52.8831         3.0198         2.6021       0.250152
      14995.00        52.7261         2.9934         2.6018       0.240912
      14995.50        52.3403         3.0385         2.5973       0.230872
      14996.00        52.7102         3.0159         2.5894       0.226774
      14996.50        51.9982         3.0129         2.5826       0.227379
      14997.00        51.0607         3.0276         2.5808       0.225735
      14997.50        49.0182         2.9876         2.5824       0.220782
      14998.00        47.0027         3.0202         2.5830       0.215976
      14998.50        45.3297         3.0745         2.5806       0.207378
      14999.00        44.3171         3.0188         2.5753       0.191090
      14999.50        44.5199         3.1096         2.5699       0.176827
      15000.00        44.6890         3.1236         2.5681       0.172932
      15000.50        45.3082         3.0054         2.5709       0.181730
      15001.00        45.9292         2.9475         2.5772       0.199274
      15001.50        47.0229         3.0630         2.5842       0.215690
      15002.00        48.4397         3.1256         2.5925       0.225992
      15002.50        49.5125         3.1091         2.6049       0.232327
      15003.00        49.4877         3.1174         2.6192       0.237602
      15003.50        48.4594         3.2060         2.6270       0.238240
      15004.00        47.8172         3.3296         2.6212       0.234377
      15004.50        48.1143         3.4505         2.6061       0.231052
      15005.00        47.9717         3.4499         2.5930       0.229379
      15005.50        47.6783         3.5195         2.5871       0.226841
      15006.00        47.3341         3.5270         2.5869       0.222987
      15006.50        47.6054         3.4884         2.5899       0.220010
      15007.00        47.7340         3.5345         2.5947       0.221431
      15007.50        47.6567         3.5396         2.5991       0.224580
      15008.00        46.9599         3.5985         2.6017       0.223124
      15008.50        46.6315         3.7298         2.6009       0.220768
