~Version Information Block
VERS .                  2.0:  CWLS LOG ASCII STANDARD - VERSION 2.0
WRAP .                   NO:  One line per depth step
~Well Information Block
#MNEM.UNIT        Data Type   Information
#---------- ----------------  -----------
STRT .FT             350.00:  START DEPTH
STOP .FT           16021.50:  STOP DEPTH
STEP .FT               0.50:  STEP
NULL .              -999.25:  NULL VALUE
COMP .                     :  COMPANY
WELL .               STA-30:  WELL
FLD  .                     :  FIELD
LOC  .                     :  LOCATION
CTRY .                     :  COUNTRY
STAT .                     :  STATE
CNTY .                     :  COUNTY
SRVC .                     :  SERVICE COMPANY
DATE .                     :  DATE
API  .                     :  API NUMBER
UWI  .                     :  UNIQUE WELL ID
~Curve Information Block
#MNEM.UNIT         API CODE   Curve Description
#---------- ----------------  -----------------
DEPTH.FT                   :  
GR   .GAPI                 :  Merged RAW_LOG.GR_17P_1 with RAW_LOG.GR_12P_1 and RAW_LOG.GR_8P_1 and RAW_LOG.GR_6P_1 at 1127.75, 5954.49, 11516.11 F
RT   .OHMM                 :  RT_1 Depth Shifted (Shift Pairs in MATCH_RT set)
RHOB .G/C3                 :  RHOB_1 Depth Shifted (Shift Pairs in MATCH_RHOB set)
NPHI .V/V                  :  NPHI_1 Depth Shifted (Shift Pairs in MATCH_NPHI set)
~Parameter Information Block
#MNEM.UNIT            Value   Description
#---------- ----------------  -----------
PROJECT.            SANTAN_FE:  
~Other Information Block
# 
~A       DEPTH             GR             RT           RHOB           NPHI 
# ...
       2543.50        80.1493         1.6720         2.1706       0.509038
       2544.00        80.1106         1.6382         2.1755       0.499791
       2544.50        80.7441         1.6161         2.1785       0.495000
       2545.00        80.7262         1.6100         2.1768       0.495236
       2545.50        81.1306         1.6137         2.1719       0.496966
       2546.00        81.3718         1.6175         2.1678       0.496189
       2546.50        81.3207         1.5985         2.1669       0.490391
       2547.00        81.0353         1.5892         2.1692       0.480900
       2547.50        80.2709         1.5789         2.1735       0.473091
       2548.00        79.0026         1.5845         2.1774       0.470882
       2548.50        79.1196         1.5945         2.1786       0.473373
       2549.00        79.7126         1.6080         2.1778       0.478179
       2549.50        78.7373         1.6034         2.1764       0.484407
       2550.00        78.7919         1.5989         2.1748       0.489627
       2550.50        80.1387         1.6002         2.1731       0.489172
       2551.00        81.1949         1.6080         2.1726       0.482084
       2551.50        82.0712         1.5753         2.1741       0.472957
       2552.00        83.9809         1.5888         2.1766       0.466416
       2552.50        85.0206         1.5958         2.1787       0.465742
       2553.00        84.2416         1.6178         2.1784       0.472782
       2553.50        83.4933         1.6361         2.1749       0.485119
       2554.00        83.5096         1.5962         2.1703       0.497660
       2554.50        84.2564         1.5622         2.1675       0.508109
       2555.00        83.8774         1.5692         2.1670       0.514840
       2555.50        84.3784         1.5762         2.1675       0.514435
       2556.00        86.1334         1.5882         2.1673       0.508264
       2556.50        86.0509         1.5912         2.1656       0.504455
       2557.00        83.8743         1.5858         2.1637       0.507362
       2557.50        83.8680         1.5573         2.1655       0.511674
       2558.00        83.7685         1.5680         2.1717       0.512427
       2558.50        81.8305         1.5762         2.1775       0.512760
       2559.00        80.8976         1.5720         2.1780       0.515408
       2559.50        82.0553         1.5677         2.1739       0.517180
       2560.00        82.4652         1.5799         2.1683       0.517826
       2560.50        82.6607         1.5723         2.1625       0.520689
       2561.00        83.2827         1.5273         2.1578       0.523146
       2561.50        84.1018         1.5648         2.1577       0.520002
       2562.00        84.2570         1.5460         2.1621       0.512790
       2562.50        85.1117         1.5693         2.1678       0.507985
       2563.00        87.4132         1.5496         2.1728       0.508260
       2563.50        88.2217         1.5460         2.1765       0.509417
       2564.00        88.0044         1.5129         2.1776       0.508053
       2564.50        87.6264         1.4975         2.1759       0.506129
       2565.00        87.1040         1.5282         2.1744       0.503527
       2565.50        85.0306         1.5499         2.1764       0.496945
       2566.00        83.4551         1.6056         2.1811       0.488475
       2566.50        81.5815         1.6624         2.1868       0.481809
       2567.00        80.1522         1.7283         2.1944       0.473783
       2567.50        77.2755         1.7942         2.2053       0.461370
       2568.00        75.2777         1.9322         2.2160       0.449339
       2568.50        75.3065         2.0139         2.2181       0.440256
       2569.00        76.8080         1.9952         2.2057       0.429854
       2569.50        76.9852         1.9484         2.1818       0.418759
       2570.00        76.5878         1.8557         2.1583       0.412099
       2570.50        75.9084         1.7147         2.1492       0.409326
       2571.00        73.3712         1.5739         2.1610       0.409331
       2571.50        71.1366         1.5426         2.1878       0.414387
       2572.00        72.3137         1.5114         2.2170       0.422186
       2572.50        74.6867         1.5902         2.2376       0.428062
       2573.00        76.6130         1.6261         2.2475       0.432226
       2573.50        79.0635         1.5792         2.2490       0.435969
       2574.00        80.0336         1.5055         2.2427       0.437443
       2574.50        77.0841         1.5505         2.2284       0.435908
       2575.00        73.3533         1.7128         2.2051       0.433516
       2575.50        67.7033         1.8264         2.1716       0.428804
       2576.00        60.9769         1.9401         2.1277       0.417748
       2576.50        54.0621         2.1113         2.0741       0.403603
       2577.00        48.0616         2.1718         2.0108       0.392199
       2577.50        43.9627         2.1622         1.9444       0.382345
       2578.00        42.6089         2.1572         1.8959       0.374146
       2578.50        42.5583         2.1885         1.8904       0.373818
       2579.00        43.7407         2.5717         1.9247       0.380485
       2579.50        45.6321         2.7795         1.9865       0.389520
       2580.00        46.4666         2.6287         2.0558       0.399254
       2580.50        47.1235         2.4779         2.1146       0.410043
       2581.00        47.5454         2.4689         2.1561       0.421066
       2581.50        47.8790         2.5940         2.1832       0.429730
       2582.00        47.4601         2.3892         2.2006       0.435567
       2582.50        46.3022         2.2889         2.2080       0.440483
       2583.00        43.3430         2.1393         2.1986       0.444840
       2583.50        40.6141         1.9357         2.1716       0.449754
       2584.00        38.0258         1.8307         2.1413       0.456931
       2584.50        35.3715         1.8158         2.1197       0.465692
       2585.00        34.6654         1.8010         2.1116       0.473487
       2585.50        34.6429         1.8677         2.1121       0.478310
       2586.00        35.2793         1.9188         2.1160       0.480068
       2586.50        35.9425         1.9012         2.1186       0.479447
       2587.00        37.8826         1.8161         2.1166       0.475609
       2587.50        40.2543         1.8105         2.1118       0.467616
       2588.00        44.5017         1.8694         2.1096       0.461036
       2588.50        49.6135         1.9687         2.1132       0.459926
       2589.00        55.8013         1.9797         2.1200       0.458581
       2589.50        62.6833         1.9907         2.1251       0.454269
       2590.00        69.2126         1.9759         2.1249       0.451242
       2590.50        75.3129         1.9858         2.1165       0.453465
       2591.00        80.8797         1.9799         2.0896       0.460834
       2591.50        85.1137         1.9576         2.0353       0.472496
       2592.00        87.8922         1.8877         1.9628       0.490683
       2592.50        90.0216         1.8400         1.8954       0.514025
       2593.00        91.5529         1.8458         1.8546       0.530835
       2593.50        91.6186         1.8515         1.8506       0.533426
       2594.00        90.8807         1.8665         1.8878       0.523846
       2594.50        90.4263         1.8627         1.9546       0.506226
       2595.00        87.6212         1.7669         2.0316       0.484317
       2595.50        84.1041         1.6977         2.0990       0.464275
       2596.00        80.7381         1.6406         2.1471       0.450844
       2596.50        77.5730         1.6323         2.1758       0.441750
