~Version Information Block
VERS .                  2.0:  CWLS LOG ASCII STANDARD - VERSION 2.0
WRAP .                   NO:  One line per depth step
~Well Information Block
#MNEM.UNIT        Data Type   Information
#---------- ----------------  -----------
STRT .FT             350.00:  START DEPTH
STOP .FT           16021.50:  STOP DEPTH
STEP .FT               0.50:  STEP
NULL .              -999.25:  NULL VALUE
COMP .                     :  COMPANY
WELL .               STA-30:  WELL
FLD  .                     :  FIELD
LOC  .                     :  LOCATION
CTRY .                     :  COUNTRY
STAT .                     :  STATE
CNTY .                     :  COUNTY
SRVC .                     :  SERVICE COMPANY
DATE .                     :  DATE
API  .                     :  API NUMBER
UWI  .                     :  UNIQUE WELL ID
~Curve Information Block
#MNEM.UNIT         API CODE   Curve Description
#---------- ----------------  -----------------
DEPTH.FT                   :  
GR   .GAPI                 :  Merged RAW_LOG.GR_17P_1 with RAW_LOG.GR_12P_1 and RAW_LOG.GR_8P_1 and RAW_LOG.GR_6P_1 at 1127.75, 5954.49, 11516.11 F
RT   .OHMM                 :  RT_1 Depth Shifted (Shift Pairs in MATCH_RT set)
RHOB .G/C3                 :  RHOB_1 Depth Shifted (Shift Pairs in MATCH_RHOB set)
NPHI .V/V                  :  NPHI_1 Depth Shifted (Shift Pairs in MATCH_NPHI set)
~Parameter Information Block
#MNEM.UNIT            Value   Description
#---------- ----------------  -----------
PROJECT.            SANTAN_FE:  
~Other Information Block
# 
~A       DEPTH             GR             RT           RHOB           NPHI 
# ...
      10782.50        57.8091         2.8827         2.4419       0.209853
      10783.00        61.6968         3.0236         2.4737       0.204635
      10783.50        66.8372         3.2489         2.5109       0.197462
      10784.00        69.3607         3.3402         2.5331       0.193297
      10784.50        66.7125         3.3783         2.5373       0.193003
      10785.00        66.0599         3.3971         2.5356       0.193289
      10785.50        65.8911         3.4261         2.5350       0.192088
      10786.00        64.6171         3.4659         2.5360       0.190823
      10786.50        65.1087         3.4909         2.5374       0.193346
      10787.00        66.0564         3.4833         2.5362       0.198419
      10787.50        65.7211         3.4598         2.5328       0.200496
      10788.00        66.0707         3.4594         2.5341       0.200118
      10788.50        67.7051         3.4533         2.5415       0.202151
      10789.00        67.9110         3.4472         2.5451       0.207718
      10789.50        69.6596         3.4418         2.5431       0.209654
      10790.00        70.1131         3.4427         2.5438       0.204554
      10790.50        68.4039         3.4492         2.5505       0.199475
      10791.00        65.2659         3.4451         2.5609       0.196670
      10791.50        62.3375         3.4396         2.5629       0.193378
      10792.00        59.0110         3.4385         2.5455       0.191031
      10792.50        56.5621         3.4401         2.5167       0.194444
      10793.00        53.3266         3.4341         2.4929       0.199314
      10793.50        53.0789         3.5200         2.4789       0.200820
      10794.00        51.1182         3.6874         2.4716       0.203048
      10794.50        49.5119         3.8268         2.4635       0.208320
      10795.00        48.3907         3.8865         2.4529       0.210487
      10795.50        49.0386         3.8752         2.4522       0.209106
      10796.00        53.0292         3.7659         2.4684       0.209859
      10796.50        59.0863         3.6787         2.4939       0.216392
      10797.00        62.3030         3.6281         2.5235       0.226566
      10797.50        66.7027         3.5629         2.5458       0.233810
      10798.00        72.9177         3.4380         2.5528       0.234887
      10798.50        75.9228         3.2851         2.5491       0.233497
      10799.00        81.8145         3.1289         2.5443       0.233200
      10799.50        85.3806         2.9977         2.5467       0.233195
      10800.00        87.0074         2.8636         2.5544       0.232681
      10800.50        84.7574         2.7183         2.5617       0.230584
      10801.00        85.1908         2.6668         2.5581       0.228824
      10801.50        80.6965         2.6684         2.5455       0.231436
      10802.00        79.7381         2.6737         2.5375       0.235099
      10802.50        78.9446         2.5588         2.5405       0.234856
      10803.00        80.9016         2.4950         2.5459       0.232312
      10803.50        83.8156         2.6779         2.5497       0.231236
      10804.00        85.8601         3.0732         2.5545       0.232829
      10804.50        85.1025         3.2110         2.5587       0.233460
      10805.00        84.4707         3.3289         2.5701       0.224086
      10805.50        78.0757         3.7715         2.6066       0.195208
      10806.00        60.9386         5.5581         2.6620       0.157382
      10806.50        40.5674         8.4348         2.7177       0.124406
      10807.00        27.9294         9.6393         2.7552       0.103296
      10807.50        23.0010        10.6575         2.7527       0.095304
      10808.00        30.8859        11.5833         2.7161       0.099231
      10808.50        45.1324        10.2320         2.6801       0.109933
      10809.00        55.2625         9.4643         2.6618       0.123252
      10809.50        59.4164         9.4556         2.6566       0.133146
      10810.00        60.0655         9.4178         2.6590       0.132918
      10810.50        49.8878        10.8936         2.6708       0.122150
      10811.00        35.1727        12.4536         2.6923       0.109517
      10811.50        26.3854        11.7232         2.7154       0.103015
      10812.00        22.0540        10.9115         2.7263       0.104183
      10812.50        27.1603        10.3224         2.7076       0.110155
      10813.00        37.8275         9.2308         2.6585       0.115636
      10813.50        44.4192         8.2008         2.6052       0.117070
      10814.00        47.2446         8.1791         2.5736       0.117759
      10814.50        48.1831         7.4921         2.5605       0.124339
      10815.00        49.8219         6.7158         2.5543       0.138491
      10815.50        55.5449         6.7323         2.5484       0.152880
      10816.00        55.2316         6.2157         2.5443       0.156993
      10816.50        53.6495         6.2818         2.5479       0.149138
      10817.00        50.7474         6.8226         2.5618       0.137958
      10817.50        45.4870         7.4198         2.5834       0.128035
      10818.00        40.3017         8.3906         2.6136       0.119077
      10818.50        34.0307         9.3436         2.6577       0.112429
      10819.00        31.6069        10.0504         2.7091       0.109713
      10819.50        28.4320        10.5670         2.7452       0.110739
      10820.00        27.9024        10.8459         2.7532       0.116875
      10820.50        26.2152        10.9748         2.7322       0.126228
      10821.00        25.6236        10.9236         2.6892       0.131747
      10821.50        32.7816        10.7164         2.6536       0.130915
      10822.00        38.7103        10.0175         2.6340       0.127318
      10822.50        41.9026         9.1880         2.6207       0.125535
      10823.00        43.7771         8.9275         2.6115       0.128246
      10823.50        45.5832         8.6020         2.6011       0.135227
      10824.00        49.7503         7.7643         2.5882       0.144374
      10824.50        51.9678         7.2618         2.5844       0.150707
      10825.00        52.6824         7.1740         2.5906       0.150363
      10825.50        53.4166         6.7403         2.5997       0.148333
      10826.00        54.1220         6.4285         2.6081       0.149003
      10826.50        57.7249         6.4599         2.6135       0.148825
      10827.00        57.3863         6.5674         2.6165       0.145260
      10827.50        55.3759         6.5917         2.6203       0.137246
      10828.00        54.8592         6.4392         2.6233       0.123555
      10828.50        52.9121         6.2150         2.6233       0.109852
      10829.00        46.6943         5.7318         2.6191       0.107919
      10829.50        46.3482         5.1989         2.6059       0.122755
      10830.00        54.0918         4.5919         2.5795       0.148377
      10830.50        58.5372         4.2716         2.5459       0.171517
      10831.00        62.5545         3.9923         2.5198       0.185166
      10831.50        62.4150         3.7124         2.5102       0.193540
      10832.00        65.2622         3.5455         2.5105       0.202739
      10832.50        70.0839         3.4574         2.5109       0.209852
      10833.00        69.8080         3.3458         2.5095       0.212783
      10833.50        71.4080         3.2411         2.5086       0.215669
      10834.00        71.6604         3.1973         2.5091       0.218604
      10834.50        73.5435         3.1638         2.5131       0.219544
      10835.00        74.4419         3.1344         2.5197       0.221095
      10835.50        70.7335         3.1326         2.5243       0.220449
