~Version Information Block
VERS .                  2.0:  CWLS LOG ASCII STANDARD - VERSION 2.0
WRAP .                   NO:  One line per depth step
~Well Information Block
#MNEM.UNIT        Data Type   Information
#---------- ----------------  -----------
STRT .FT            5224.50:  START DEPTH
STOP .FT           13237.50:  STOP DEPTH
STEP .FT               0.50:  STEP
NULL .              -999.25:  NULL VALUE
COMP .                     :  COMPANY
WELL .               STA-32:  WELL
FLD  .                     :  FIELD
LOC  .                     :  LOCATION
CTRY .                     :  COUNTRY
STAT .                     :  STATE
CNTY .                     :  COUNTY
SRVC .                     :  SERVICE COMPANY
DATE .                     :  DATE
API  .                     :  API NUMBER
UWI  .                     :  UNIQUE WELL ID
~Curve Information Block
#MNEM.UNIT         API CODE   Curve Description
#---------- ----------------  -----------------
DEPTH.FT                   :  Depth
GR   .GAPI                 :  Gamma Ray
RT   .OHMM                 :  True Resistivity
RHOB .G/C3                 :  Bulk Density
NPHI .V/V                  :  Neutron Porosity
~Parameter Information Block
#MNEM.UNIT            Value   Description
#---------- ----------------  -----------
PROJECT.            SANTAN_FE:  
~Other Information Block
# 
~A       DEPTH             GR             RT           RHOB           NPHI 
# ...
      12607.50        32.3967        17.3755         2.6768       0.060200
      12608.00        29.1281        18.0415         2.6694       0.059900
      12608.50        34.3093        18.2701         2.6775       0.061100
      12609.00        41.4030        16.9569         2.6894       0.063100
      12609.50        39.5589        16.0699         2.6924       0.065700
      12610.00        38.7325        14.8544         2.6853       0.069100
      12610.50        39.8982        13.5536         2.6753       0.072800
      12611.00        44.4172        12.9294         2.6670       0.077100
      12611.50        50.0809        10.9214         2.6606       0.081100
      12612.00        54.1579         9.8237         2.6598       0.082800
      12612.50        54.6243        10.2709         2.6587       0.080000
      12613.00        50.3261        10.5332         2.6466       0.075100
      12613.50        46.2742        10.1784         2.6376       0.073500
      12614.00        47.3400         9.6305         2.6466       0.079500
      12614.50        49.9612         8.8919         2.6640       0.091600
      12615.00        53.1230         8.0619         2.6776       0.106100
      12615.50        58.4669         6.9439         2.6806       0.120000
      12616.00        62.5445         6.5784         2.6735       0.128700
      12616.50        62.7729         6.2926         2.6662       0.131300
      12617.00        65.9538         6.2020         2.6684       0.130400
      12617.50        65.0946         6.2597         2.6769       0.126500
      12618.00        68.0646         6.5999         2.6763       0.121700
      12618.50        66.7960         6.4092         2.6609       0.117000
      12619.00        63.3005         7.2420         2.6536       0.109900
      12619.50        57.4024         8.7026         2.6690       0.100900
      12620.00        51.1154         9.9543         2.6774       0.091200
      12620.50        46.4337        10.9329         2.6691       0.081300
      12621.00        49.4368        11.1823         2.6616       0.075300
      12621.50        52.4553        12.5242         2.6641       0.071600
      12622.00        51.2721        13.9672         2.6700       0.065500
      12622.50        47.8456        15.1876         2.6741       0.058200
      12623.00        41.7164        15.9809         2.6832       0.053500
      12623.50        37.6846        16.0779         2.6937       0.052500
      12624.00        41.9137        15.9195         2.6971       0.053800
      12624.50        49.3757        15.5903         2.6940       0.056700
      12625.00        47.6515        15.0703         2.6850       0.059900
      12625.50        45.5790        14.9429         2.6678       0.062200
      12626.00        46.9156        14.3929         2.6543       0.063900
      12626.50        48.2323        13.8043         2.6562       0.065700
      12627.00        46.0205        13.2949         2.6650       0.067100
      12627.50        47.1171        13.2547         2.6739       0.067200
      12628.00        47.5480        13.0435         2.6751       0.067200
      12628.50        40.1478        12.5884         2.6680       0.067300
      12629.00        36.1235        12.5985         2.6665       0.067400
      12629.50        40.0223        12.0503         2.6809       0.070400
      12630.00        45.9669        10.9117         2.6871       0.078000
      12630.50        53.2722        10.2555         2.6671       0.084900
      12631.00        57.8516         9.7160         2.6513       0.088200
      12631.50        61.0450         9.9379         2.6607       0.087700
      12632.00        64.7975         9.7565         2.6725       0.087600
      12632.50        60.2714         9.4983         2.6629       0.089100
      12633.00        55.1668         9.5212         2.6464       0.087400
      12633.50        49.0418         8.9381         2.6427       0.082700
      12634.00        37.7367         8.8733         2.6527       0.083400
      12634.50        37.8632         9.1608         2.6645       0.102400
      12635.00        51.7205         8.4187         2.6691       0.138400
      12635.50        65.2710         6.9975         2.6699       0.165600
      12636.00        75.5737         5.6462         2.6647       0.170700
      12636.50        76.1577         5.0852         2.6512       0.161000
      12637.00        76.0450         5.0969         2.6364       0.152500
      12637.50        76.3540         4.9214         2.6300       0.148400
      12638.00        69.1851         4.9634         2.6316       0.145800
      12638.50        70.4508         5.2500         2.6355       0.143700
      12639.00        71.1059         5.0944         2.6464       0.143300
      12639.50        68.4262         4.9103         2.6594       0.147600
      12640.00        66.6592         4.8020         2.6656       0.155100
      12640.50        62.6554         4.9757         2.6653       0.158100
      12641.00        69.8306         4.7984         2.6702       0.154100
      12641.50        72.4643         4.7085         2.6809       0.148400
      12642.00        74.1231         5.2569         2.6961       0.142200
      12642.50        73.3046         5.7662         2.7059       0.132900
      12643.00        72.0169         5.7782         2.6976       0.122200
      12643.50        66.6107         6.0254         2.6670       0.113100
      12644.00        61.4430         6.0066         2.6398       0.108400
      12644.50        57.9814         6.5069         2.6370       0.109300
      12645.00        54.2131         7.0027         2.6435       0.115700
      12645.50        60.7572         6.5177         2.6439       0.124500
      12646.00        66.4776         5.8703         2.6399       0.129400
      12646.50        71.0339         5.5391         2.6248       0.123200
      12647.00        64.8162         5.2965         2.5943       0.112500
      12647.50        50.7881         5.2205         2.5813       0.108800
      12648.00        40.4688         6.2952         2.6042       0.118700
      12648.50        50.1758         6.8061         2.6397       0.132400
      12649.00        63.0998         5.5701         2.6539       0.138900
      12649.50        67.5081         4.8733         2.6435       0.143100
      12650.00        71.7229         4.6873         2.6365       0.146200
      12650.50        75.2575         4.5843         2.6429       0.138900
      12651.00        73.4776         4.4341         2.6402       0.116500
      12651.50        68.2870         4.3805         2.6317       0.099500
      12652.00        51.4909         4.9279         2.6362       0.100400
      12652.50        40.3297         5.1643         2.6513       0.117100
      12653.00        50.2527         5.1070         2.6624       0.132200
      12653.50        59.3542         4.6511         2.6649       0.136100
      12654.00        68.9427         4.8415         2.6689       0.134900
      12654.50        68.3703         5.4439         2.6830       0.134900
      12655.00        62.3421         5.7957         2.6952       0.139800
      12655.50        62.9225         5.8655         2.6868       0.145900
      12656.00        67.0412         4.8901         2.6700       0.147500
      12656.50        73.2983         5.1008         2.6631       0.145400
      12657.00        74.7492         5.6122         2.6718       0.143700
      12657.50        68.9487         5.5947         2.6832       0.142400
      12658.00        65.9076         5.8206         2.6892       0.141900
      12658.50        66.3188         5.5275         2.6905       0.144500
      12659.00        64.9536         5.2936         2.6863       0.148200
      12659.50        67.9447         5.2420         2.6807       0.147900
      12660.00        68.2886         4.9415         2.6797       0.143600
      12660.50        69.0888         5.0832         2.6848       0.139400
