~Version Information Block
VERS .                  2.0:  CWLS LOG ASCII STANDARD - VERSION 2.0
WRAP .                   NO:  One line per depth step
~Well Information Block
#MNEM.UNIT        Data Type   Information
#---------- ----------------  -----------
STRT .FT             728.00:  START DEPTH
STOP .FT           10480.50:  STOP DEPTH
STEP .FT               0.50:  STEP
NULL .              -999.25:  NULL VALUE
COMP .                     :  COMPANY
WELL .               STA-21:  WELL
FLD  .                     :  FIELD
LOC  .                     :  LOCATION
CTRY .                     :  COUNTRY
STAT .                     :  STATE
CNTY .                     :  COUNTY
SRVC .                     :  SERVICE COMPANY
DATE .                     :  DATE
API  .                     :  API NUMBER
UWI  .                     :  UNIQUE WELL ID
~Curve Information Block
#MNEM.UNIT         API CODE   Curve Description
#---------- ----------------  -----------------
DEPTH.FT                   :  DEPTH
GR   .GAPI                 :  Gamma Ray
RT   .OHMM                 :  RESDE
RHOB .G/C3                 :  Bulk Density
NPHI .V/V                  :  Thermal Neutron Porosity (Ratio Method) in Selected Lithology
~Parameter Information Block
#MNEM.UNIT            Value   Description
#---------- ----------------  -----------
PROJECT.            SANTAN_FE:  
~Other Information Block
# 
~A       DEPTH             GR             RT           RHOB           NPHI 
# ...
       8485.50        38.7400         1.8200         2.2700         0.2500
       8486.00        41.3300         1.9100         2.3300         0.2500
       8486.50        46.6000         2.0800         2.4100         0.2600
       8487.00        54.3000         2.2200         2.4500         0.2500
       8487.50        61.6600         2.3200         2.4500         0.2600
       8488.00        65.4300         2.3700         2.4500         0.2700
       8488.50        64.7700         2.3900         2.4200         0.2900
       8489.00        63.1700         2.3800         2.3800         0.3000
       8489.50        62.5800         2.3400         2.3000         0.3100
       8490.00        66.9300         2.2800         2.2600         0.3500
       8490.50        70.8700         2.4900         2.2700         0.3800
       8491.00        73.4600         2.6000         2.3300         0.3900
       8491.50        76.1400         2.1800         2.3800         0.3900
       8492.00        80.2400         1.9200         2.3700         0.3800
       8492.50        84.2600         1.8200         2.3500         0.3800
       8493.00        88.9400         1.9200         2.3500         0.3800
       8493.50        95.0500         1.9900         2.3200         0.3700
       8494.00       102.0000         1.7400         2.3200         0.3700
       8494.50       105.2600         1.6100         2.2900         0.3800
       8495.00       102.4200         1.8900         2.3300         0.3600
       8495.50        92.9700         2.1500         2.3600         0.3400
       8496.00        83.6000         2.1700         2.4000         0.3100
       8496.50        78.9100         2.0900         2.4200         0.2900
       8497.00        78.5800         1.9800         2.4200         0.2700
       8497.50        74.6400         2.0800         2.4300         0.2800
       8498.00        69.3700         2.0900         2.4200         0.2900
       8498.50        67.1100         1.9700         2.4400         0.2900
       8499.00        71.7900         1.7600         2.4200         0.3100
       8499.50        76.5600         1.5300         2.4300         0.3000
       8500.00        78.1600         1.4300         2.4300         0.3300
       8500.50        76.3200         1.4000         2.4400         0.3200
       8501.00        73.8900         1.4600         2.4200         0.3500
       8501.50        72.1300         1.6000         2.3900         0.3500
       8502.00        70.3700         1.6500         2.3700         0.3700
       8502.50        70.3700         1.7100         2.3600         0.3700
       8503.00        71.8800         1.7200         2.3500         0.3900
       8503.50        73.3800         1.6700         2.3800         0.3800
       8504.00        74.1400         1.6600         2.3500         0.3900
       8504.50        74.7200         1.6500         2.3600         0.3600
       8505.00        76.0600         1.5600         2.3600         0.3700
       8505.50        77.9000         1.5400         2.3800         0.3700
       8506.00        80.0800         1.5000         2.3800         0.3800
       8506.50        80.5800         1.4900         2.3700         0.3800
       8507.00        78.8300         1.5400         2.3700         0.3700
       8507.50        72.9800         1.6400         2.3900         0.3600
       8508.00        65.5300         2.2100         2.4300         0.3200
       8508.50        59.7500         2.6200         2.4400         0.2900
       8509.00        56.6500         2.6200         2.4500         0.2700
       8509.50        56.8100         2.5600         2.4400         0.2600
       8510.00        58.4900         2.5600         2.4600         0.2500
       8510.50        59.6600         2.6000         2.4600         0.2500
       8511.00        56.7400         2.8000         2.4500         0.2600
       8511.50        52.4700         3.0400         2.4000         0.2500
       8512.00        50.2900         3.0400         2.3800         0.2400
       8512.50        51.4500         2.9600         2.3800         0.2300
       8513.00        56.4800         2.3800         2.4200         0.2400
       8513.50        61.3300         2.3800         2.4400         0.2600
       8514.00        67.2700         2.1200         2.4400         0.2700
       8514.50        68.6100         1.9500         2.4300         0.2900
       8515.00        68.4500         1.8100         2.4300         0.3000
       8515.50        67.5300         1.8300         2.4300         0.3100
       8516.00        67.9500         1.8800         2.4400         0.3000
       8516.50        68.0300         1.8800         2.4500         0.2900
       8517.00        65.0200         2.2700         2.4400         0.2800
       8517.50        60.4200         2.4100         2.4300         0.2700
       8518.00        56.4000         2.4100         2.4000         0.2700
       8518.50        56.4800         2.6200         2.3800         0.2600
       8519.00        59.1500         2.2400         2.3900         0.2600
       8519.50        65.5100         2.0400         2.4200         0.2600
       8520.00        72.1200         1.7700         2.4500         0.2700
       8520.50        77.3100         1.6300         2.4400         0.2800
       8521.00        78.4900         1.5800         2.4300         0.3100
       8521.50        79.4900         1.5800         2.4300         0.3400
       8522.00        80.4100         1.4500         2.4400         0.3600
       8522.50        82.5000         1.4200         2.4500         0.3600
       8523.00        82.5900         1.5400         2.4500         0.3300
       8523.50        82.5100         1.6700         2.4400         0.3300
       8524.00        80.3300         1.7800         2.4600         0.3300
       8524.50        77.4100         1.7500         2.4700         0.3200
       8525.00        72.7200         1.9100         2.4600         0.2900
       8525.50        68.0400         2.0000         2.4500         0.2800
       8526.00        65.1000         2.1000         2.4800         0.2900
       8526.50        65.6000         2.0300         2.4500         0.3000
       8527.00        68.7800         1.9100         2.4600         0.3000
       8527.50        71.8700         1.7900         2.4200         0.3000
       8528.00        73.9700         1.7700         2.4500         0.3000
       8528.50        75.0600         1.7300         2.4400         0.3200
       8529.00        74.7300         1.7100         2.4400         0.3400
       8529.50        73.0500         1.7100         2.4400         0.3500
       8530.00        71.2100         1.7400         2.4500         0.3400
       8530.50        71.3800         1.7700         2.4600         0.3200
       8531.00        73.5500         1.6800         2.4800         0.3200
       8531.50        76.1400         1.6100         2.5200         0.3300
       8532.00        77.7300         1.6400         2.5500         0.3300
       8532.50        71.9600         1.7900         2.5700         0.3100
       8533.00        63.4300         2.3800         2.5200         0.2800
       8533.50        56.4000         2.8100         2.4600         0.2700
       8534.00        55.5600         2.5800         2.4100         0.2600
       8534.50        56.8200         2.4100         2.4000         0.2600
       8535.00        57.5700         2.3700         2.4000         0.2600
       8535.50        57.2300         2.4700         2.4000         0.2500
       8536.00        57.0700         2.4100         2.4100         0.2600
       8536.50        54.9800         2.4500         2.4300         0.2600
       8537.00        53.8900         2.4900         2.4400         0.2800
       8537.50        56.8100         2.3900         2.4300         0.2700
       8538.00        62.1700         2.1800         2.4400         0.2800
       8538.50        67.4400         2.0300         2.4600         0.2900
