~Version Information Block
VERS .                  2.0:  CWLS LOG ASCII STANDARD - VERSION 2.0
WRAP .                   NO:  One line per depth step
~Well Information Block
#MNEM.UNIT        Data Type   Information
#---------- ----------------  -----------
STRT .FT            4582.50:  START DEPTH
STOP .FT           10844.50:  STOP DEPTH
STEP .FT               0.50:  STEP
NULL .              -999.25:  NULL VALUE
COMP .                     :  COMPANY
WELL .               STA-34:  WELL
FLD  .                     :  FIELD
LOC  .                     :  LOCATION
CTRY .                     :  COUNTRY
STAT .                     :  STATE
CNTY .                     :  COUNTY
SRVC .                     :  SERVICE COMPANY
DATE .                     :  DATE
API  .                     :  API NUMBER
UWI  .                     :  UNIQUE WELL ID
~Curve Information Block
#MNEM.UNIT         API CODE   Curve Description
#---------- ----------------  -----------------
DEPTH.FT                   :  Depth
GR   .GAPI                 :  Gamma Ray
RT   .OHMM                 :  True Resistivity
RHOB .G/C3                 :  Bulk Density
NPHI .V/V                  :  Neutron Porosity
~Parameter Information Block
#MNEM.UNIT            Value   Description
#---------- ----------------  -----------
PROJECT.            SANTAN_FE:  
~Other Information Block
# 
~A       DEPTH             GR             RT           RHOB           NPHI 
# ...
       7846.00        43.7443         1.9273         2.3414       0.203200
       7846.50        51.4964         2.3852         2.3849       0.194900
       7847.00        54.5466         2.6450         2.4485       0.187900
       7847.50        55.2980         2.7403         2.4794       0.203100
       7848.00        53.8632         2.6445         2.4668       0.226100
       7848.50        56.6389         2.5301         2.4522       0.235000
       7849.00        63.4068         2.0903         2.4550       0.235700
       7849.50        63.3362         1.6140         2.4334       0.243200
       7850.00        46.2131         1.3492         2.3678       0.253500
       7850.50        47.1006         1.4959         2.3261       0.250500
       7851.00        63.6642         1.9676         2.3660       0.243900
       7851.50        77.3893         2.3319         2.4485       0.248000
       7852.00        81.0649         2.4231         2.4996       0.245200
       7852.50        74.1223         2.4515         2.5125       0.230800
       7853.00        62.3368         2.4943         2.4990       0.223100
       7853.50        61.1830         2.5524         2.4710       0.226100
       7854.00        65.9708         2.6466         2.4518       0.232400
       7854.50        68.0096         2.6741         2.4586       0.237200
       7855.00        70.2556         2.6199         2.4775       0.247600
       7855.50        80.0756         2.5256         2.4879       0.265000
       7856.00        83.3290         2.4550         2.4970       0.266700
       7856.50        85.1231         2.6895         2.5230       0.226400
       7857.00        64.5030         3.8968         2.5697       0.168600
       7857.50        45.0214         5.9071         2.5930       0.131600
       7858.00        35.5999         7.0319         2.5376       0.126200
       7858.50        29.8316         7.0909         2.4574       0.138100
       7859.00        28.2630         6.2929         2.4443       0.160600
       7859.50        22.1289         5.3849         2.4486       0.195100
       7860.00        17.3101         4.5483         2.4114       0.226400
       7860.50        18.4651         3.9543         2.3827       0.241800
       7861.00        18.9615         3.7248         2.3872       0.248400
       7861.50        19.6233         3.7826         2.3936       0.250800
       7862.00        21.7397         4.0179         2.3824       0.244000
       7862.50        22.0572         4.2800         2.3628       0.235800
       7863.00        21.8973         4.5410         2.3643       0.239800
       7863.50        21.1488         4.7797         2.3834       0.246400
       7864.00        24.6345         5.3688         2.3967       0.231800
       7864.50        24.4719         7.1712         2.4125       0.193400
       7865.00        27.4767         7.8951         2.4577       0.152200
       7865.50        32.8214         8.2597         2.5278       0.124700
       7866.00        38.0906         8.6573         2.5814       0.110600
       7866.50        38.1864         8.9535         2.6020       0.103800
       7867.00        41.2319         8.7840         2.6152       0.102500
       7867.50        41.2778         8.2881         2.6284       0.110100
       7868.00        44.5691         7.2788         2.6333       0.122000
       7868.50        49.8144         6.8739         2.6307       0.123800
       7869.00        45.7818         6.9820         2.6283       0.108800
       7869.50        33.7819         6.4897         2.6257       0.093500
       7870.00        32.2987         4.8238         2.6102       0.100500
       7870.50        35.4050         3.1160         2.5568       0.136600
       7871.00        39.5971         2.5381         2.4612       0.178600
       7871.50        43.7080         2.5505         2.3865       0.202400
       7872.00        48.9964         2.8377         2.3793       0.204600
       7872.50        62.6360         3.1004         2.4210       0.200600
       7873.00        70.9375         3.1587         2.4677       0.204300
       7873.50        72.5358         3.1281         2.4954       0.211700
       7874.00        71.9255         3.0959         2.5109       0.206700
       7874.50        69.0467         3.0631         2.5159       0.192600
       7875.00        60.1488         2.9787         2.5073       0.185600
       7875.50        59.2086         2.9120         2.4875       0.189600
       7876.00        65.6438         2.9090         2.4649       0.199000
       7876.50        64.4122         2.8737         2.4522       0.209000
       7877.00        63.4671         2.7944         2.4488       0.221800
       7877.50        68.5011         2.7272         2.4493       0.233300
       7878.00        69.3862         2.6964         2.4522       0.235100
       7878.50        65.2369         2.7001         2.4488       0.229900
       7879.00        61.0136         2.6056         2.4357       0.224600
       7879.50        47.8007         2.1903         2.4215       0.221500
       7880.00        30.6270         1.5398         2.3830       0.226200
       7880.50        20.8507         1.1646         2.3048       0.238300
       7881.00        17.6049         1.0890         2.2258       0.246300
       7881.50        16.8997         1.0719         2.1897       0.241200
       7882.00        17.1690         1.0467         2.1797       0.231300
       7882.50        16.0734         1.0641         2.1799       0.227200
       7883.00        17.0264         1.0758         2.1878       0.229300
       7883.50        17.5572         1.0901         2.1945       0.227600
       7884.00        16.5813         1.1785         2.1997       0.212200
       7884.50        18.9743         1.5316         2.2109       0.181400
       7885.00        20.2352         2.1857         2.2505       0.147700
       7885.50        19.4869         2.1901         2.3157       0.135400
       7886.00        20.7390         1.5186         2.3504       0.158700
       7886.50        21.0434         1.3137         2.3172       0.200700
       7887.00        22.3319         1.2883         2.2689       0.224000
       7887.50        20.8095         1.3226         2.2520       0.227900
       7888.00        21.7492         1.3631         2.2571       0.228200
       7888.50        22.9538         1.4087         2.2628       0.228800
       7889.00        27.2235         1.4398         2.2679       0.230200
       7889.50        28.3111         1.4402         2.2748       0.230200
       7890.00        27.1103         1.3785         2.2751       0.227000
       7890.50        26.0130         1.3370         2.2655       0.226300
       7891.00        27.1502         1.3952         2.2582       0.229800
       7891.50        27.6521         1.4312         2.2637       0.233000
       7892.00        29.3102         1.4123         2.2746       0.236000
       7892.50        29.3528         1.3813         2.2779       0.241000
       7893.00        30.7506         1.3900         2.2697       0.248100
       7893.50        28.7434         1.3941         2.2603       0.252800
       7894.00        29.4428         1.3594         2.2558       0.247800
       7894.50        34.7823         1.4969         2.2581       0.231000
       7895.00        47.3194         1.9976         2.2928       0.211900
       7895.50        61.5847         2.5979         2.3809       0.205200
       7896.00        73.9818         2.8386         2.4681       0.213000
       7896.50        78.0777         2.8974         2.4988       0.226000
       7897.00        78.2610         2.9571         2.5072       0.236100
       7897.50        78.4413         2.9980         2.5095       0.242900
       7898.00        81.9065         2.9983         2.5066       0.246200
       7898.50        82.3030         2.9545         2.5016       0.246300
       7899.00        81.1475         2.9021         2.4995       0.248600
