~Version Information Block
VERS .                  2.0:  CWLS LOG ASCII STANDARD - VERSION 2.0
WRAP .                   NO:  One line per depth step
~Well Information Block
#MNEM.UNIT        Data Type   Information
#---------- ----------------  -----------
STRT .FT            5224.50:  START DEPTH
STOP .FT           13237.50:  STOP DEPTH
STEP .FT               0.50:  STEP
NULL .              -999.25:  NULL VALUE
COMP .                     :  COMPANY
WELL .               STA-32:  WELL
FLD  .                     :  FIELD
LOC  .                     :  LOCATION
CTRY .                     :  COUNTRY
STAT .                     :  STATE
CNTY .                     :  COUNTY
SRVC .                     :  SERVICE COMPANY
DATE .                     :  DATE
API  .                     :  API NUMBER
UWI  .                     :  UNIQUE WELL ID
~Curve Information Block
#MNEM.UNIT         API CODE   Curve Description
#---------- ----------------  -----------------
DEPTH.FT                   :  Depth
GR   .GAPI                 :  Gamma Ray
RT   .OHMM                 :  True Resistivity
RHOB .G/C3                 :  Bulk Density
NPHI .V/V                  :  Neutron Porosity
~Parameter Information Block
#MNEM.UNIT            Value   Description
#---------- ----------------  -----------
PROJECT.            SANTAN_FE:  
~Other Information Block
# 
~A       DEPTH             GR             RT           RHOB           NPHI 
# ...
       8381.00        61.9137         2.0741         2.3770       0.248400
       8381.50        58.9191         1.9782         2.3817       0.240600
       8382.00        51.1390         1.7235         2.3676       0.236900
       8382.50        44.4500         1.5613         2.3316       0.237300
       8383.00        41.2459         1.5379         2.2970       0.237000
       8383.50        42.4571         1.6242         2.2956       0.236700
       8384.00        44.8061         1.7170         2.3161       0.236900
       8384.50        47.7503         1.8081         2.3294       0.230700
       8385.00        50.7182         1.9002         2.3397       0.224500
       8385.50        54.2127         1.9616         2.3537       0.228700
       8386.00        59.0674         1.9880         2.3658       0.238100
       8386.50        59.8498         2.0383         2.3743       0.242600
       8387.00        64.4460         2.0815         2.3854       0.238500
       8387.50        70.2408         2.1565         2.3995       0.236100
       8388.00        73.5955         2.2398         2.4140       0.250300
       8388.50        81.5169         2.2138         2.4322       0.280600
       8389.00        82.5999         2.1576         2.4494       0.300800
       8389.50        84.1474         2.1810         2.4519       0.296900
       8390.00        80.5189         2.2427         2.4436       0.278400
       8390.50        71.8208         2.3358         2.4361       0.257800
       8391.00        63.9633         2.3939         2.4290       0.247400
       8391.50        64.4239         2.3580         2.4240       0.247300
       8392.00        68.8939         2.2756         2.4306       0.249200
       8392.50        72.5996         2.3211         2.4437       0.244500
       8393.00        71.3786         2.3536         2.4504       0.231500
       8393.50        72.7099         2.3728         2.4506       0.229400
       8394.00        79.0558         2.4023         2.4503       0.250800
       8394.50        84.7349         2.3634         2.4434       0.289100
       8395.00        91.4395         2.3004         2.4265       0.324800
       8395.50        95.2495         2.1494         2.4143       0.335300
       8396.00        93.5365         1.9712         2.4213       0.321900
       8396.50        97.8288         1.9206         2.4460       0.307200
       8397.00        97.1610         1.9547         2.4684       0.304000
       8397.50        99.0847         2.0091         2.4732       0.310900
       8398.00       100.0389         1.9901         2.4656       0.313700
       8398.50        98.5532         1.9492         2.4681       0.308700
       8399.00        96.4871         1.9061         2.4832       0.304900
       8399.50        96.0180         1.8497         2.4928       0.300700
       8400.00        95.5278         1.8256         2.4983       0.292000
       8400.50        99.3003         1.8209         2.5054       0.286000
       8401.00       100.5505         1.8105         2.5087       0.292500
       8401.50        99.2975         1.8025         2.5086       0.298600
       8402.00        93.8650         1.7896         2.5107       0.295200
       8402.50        97.3428         1.8370         2.5117       0.295600
       8403.00        97.3527         1.8696         2.5022       0.308700
       8403.50        94.4682         1.8061         2.4867       0.323800
       8404.00        97.2612         1.7423         2.4760       0.330200
       8404.50        97.7371         1.7343         2.4736       0.327900
       8405.00        96.4400         1.7600         2.4774       0.323900
       8405.50        95.0066         1.7977         2.4790       0.324000
       8406.00        94.4408         1.7827         2.4742       0.329200
       8406.50        93.9227         1.7701         2.4695       0.333200
       8407.00        97.5361         1.7435         2.4641       0.340400
       8407.50        99.0056         1.7500         2.4542       0.357000
       8408.00       101.2920         1.7706         2.4453       0.362100
       8408.50        99.4490         1.8527         2.4461       0.336700
       8409.00        94.5791         2.0078         2.4535       0.300800
       8409.50        86.4071         2.1607         2.4576       0.276600
       8410.00        78.4293         2.3134         2.4504       0.273300
       8410.50        80.2518         2.3978         2.4328       0.280200
       8411.00        78.1037         2.4501         2.4168       0.280400
       8411.50        76.7220         2.5055         2.4104       0.274100
       8412.00        75.6245         2.5331         2.4127       0.262900
       8412.50        73.9945         2.5357         2.4164       0.246600
       8413.00        71.4844         2.4828         2.4089       0.233100
       8413.50        61.4110         2.3601         2.3865       0.225900
       8414.00        58.5719         2.2957         2.3639       0.224000
       8414.50        59.8884         2.2794         2.3556       0.224700
       8415.00        60.2972         2.2967         2.3618       0.222700
       8415.50        60.9716         2.3383         2.3728       0.217800
       8416.00        58.5594         2.3631         2.3809       0.214000
       8416.50        55.0120         2.3597         2.3837       0.214600
       8417.00        54.4354         2.3383         2.3796       0.220300
       8417.50        52.2196         2.3324         2.3728       0.223500
       8418.00        58.1536         2.3781         2.3748       0.220500
       8418.50        60.5151         2.4540         2.3880       0.217600
       8419.00        63.6353         2.5249         2.3985       0.219400
       8419.50        63.5066         2.5931         2.4044       0.223700
       8420.00        65.0691         2.6452         2.4168       0.234800
       8420.50        71.1558         2.6254         2.4380       0.253900
       8421.00        73.3779         2.5717         2.4582       0.265200
       8421.50        77.4522         2.5654         2.4719       0.264500
       8422.00        76.5691         2.5559         2.4783       0.261200
       8422.50        78.5024         2.5457         2.4776       0.254700
       8423.00        79.7408         2.5221         2.4741       0.246300
       8423.50        78.7965         2.5275         2.4701       0.248700
       8424.00        73.5729         2.5086         2.4661       0.259500
       8424.50        73.6242         2.4924         2.4605       0.265800
       8425.00        72.7827         2.4653         2.4541       0.267400
       8425.50        69.9959         2.4293         2.4557       0.267800
       8426.00        71.2521         2.3837         2.4673       0.264000
       8426.50        73.5138         2.2513         2.4711       0.257500
       8427.00        67.5061         1.9899         2.4511       0.253500
       8427.50        51.4309         1.8005         2.4055       0.253700
       8428.00        51.1385         1.8990         2.3655       0.258400
       8428.50        54.4894         2.0913         2.3691       0.263700
       8429.00        60.4232         2.1914         2.3973       0.263900
       8429.50        68.2945         2.3270         2.4268       0.262900
       8430.00        74.9272         2.4358         2.4637       0.268100
       8430.50        80.3864         2.4710         2.4954       0.272800
       8431.00        79.4361         2.4455         2.5058       0.270400
       8431.50        79.1660         2.5206         2.5028       0.268500
       8432.00        82.1822         2.5665         2.5033       0.277800
       8432.50        80.0110         2.5671         2.5083       0.288100
       8433.00        79.8540         2.5695         2.5080       0.286100
       8433.50        79.2486         2.5635         2.5040       0.286500
       8434.00        81.1355         2.5307         2.5001       0.291300
