~Version Information Block
VERS .                  2.0:  CWLS LOG ASCII STANDARD - VERSION 2.0
WRAP .                   NO:  One line per depth step
~Well Information Block
#MNEM.UNIT        Data Type   Information
#---------- ----------------  -----------
STRT .FT            3742.00:  START DEPTH
STOP .FT            8440.00:  STOP DEPTH
STEP .FT               0.50:  STEP
NULL .              -999.25:  NULL VALUE
COMP .                     :  COMPANY
WELL .                STA-2:  WELL
FLD  .                     :  FIELD
LOC  .                     :  LOCATION
CTRY .                     :  COUNTRY
STAT .                     :  STATE
CNTY .                     :  COUNTY
SRVC .                     :  SERVICE COMPANY
DATE .                     :  DATE
API  .                     :  API NUMBER
UWI  .                     :  UNIQUE WELL ID
~Curve Information Block
#MNEM.UNIT         API CODE   Curve Description
#---------- ----------------  -----------------
DEPTH.FT                   :  DEPTH
GR   .GAPI                 :  Gamma Ray
RT   .OHMM                 :  Deep resistivity
RHOB .G/C3                 :  Bulk Density
NPHI .V/V                  :  Neutron porosity
DT   .US/F                 :  Sonic
~Parameter Information Block
#MNEM.UNIT            Value   Description
#---------- ----------------  -----------
PROJECT.            SANTAN_FE:  
~Other Information Block
# 
~A       DEPTH             GR             RT           RHOB           NPHI             DT 
# ...
       4854.50        24.1300         8.5000         2.2500       0.350000        86.2000
       4855.00        24.1300        10.2700         2.2500       0.340000        85.3000
       4855.50        21.2500         8.7600         2.2200       0.350000        84.2000
       4856.00        22.0100         7.5800         2.2000       0.360000        85.3500
       4856.50        21.0300         7.1800         2.2300       0.350000        86.2000
       4857.00        23.4500         6.8100         2.3100       0.300000        79.7000
       4857.50        25.7500         7.9600         2.4300       0.230000        73.6000
       4858.00        30.6300         9.0100         2.5100       0.190000        71.2500
       4858.50        42.4800        12.5600         2.5300       0.210000        74.7000
       4859.00        50.3900         6.9800         2.4700       0.260000        85.1000
       4859.50        57.4600         4.6000         2.4400       0.260000        88.1000
       4860.00        57.1000         3.5100         2.4500       0.240000        82.2500
       4860.50        59.2400         5.0500         2.4900       0.230000        80.8500
       4861.00        61.2500         5.8400         2.4800       0.240000        79.6000
       4861.50        65.6100         4.6000         2.4600       0.250000        82.4500
       4862.00        66.0100         4.3400         2.4700       0.250000        87.1500
       4862.50        66.3200         4.9700         2.4700       0.260000        89.4500
       4863.00        66.0200         5.4300         2.4500       0.270000        89.6500
       4863.50        68.8300         3.5200         2.4400       0.290000        94.0500
       4864.00        72.1500         3.1200         2.4300       0.320000       100.6000
       4864.50        69.8300         2.8300         2.4000       0.350000       101.8000
       4865.00        69.1100         3.3200         2.3500       0.360000       101.9000
       4865.50        68.0100         3.3900         2.3300       0.360000       105.3500
       4866.00        73.5900         2.5700         2.3200       0.370000       105.4000
       4866.50        81.6600         3.9300         2.3300       0.360000       105.4000
       4867.00        86.8100         3.0200         2.3300       0.360000       107.1500
       4867.50        86.7000         2.5300         2.3300       0.340000       110.9500
       4868.00        87.8400         1.8100         2.3400       0.350000       115.2000
       4868.50        92.6600         1.3600         2.3400       0.350000       119.0000
       4869.00        99.0300         1.4100         2.3200       0.360000       120.8500
       4869.50        98.9600         1.5800         2.3200       0.360000       120.8000
       4870.00        96.8200         1.7300         2.3200       0.370000       120.8000
       4870.50        96.5500         1.6500         2.3200       0.380000       119.8000
       4871.00       100.2400         2.3000         2.3300       0.390000       118.0500
       4871.50       100.6100         1.2600         2.3500       0.380000       118.6000
       4872.00        90.8300         1.2100         2.3500       0.380000       110.8000
       4872.50        75.0900         2.3600         2.3100       0.400000       111.7000
       4873.00        63.4500         4.8700         2.2900       0.400000       103.8500
       4873.50        54.8800         6.0700         2.3400       0.330000        94.7000
       4874.00        48.8600        13.9100         2.4300       0.230000        87.5000
       4874.50        46.8100        16.2800         2.4900       0.200000        84.4500
       4875.00        52.4100        11.4200         2.4600       0.220000        73.7000
       4875.50        59.1800         4.6800         2.4500       0.230000        84.0000
       4876.00        55.8600         3.4100         2.4200       0.180000        74.6500
       4876.50        44.4900         8.7500         2.3500       0.140000        73.6000
       4877.00        33.2800        17.3800         2.2900       0.150000        65.3500
       4877.50        26.2000        22.3200         2.3300       0.160000        67.7500
       4878.00        29.4000        10.1900         2.4400       0.170000        69.3000
       4878.50        34.9100         7.2800         2.5000       0.170000        82.3000
       4879.00        39.3200         6.4700         2.4400       0.190000        87.2500
       4879.50        36.1200        10.5400         2.4000       0.210000        82.3000
       4880.00        31.4100        10.1300         2.3700       0.230000        85.4000
       4880.50        29.4200         8.9200         2.3600       0.250000        95.8500
       4881.00        30.4800         8.6300         2.3900       0.230000        86.3500
       4881.50        28.4700        11.2400         2.4200       0.210000        80.5000
       4882.00        27.0200        11.3900         2.4200       0.200000        79.0000
       4882.50        24.8600        11.4900         2.4100       0.200000        77.9500
       4883.00        23.8800        11.4300         2.3900       0.210000        76.2000
       4883.50        24.6600        11.9000         2.3700       0.200000        76.3000
       4884.00        25.6200        10.9300         2.3400       0.200000        80.0500
       4884.50        26.1800        11.4600         2.3500       0.180000        79.9000
       4885.00        27.3900        11.7600         2.3800       0.160000        80.1000
       4885.50        26.5800        12.2200         2.4200       0.160000        78.8000
       4886.00        27.9100        12.6300         2.4300       0.160000        75.7500
       4886.50        27.3700        12.5400         2.4400       0.180000        76.2500
       4887.00        26.8400        12.1500         2.4500       0.200000        77.8000
       4887.50        28.9700        10.7400         2.4600       0.210000        75.8000
       4888.00        28.3100        10.1100         2.4600       0.200000        75.4500
       4888.50        32.1700        11.5200         2.4800       0.160000        74.6000
       4889.00        32.4500        10.8500         2.5000       0.140000        73.4000
       4889.50        37.4100        12.2900         2.4900       0.120000        75.7000
       4890.00        37.0200        10.7300         2.4500       0.150000        76.0500
       4890.50        37.4300        14.4800         2.4300       0.190000        77.0500
       4891.00        35.6700         9.3500         2.4400       0.200000        76.5000
       4891.50        35.2700        10.5400         2.4700       0.190000        73.9000
       4892.00        33.8100        11.5400         2.4700       0.160000        74.1500
       4892.50        30.3500        11.1300         2.4800       0.160000        73.6000
       4893.00        29.6800        11.4100         2.4600       0.160000        73.1000
       4893.50        29.0000        14.9000         2.4500       0.170000        74.6000
       4894.00        28.6000        12.4300         2.4000       0.180000        76.1500
       4894.50        25.5900        12.2900         2.3200       0.190000        80.3000
       4895.00        24.4000        11.9800         2.2500       0.220000        82.3000
       4895.50        22.3800        15.3100         2.2200       0.250000        83.0500
       4896.00        22.1800        14.6900         2.2600       0.270000        82.5000
       4896.50        20.8300         9.9700         2.3200       0.250000        81.7000
       4897.00        22.3200        11.6700         2.3400       0.240000        81.1000
       4897.50        24.0500        10.8300         2.3500       0.220000        79.9500
       4898.00        24.1800        10.5500         2.3600       0.190000        78.8000
       4898.50        24.7100         8.3100         2.3400       0.190000        77.0000
