~Version Information Block
VERS .                  2.0:  CWLS LOG ASCII STANDARD - VERSION 2.0
WRAP .                   NO:  One line per depth step
~Well Information Block
#MNEM.UNIT        Data Type   Information
#---------- ----------------  -----------
STRT .FT            3811.50:  START DEPTH
STOP .FT            9515.50:  STOP DEPTH
STEP .FT               0.50:  STEP
NULL .              -999.25:  NULL VALUE
COMP .                     :  COMPANY
WELL .                STA-6:  WELL
FLD  .                     :  FIELD
LOC  .                     :  LOCATION
CTRY .                     :  COUNTRY
STAT .                     :  STATE
CNTY .                     :  COUNTY
SRVC .                     :  SERVICE COMPANY
DATE .                     :  DATE
API  .                     :  API NUMBER
UWI  .                     :  UNIQUE WELL ID
~Curve Information Block
#MNEM.UNIT         API CODE   Curve Description
#---------- ----------------  -----------------
DEPTH.FT                   :  DEPTH
GR   .GAPI                 :  Gamma Ray
RT   .OHMM                 :  Deep resistivity
RHOB .G/C3                 :  Bulk Density
NPHI .V/V                  :  Neutron porosity
DT   .US/F                 :  Sonic
~Parameter Information Block
#MNEM.UNIT            Value   Description
#---------- ----------------  -----------
PROJECT.            SANTAN_FE:  
~Other Information Block
# 
~A       DEPTH             GR             RT           RHOB           NPHI             DT 
# ...
       5502.50        74.2900         2.2100         2.2100       0.310000       121.7000
       5503.00        71.8100         2.1900         2.1900       0.320000       121.9000
       5503.50        72.3700         2.0800         2.2000       0.350000       121.9000
       5504.00        77.5800         2.0200         2.2100       0.360000       119.6000
       5504.50        85.1500         1.9300         2.2300       0.370000       118.6000
       5505.00        90.3000         1.7800         2.2500       0.390000       117.7000
       5505.50        92.3800         1.6300         2.2500       0.410000       120.4000
       5506.00        94.7200         1.6800         2.2100       0.400000       128.4000
       5506.50        94.6300         1.7200         2.2000       0.380000       130.6000
       5507.00        95.0200         1.5800         2.2000       0.350000       130.1000
       5507.50        98.5600         1.5000         2.2200       0.360000       129.0000
       5508.00       102.6900         1.4500         2.2400       0.390000       125.5500
       5508.50       106.5500         1.4000         2.2500       0.410000       126.0500
       5509.00       104.2500         1.4100         2.2600       0.430000       127.0000
       5509.50       103.1800         1.4000         2.2700       0.400000       126.0000
       5510.00       100.0600         1.3100         2.2900       0.400000       124.4500
       5510.50       101.5500         1.3400         2.3000       0.410000       123.9000
       5511.00       102.8300         1.3900         2.3000       0.420000       124.1000
       5511.50       104.6400         1.3500         2.2800       0.430000       123.2000
       5512.00       106.3500         1.3600         2.2700       0.410000       124.4500
       5512.50       108.1900         1.2600         2.2800       0.400000       124.1000
       5513.00       112.4800         1.2200         2.2900       0.410000       124.6000
       5513.50       110.0300         1.2000         2.3000       0.410000       129.5500
       5514.00       110.0300         1.1900         2.3100       0.430000       124.3500
       5514.50       110.2700         1.3000         2.3000       0.400000       124.1000
       5515.00       105.9000         1.4300         2.2600       0.400000       125.3000
       5515.50        95.3700         1.9100         2.2100       0.360000       122.1500
       5516.00        75.2300         2.8900         2.2300       0.320000       107.7000
       5516.50        56.6700         4.5700         2.3400       0.240000        89.2000
       5517.00        43.2300         8.1800         2.5300       0.140000        64.3500
       5517.50        39.2100         7.3800         2.6700       0.070000        52.2500
       5518.00        38.6200         7.2000         2.7100       0.060000        52.1000
       5518.50        37.6600         6.7800         2.7000       0.060000        41.4000
       5519.00        35.4200         8.3300         2.6900       0.060000        51.7000
       5519.50        35.4100         8.2700         2.5800       0.100000        55.1000
       5520.00        37.3300         7.6400         2.4100       0.170000        84.8500
       5520.50        39.8300         5.8700         2.2500       0.250000       104.3500
       5521.00        42.1200         2.5400         2.1700       0.290000       121.0000
       5521.50        44.9200         2.3000         2.1000       0.310000       133.6500
       5522.00        46.1700         2.1500         2.0700       0.300000       133.2500
       5522.50        46.8200         2.1700         2.0500       0.310000       134.1000
       5523.00        44.1400         2.1300         2.0500       0.310000       146.8000
       5523.50        42.6400         2.0100         2.0500       0.340000       132.7500
       5524.00        45.6500         1.8800         2.0600       0.340000       134.6000
       5524.50        48.6700         1.8600         2.0800       0.350000       132.4000
       5525.00        49.4200         1.8400         2.1200       0.340000       130.4000
       5525.50        48.8500         1.7300         2.1400       0.350000       126.4500
       5526.00        51.1100         1.7900         2.1600       0.340000       126.9000
       5526.50        57.8300         1.8500         2.1600       0.350000       128.9000
       5527.00        55.4700         1.9400         2.1200       0.330000       131.4000
       5527.50        50.6200         1.9500         2.0800       0.330000       134.9000
       5528.00        43.0300         1.9200         2.0700       0.330000       134.3500
       5528.50        41.3700         1.9700         2.1000       0.350000       131.5500
       5529.00        43.6200         1.9900         2.1400       0.370000       127.1000
       5529.50        46.6300         1.9300         2.1600       0.360000       125.4000
       5530.00        53.9200         1.9000         2.1700       0.360000       126.4500
       5530.50        56.0100         1.9100         2.1500       0.360000       125.9000
       5531.00        60.4200         1.9500         2.1300       0.340000       126.6000
       5531.50        59.3800         1.9500         2.1300       0.340000       127.2500
       5532.00        63.9900         1.9900         2.1600       0.350000       124.1000
       5532.50        70.5700         2.0300         2.2100       0.380000       119.8000
       5533.00        75.6800         1.9800         2.2600       0.370000       116.8000
       5533.50        80.5000         1.9500         2.2800       0.350000       117.0000
       5534.00        81.3600         1.9100         2.2900       0.340000       116.7000
       5534.50        86.0400         1.8600         2.2800       0.350000       117.4000
       5535.00        88.2400         1.9000         2.2800       0.360000       117.7500
       5535.50        94.4900         1.9500         2.2800       0.360000       117.4500
       5536.00        91.7900         1.8600         2.2800       0.360000       118.4000
       5536.50        92.0600         1.9200         2.2700       0.380000       118.1500
       5537.00        86.8500         1.8800         2.2700       0.390000       119.4000
       5537.50        94.1800         1.8300         2.2700       0.370000       120.8000
       5538.00        96.3400         1.8900         2.2700       0.360000       121.0000
       5538.50        97.6000         1.8100         2.2700       0.380000       119.6000
       5539.00        96.4300         1.7900         2.2800       0.410000       120.0500
       5539.50        98.0200         1.8100         2.2800       0.410000       124.4000
       5540.00        98.3200         1.7800         2.2800       0.400000       124.4000
       5540.50        98.9700         1.8900         2.2700       0.380000       123.9500
       5541.00        95.2700         1.8500         2.2700       0.380000       122.5000
       5541.50        98.4800         1.8000         2.2700       0.380000       120.4000
       5542.00        98.7300         1.8300         2.2700       0.410000       117.7500
       5542.50       100.5200         1.8600         2.2900       0.410000       122.0000
       5543.00        93.9400         1.8300         2.2800       0.410000       122.4000
       5543.50        88.8000         1.8700         2.2800       0.370000       121.6000
       5544.00        88.4000         1.9200         2.2800       0.370000       122.4000
       5544.50        92.9300         1.8400         2.2800       0.380000       123.2000
       5545.00        96.4700         1.8500         2.2800       0.410000       122.4000
       5545.50        94.0400         1.8300         2.2800       0.410000       122.3000
       5546.00        96.3500         1.8200         2.2800       0.390000       123.0000
       5546.50        99.7800         1.8100         2.2900       0.390000       121.4000
