~Version Information Block
VERS .                  2.0:  CWLS LOG ASCII STANDARD - VERSION 2.0
WRAP .                   NO:  One line per depth step
~Well Information Block
#MNEM.UNIT        Data Type   Information
#---------- ----------------  -----------
STRT .FT            3742.00:  START DEPTH
STOP .FT            8440.00:  STOP DEPTH
STEP .FT               0.50:  STEP
NULL .              -999.25:  NULL VALUE
COMP .                     :  COMPANY
WELL .                STA-2:  WELL
FLD  .                     :  FIELD
LOC  .                     :  LOCATION
CTRY .                     :  COUNTRY
STAT .                     :  STATE
CNTY .                     :  COUNTY
SRVC .                     :  SERVICE COMPANY
DATE .                     :  DATE
API  .                     :  API NUMBER
UWI  .                     :  UNIQUE WELL ID
~Curve Information Block
#MNEM.UNIT         API CODE   Curve Description
#---------- ----------------  -----------------
DEPTH.FT                   :  DEPTH
GR   .GAPI                 :  Gamma Ray
RT   .OHMM                 :  Deep resistivity
RHOB .G/C3                 :  Bulk Density
NPHI .V/V                  :  Neutron porosity
DT   .US/F                 :  Sonic
~Parameter Information Block
#MNEM.UNIT            Value   Description
#---------- ----------------  -----------
PROJECT.            SANTAN_FE:  
~Other Information Block
# 
~A       DEPTH             GR             RT           RHOB           NPHI             DT 
# ...
       7480.00       106.2500         1.7300         2.5400       0.280000        97.6500
       7480.50       106.1200         1.6400         2.5400       0.280000        98.4000
       7481.00       112.6400         1.5900         2.5200       0.290000        97.9000
       7481.50       109.6700         1.7000         2.5200       0.290000        96.2000
       7482.00       110.5700         1.8700         2.5300       0.280000        93.3500
       7482.50       103.1700         2.0100         2.5200       0.270000        90.0000
       7483.00        94.6000         2.4500         2.5000       0.230000        87.7000
       7483.50        85.0300         2.9400         2.4800       0.220000        85.1000
       7484.00        80.5300         2.8800         2.4600       0.210000        84.7500
       7484.50        80.9600         3.0000         2.4700       0.220000        85.8000
       7485.00        84.4700         2.8200         2.4800       0.220000        86.4500
       7485.50        88.1400         2.8500         2.5000       0.230000        87.4000
       7486.00        92.3000         2.6900         2.5100       0.230000        87.7000
       7486.50        89.8500         2.6500         2.5200       0.220000        86.9500
       7487.00        93.1900         2.6800         2.5300       0.210000        86.9500
       7487.50        95.4700         2.6200         2.5200       0.210000        87.0500
       7488.00        99.9200         2.4100         2.5200       0.230000        88.5000
       7488.50        97.3500         2.2200         2.5300       0.250000        90.2000
       7489.00        97.1800         1.9500         2.5200       0.250000        92.0000
       7489.50        96.2000         1.9400         2.5200       0.250000        92.9000
       7490.00        98.4500         1.8900         2.5100       0.260000        93.5000
       7490.50        99.6800         1.6800         2.5200       0.260000        94.1500
       7491.00       108.7800         1.6500         2.5400       0.270000        94.2000
       7491.50       111.6500         1.5900         2.5500       0.270000        94.1000
       7492.00       113.2400         1.7600         2.5500       0.280000        94.7000
       7492.50       111.3300         1.8000         2.5500       0.290000        94.0500
       7493.00       109.9300         2.0200         2.5600       0.280000        93.2500
       7493.50       101.9600         2.6400         2.5600       0.260000        91.1500
       7494.00        89.1400         4.6700         2.5600       0.210000        85.1000
       7494.50        75.6500         4.1600         2.6000       0.170000        78.2000
       7495.00        72.7800         4.2200         2.6200       0.140000        73.0000
       7495.50        69.0200         3.5800         2.6100       0.140000        72.6500
       7496.00        67.8600         3.8100         2.5400       0.150000        71.6000
       7496.50        63.1700         4.4200         2.4900       0.170000        77.8500
       7497.00        64.2700         3.2800         2.4700       0.190000        82.0500
       7497.50        65.4000         2.9600         2.4500       0.210000        84.1000
       7498.00        69.7000         3.1200         2.4500       0.210000        85.8500
       7498.50        72.2300         3.0700         2.4800       0.210000        85.4000
       7499.00        74.5800         3.0300         2.4900       0.210000        84.8000
       7499.50        77.1300         3.2100         2.4900       0.200000        83.8000
       7500.00        79.0400         3.2600         2.4700       0.210000        85.3000
       7500.50        82.2600         3.1100         2.4900       0.220000        84.9000
       7501.00        82.0800         2.9800         2.5100       0.220000        84.8000
       7501.50        82.7800         2.7400         2.5200       0.220000        86.0000
       7502.00        87.9500         2.6300         2.5200       0.220000        86.8000
       7502.50        92.8300         2.6300         2.5300       0.230000        88.5000
       7503.00       100.8100         2.3700         2.5300       0.240000        89.5500
       7503.50       106.4700         2.1900         2.5300       0.250000        91.1500
       7504.00       110.6300         1.9700         2.5200       0.250000        92.6500
       7504.50       109.4800         1.9300         2.5200       0.260000        93.5000
       7505.00       108.3400         2.0400         2.5200       0.260000        94.2000
       7505.50       109.0400         2.0200         2.5200       0.260000        93.7500
       7506.00       107.9200         2.0700         2.5300       0.250000        92.5000
       7506.50       108.8500         2.0800         2.5300       0.240000        92.2000
       7507.00       112.0600         2.0700         2.5300       0.240000        92.4000
       7507.50       112.1200         2.0100         2.5300       0.250000        92.7000
       7508.00       102.1500         1.9200         2.5400       0.250000        91.9000
       7508.50        92.9500         2.1500         2.5300       0.240000        89.7500
       7509.00        88.8100         3.3700         2.5100       0.240000        88.5500
       7509.50        96.7400         2.6500         2.5100       0.240000        87.8000
       7510.00        99.9400         2.5000         2.5100       0.250000        88.0000
       7510.50       104.5600         2.2900         2.5200       0.250000        90.3000
       7511.00       101.8100         2.2100         2.5200       0.250000        92.4000
       7511.50       106.3300         1.9500         2.5200       0.260000        93.5000
       7512.00       103.9900         2.0300         2.5200       0.270000        93.9500
       7512.50       102.2700         2.0700         2.5200       0.260000        93.5500
       7513.00        94.0700         2.0500         2.5000       0.250000        91.8000
       7513.50        84.6800         2.5200         2.5000       0.220000        87.5000
       7514.00        75.0800         3.5200         2.5000       0.190000        84.1000
       7514.50        63.2100         3.8300         2.4800       0.170000        83.9000
       7515.00        58.5600         4.4500         2.4400       0.180000        83.1500
       7515.50        60.1700         3.3400         2.4300       0.190000        85.1500
       7516.00        71.1200         3.1600         2.4400       0.200000        86.8000
       7516.50        82.2400         3.1500         2.4800       0.220000        87.2000
       7517.00        94.6000         2.8400         2.5000       0.240000        88.5500
       7517.50       101.2800         2.6900         2.5100       0.240000        89.6000
       7518.00       102.0200         2.8000         2.5000       0.240000        91.2000
       7518.50       104.1700         2.6900         2.5000       0.250000        92.6000
       7519.00       103.5000         2.2300         2.4900       0.250000        92.2000
       7519.50       107.8800         2.3800         2.5000       0.250000        91.7000
       7520.00       107.2000         2.4000         2.5100       0.250000        90.6500
       7520.50       107.1400         2.6500         2.5100       0.260000        90.4000
       7521.00       105.7000         2.5300         2.5200       0.250000        91.3000
       7521.50       106.0100         2.2600         2.5200       0.260000        92.5000
       7522.00       111.1100         2.2100         2.5200       0.260000        93.0000
       7522.50       112.4100         2.0500         2.5200       0.270000        93.0500
       7523.00       108.6900         2.1100         2.5100       0.270000        92.4000
       7523.50       101.9500         2.4300         2.5100       0.260000        92.6000
       7524.00       105.3400         2.2900         2.5200       0.260000        92.8000
