~Version Information Block
VERS .                  2.0:  CWLS LOG ASCII STANDARD - VERSION 2.0
WRAP .                   NO:  One line per depth step
~Well Information Block
#MNEM.UNIT        Data Type   Information
#---------- ----------------  -----------
STRT .FT            5224.50:  START DEPTH
STOP .FT           13237.50:  STOP DEPTH
STEP .FT               0.50:  STEP
NULL .              -999.25:  NULL VALUE
COMP .                     :  COMPANY
WELL .               STA-32:  WELL
FLD  .                     :  FIELD
LOC  .                     :  LOCATION
CTRY .                     :  COUNTRY
STAT .                     :  STATE
CNTY .                     :  COUNTY
SRVC .                     :  SERVICE COMPANY
DATE .                     :  DATE
API  .                     :  API NUMBER
UWI  .                     :  UNIQUE WELL ID
~Curve Information Block
#MNEM.UNIT         API CODE   Curve Description
#---------- ----------------  -----------------
DEPTH.FT                   :  Depth
GR   .GAPI                 :  Gamma Ray
RT   .OHMM                 :  True Resistivity
RHOB .G/C3                 :  Bulk Density
NPHI .V/V                  :  Neutron Porosity
~Parameter Information Block
#MNEM.UNIT            Value   Description
#---------- ----------------  -----------
PROJECT.            SANTAN_FE:  
~Other Information Block
# 
~A       DEPTH             GR             RT           RHOB           NPHI 
# ...
       7846.00        90.2109         1.5801         2.4567       0.348978
       7846.50        84.2193         1.6841         2.4525       0.338725
       7847.00        85.3267         1.8519         2.4445       0.316348
       7847.50        77.4192         2.0778         2.4418       0.295591
       7848.00        77.5239         2.1049         2.4516       0.289777
       7848.50        82.4910         1.9465         2.4619       0.300150
       7849.00        85.8709         1.8158         2.4683       0.319135
       7849.50        86.4344         1.7035         2.4718       0.334867
       7850.00        88.0368         1.7020         2.4712       0.339572
       7850.50        90.6399         1.6845         2.4661       0.336805
       7851.00        96.8498         1.6851         2.4590       0.329898
       7851.50        94.8252         1.6741         2.4562       0.316809
       7852.00        98.1286         1.9018         2.4630       0.303289
       7852.50        90.4464         2.1512         2.4667       0.300192
       7853.00        82.1457         2.1569         2.4490       0.311682
       7853.50        84.5185         2.1196         2.4193       0.331545
       7854.00        89.0493         2.0660         2.4001       0.342949
       7854.50        92.6839         1.9262         2.3991       0.336189
       7855.00        92.2525         1.6495         2.4196       0.319934
       7855.50        89.4613         1.7153         2.4481       0.300133
       7856.00        87.8087         1.8686         2.4656       0.277564
       7856.50        85.0405         2.0358         2.4702       0.263205
       7857.00        81.1319         2.1332         2.4619       0.262953
       7857.50        80.0284         2.1958         2.4483       0.270203
       7858.00        81.0745         2.2876         2.4450       0.272481
       7858.50        77.7218         2.3570         2.4475       0.266501
       7859.00        75.6790         2.3672         2.4428       0.265514
       7859.50        75.7451         2.3239         2.4361       0.270167
       7860.00        79.1250         2.2874         2.4355       0.278563
       7860.50        78.2399         2.2624         2.4358       0.288802
       7861.00        74.5121         2.0933         2.4234       0.296319
       7861.50        68.5525         1.9234         2.3849       0.297429
       7862.00        62.5795         1.8469         2.3398       0.297383
       7862.50        62.7160         1.8668         2.3262       0.300705
       7863.00        68.0397         1.8110         2.3542       0.303080
       7863.50        71.9561         1.8827         2.3889       0.303413
       7864.00        72.0347         1.9417         2.3981       0.305699
       7864.50        69.7374         1.9599         2.3954       0.307845
       7865.00        69.3664         2.0181         2.3972       0.305077
       7865.50        67.2318         2.0103         2.3974       0.299020
       7866.00        63.2979         2.0213         2.3846       0.291922
       7866.50        69.3279         2.0456         2.3806       0.286459
       7867.00        74.6472         2.0033         2.4131       0.283508
       7867.50        77.1896         1.9502         2.4453       0.285222
       7868.00        78.8593         2.0527         2.4595       0.293031
       7868.50        79.6828         2.0303         2.4628       0.301334
       7869.00        81.3022         1.9860         2.4634       0.306639
       7869.50        82.6564         1.9571         2.4619       0.309722
       7870.00        76.7886         2.0483         2.4554       0.306128
       7870.50        74.2471         2.1395         2.4441       0.296408
       7871.00        69.3597         2.0667         2.4262       0.292171
       7871.50        64.1745         2.0393         2.4017       0.296866
       7872.00        69.8532         1.9838         2.3812       0.304442
       7872.50        72.8949         1.9186         2.3884       0.305610
       7873.00        69.7564         1.9356         2.4001       0.293284
       7873.50        67.1567         1.8860         2.3882       0.281817
       7874.00        69.1426         1.9082         2.3877       0.285528
       7874.50        75.5163         2.0049         2.4158       0.295270
       7875.00        78.5960         2.1162         2.4483       0.301656
       7875.50        80.1113         2.1465         2.4604       0.305255
       7876.00        78.7794         2.1328         2.4626       0.302564
       7876.50        81.0853         2.1255         2.4620       0.300215
       7877.00        79.9755         2.0718         2.4509       0.305366
       7877.50        79.2340         2.0988         2.4327       0.308700
       7878.00        82.8912         2.0721         2.4298       0.308900
       7878.50        82.2955         2.0070         2.4441       0.316600
       7879.00        84.8324         1.9465         2.4573       0.324900
       7879.50        87.8962         1.8474         2.4673       0.326300
       7880.00        87.5531         1.7678         2.4804       0.330500
       7880.50        90.3334         1.7014         2.4913       0.346900
       7881.00        93.9469         1.6295         2.4901       0.362400
       7881.50        99.3750         1.5628         2.4841       0.359300
       7882.00        95.9056         1.5152         2.4843       0.348900
       7882.50        93.7664         1.4764         2.4900       0.349500
       7883.00        95.5777         1.4383         2.4961       0.358300
       7883.50        95.5775         1.4222         2.5003       0.342900
       7884.00        96.9589         1.5768         2.5090       0.285700
       7884.50        88.0151         2.2026         2.5430       0.215600
       7885.00        67.6373         3.4274         2.6140       0.161900
       7885.50        55.3102         4.9192         2.6858       0.148600
       7886.00        52.9498         5.5196         2.6853       0.188500
       7886.50        65.2095         4.4010         2.6179       0.247300
       7887.00        74.9509         3.0454         2.5436       0.272300
       7887.50        76.0159         2.7963         2.4955       0.264500
       7888.00        67.3437         2.8017         2.4618       0.251600
       7888.50        56.4622         2.7606         2.4199       0.249900
       7889.00        56.6473         2.6371         2.3914       0.257700
       7889.50        66.0756         2.5288         2.4026       0.263000
       7890.00        76.6452         2.4054         2.4381       0.261500
       7890.50        81.2614         2.3116         2.4685       0.264400
       7891.00        83.6504         2.2105         2.4832       0.274000
       7891.50        85.5040         2.0873         2.4869       0.282600
       7892.00        87.9435         2.0184         2.4864       0.289500
       7892.50        82.9534         2.0497         2.4852       0.292000
       7893.00        85.6918         2.0238         2.4814       0.292100
       7893.50        87.4981         1.9385         2.4789       0.294600
       7894.00        89.6205         1.8925         2.4832       0.294100
       7894.50        91.6500         1.8866         2.4871       0.289400
       7895.00        88.1129         1.9515         2.4832       0.285100
       7895.50        87.4215         2.0313         2.4773       0.282700
       7896.00        87.0796         2.0665         2.4784       0.285800
       7896.50        87.8808         2.0501         2.4840       0.298200
       7897.00        84.5068         2.0159         2.4872       0.310200
       7897.50        86.3734         2.0068         2.4891       0.307600
       7898.00        84.3107         1.9748         2.4945       0.300400
       7898.50        86.5815         1.9315         2.4981       0.305300
       7899.00        85.1139         1.8644         2.4983       0.314700
