~Version Information Block
VERS .                  2.0:  CWLS LOG ASCII STANDARD - VERSION 2.0
WRAP .                   NO:  One line per depth step
~Well Information Block
#MNEM.UNIT        Data Type   Information
#---------- ----------------  -----------
STRT .FT            6091.50:  START DEPTH
STOP .FT           14295.50:  STOP DEPTH
STEP .FT               0.50:  STEP
NULL .              -999.25:  NULL VALUE
COMP .                     :  COMPANY
WELL .               STA-35:  WELL
FLD  .                     :  FIELD
LOC  .                     :  LOCATION
CTRY .                     :  COUNTRY
STAT .                     :  STATE
CNTY .                     :  COUNTY
SRVC .                     :  SERVICE COMPANY
DATE .                     :  DATE
API  .                     :  API NUMBER
UWI  .                     :  UNIQUE WELL ID
~Curve Information Block
#MNEM.UNIT         API CODE   Curve Description
#---------- ----------------  -----------------
DEPTH.FT                   :  Depth
GR   .GAPI                 :  Gamma Ray
RT   .OHMM                 :  True Resistivity
RHOB .G/C3                 :  Bulk Density
NPHI .V/V                  :  Neutron Porosity
~Parameter Information Block
#MNEM.UNIT            Value   Description
#---------- ----------------  -----------
PROJECT.            SANTAN_FE:  
~Other Information Block
# 
~A       DEPTH             GR             RT           RHOB           NPHI 
# ...
       8231.50        61.5742         1.3754         2.2990       0.355500
       8232.00        64.4539         1.3643         2.3028       0.352600
       8232.50        66.5884         1.3572         2.3058       0.352400
       8233.00        72.8727         1.3148         2.3079       0.350000
       8233.50        75.9606         1.2605         2.3121       0.348700
       8234.00        78.7371         1.2131         2.3175       0.353600
       8234.50        76.6116         1.1771         2.3194       0.362000
       8235.00        77.4506         1.1842         2.3180       0.372100
       8235.50        79.9605         1.1837         2.3189       0.381700
       8236.00        77.0870         1.1397         2.3223       0.390000
       8236.50        77.5723         1.1094         2.3251       0.395300
       8237.00        78.9321         1.0950         2.3243       0.395600
       8237.50        79.2983         1.0890         2.3187       0.393500
       8238.00        81.2962         1.0691         2.3159       0.388900
       8238.50        81.1788         1.0706         2.3191       0.380500
       8239.00        77.6284         1.0891         2.3221       0.368900
       8239.50        75.6089         1.1332         2.3207       0.355200
       8240.00        71.7308         1.1812         2.3169       0.344000
       8240.50        72.8206         1.2025         2.3158       0.334900
       8241.00        73.2653         1.2081         2.3176       0.333100
       8241.50        72.3260         1.2319         2.3169       0.339300
       8242.00        67.2119         1.2715         2.3155       0.347500
       8242.50        69.3287         1.2948         2.3176       0.354500
       8243.00        69.6075         1.3050         2.3193       0.357900
       8243.50        70.8031         1.3220         2.3171       0.355600
       8244.00        69.6924         1.3488         2.3143       0.344200
       8244.50        69.1770         1.3836         2.3145       0.327600
       8245.00        67.9641         1.4202         2.3166       0.321900
       8245.50        67.1632         1.4419         2.3190       0.317400
       8246.00        66.7748         1.4460         2.3200       0.310600
       8246.50        65.5686         1.4464         2.3212       0.312600
       8247.00        66.2947         1.4573         2.3264       0.320800
       8247.50        64.3896         1.4832         2.3289       0.325600
       8248.00        64.6009         1.5108         2.3264       0.322300
       8248.50        64.8951         1.5166         2.3219       0.321000
       8249.00        67.3008         1.4957         2.3182       0.323000
       8249.50        64.3173         1.4702         2.3162       0.326400
       8250.00        68.3265         1.4156         2.3184       0.333900
       8250.50        67.6558         1.3860         2.3222       0.346800
       8251.00        73.4698         1.2944         2.3262       0.356200
       8251.50        78.5976         1.2185         2.3318       0.369300
       8252.00        79.9005         1.1605         2.3342       0.377700
       8252.50        82.6457         1.1250         2.3299       0.374800
       8253.00        81.1014         1.1365         2.3256       0.371900
       8253.50        79.4671         1.1843         2.3230       0.370800
       8254.00        77.8021         1.2285         2.3226       0.366600
       8254.50        75.2833         1.2482         2.3260       0.360500
       8255.00        75.2181         1.2714         2.3291       0.355300
       8255.50        74.1816         1.3145         2.3313       0.348200
       8256.00        70.0003         1.3365         2.3343       0.341100
       8256.50        71.4476         1.3470         2.3363       0.339600
       8257.00        74.3096         1.3440         2.3354       0.342000
       8257.50        70.6097         1.3394         2.3355       0.337600
       8258.00        73.5486         1.3477         2.3376       0.330900
       8258.50        71.1480         1.3552         2.3401       0.341000
       8259.00        76.1239         1.3536         2.3405       0.355700
       8259.50        76.4553         1.3421         2.3361       0.357300
       8260.00        76.1643         1.3311         2.3348       0.354700
       8260.50        72.8036         1.3338         2.3373       0.349200
       8261.00        73.5932         1.3398         2.3381       0.340400
       8261.50        72.7713         1.3558         2.3378       0.340700
       8262.00        70.9771         1.3768         2.3390       0.349400
       8262.50        67.5261         1.3872         2.3355       0.361600
       8263.00        70.0428         1.3899         2.3201       0.370600
       8263.50        68.7659         1.4000         2.2992       0.358800
       8264.00        69.5139         1.4660         2.2920       0.333200
       8264.50        66.5676         1.5228         2.2995       0.317600
       8265.00        68.4553         1.5432         2.3113       0.309500
       8265.50        66.7284         1.5332         2.3244       0.307700
       8266.00        65.2374         1.5407         2.3325       0.311400
       8266.50        62.3590         1.5445         2.3270       0.316500
       8267.00        64.1413         1.5513         2.3137       0.318900
       8267.50        63.1609         1.5751         2.3085       0.319900
       8268.00        61.7547         1.6034         2.3124       0.318700
       8268.50        62.3390         1.6225         2.3193       0.308400
       8269.00        61.4346         1.6337         2.3257       0.300100
       8269.50        60.7123         1.6521         2.3235       0.307900
       8270.00        59.4921         1.6778         2.3151       0.307700
       8270.50        58.8881         1.6744         2.3296       0.281900
       8271.00        51.9329         1.7303         2.3644       0.260200
       8271.50        55.5604         1.7597         2.3895       0.271400
       8272.00        58.9708         1.6626         2.3843       0.296000
       8272.50        57.5857         1.6291         2.3471       0.309600
       8273.00        61.5143         1.6369         2.3161       0.313200
       8273.50        57.6865         1.6327         2.3001       0.312900
       8274.00        58.3461         1.6296         2.2871       0.304800
       8274.50        57.9199         1.6257         2.2807       0.297900
       8275.00        56.4892         1.6312         2.2843       0.301700
       8275.50        56.5206         1.6427         2.2925       0.306900
       8276.00        55.5683         1.6548         2.2947       0.305800
       8276.50        58.5263         1.6607         2.2899       0.302400
       8277.00        58.4180         1.6565         2.2814       0.304400
       8277.50        59.0425         1.6422         2.2773       0.306400
       8278.00        57.0015         1.6243         2.2823       0.294600
       8278.50        58.3328         1.6061         2.2882       0.283800
       8279.00        57.8784         1.5875         2.2890       0.288100
       8279.50        57.6789         1.5699         2.2853       0.300800
       8280.00        58.2975         1.5543         2.2842       0.315900
       8280.50        55.9968         1.5454         2.2879       0.331100
       8281.00        59.3377         1.5365         2.2867       0.333300
       8281.50        58.4290         1.5305         2.2815       0.319700
       8282.00        59.1981         1.5252         2.2846       0.305700
       8282.50        60.7831         1.5292         2.3008       0.303400
       8283.00        60.8848         1.5421         2.3180       0.315800
       8283.50        68.6309         1.5331         2.3245       0.326800
       8284.00        73.3777         1.4762         2.3315       0.327000
       8284.50        73.6066         1.3983         2.3488       0.333300
