~Version Information Block
VERS .                  2.0:  CWLS LOG ASCII STANDARD - VERSION 2.0
WRAP .                   NO:  One line per depth step
~Well Information Block
#MNEM.UNIT        Data Type   Information
#---------- ----------------  -----------
STRT .FT            6415.50:  START DEPTH
STOP .FT           16132.50:  STOP DEPTH
STEP .FT               0.50:  STEP
NULL .              -999.25:  NULL VALUE
COMP .                     :  COMPANY
WELL .               STA-33:  WELL
FLD  .                     :  FIELD
LOC  .                     :  LOCATION
CTRY .                     :  COUNTRY
STAT .                     :  STATE
CNTY .                     :  COUNTY
SRVC .                     :  SERVICE COMPANY
DATE .                     :  DATE
API  .                     :  API NUMBER
UWI  .                     :  UNIQUE WELL ID
~Curve Information Block
#MNEM.UNIT         API CODE   Curve Description
#---------- ----------------  -----------------
DEPTH.FT                   :  Depth
GR   .GAPI                 :  Gamma Ray
RT   .OHMM                 :  True Resistivity
RHOB .G/C3                 :  Bulk Density
NPHI .V/V                  :  Neutron Porosity
~Parameter Information Block
#MNEM.UNIT            Value   Description
#---------- ----------------  -----------
PROJECT.            SANTAN_FE:  
~Other Information Block
# 
~A       DEPTH             GR             RT           RHOB           NPHI 
# ...
       8983.50        78.4787         1.1364         2.3275       0.374600
       8984.00        81.0036         1.1174         2.3391       0.347900
       8984.50        81.2850         1.1269         2.3441       0.335000
       8985.00        80.8962         1.1221         2.3433       0.338100
       8985.50        81.0294         1.1162         2.3444       0.343300
       8986.00        80.8508         1.1107         2.3430       0.345500
       8986.50        79.7643         1.0984         2.3332       0.350700
       8987.00        76.6502         1.0791         2.3215       0.356200
       8987.50        79.7600         1.0932         2.3177       0.359800
       8988.00        79.5006         1.1357         2.3188       0.367600
       8988.50        87.6872         1.1414         2.3164       0.376500
       8989.00        83.7572         1.1481         2.3117       0.375900
       8989.50        81.2713         1.1527         2.3121       0.370200
       8990.00        80.9164         1.1306         2.3157       0.368600
       8990.50        83.3036         1.1839         2.3176       0.365300
       8991.00        83.1985         1.1895         2.3245       0.351700
       8991.50        84.6345         1.1628         2.3369       0.339100
       8992.00        80.5578         1.1557         2.3473       0.330800
       8992.50        75.9419         1.1847         2.3535       0.325600
       8993.00        71.9861         1.2612         2.3531       0.326300
       8993.50        68.6504         1.3197         2.3401       0.332300
       8994.00        72.2055         1.3054         2.3180       0.348800
       8994.50        79.9671         1.0874         2.2994       0.380200
       8995.00        84.5225         1.0551         2.2880       0.403000
       8995.50        86.3690         1.1373         2.2733       0.397100
       8996.00        82.9636         1.1719         2.2487       0.375800
       8996.50        75.5635         1.2696         2.2276       0.351600
       8997.00        72.0877         1.3795         2.2274       0.324500
       8997.50        71.2744         1.4709         2.2428       0.303900
       8998.00        70.8262         1.4530         2.2600       0.299600
       8998.50        75.7397         1.3747         2.2759       0.314000
       8999.00        76.6335         1.2710         2.2918       0.345900
       8999.50        77.6452         1.1859         2.3073       0.369900
       9000.00        83.7457         1.1314         2.3190       0.370900
       9000.50        85.8470         1.1103         2.3272       0.366400
       9001.00        87.2381         1.1074         2.3341       0.364300
       9001.50        89.1880         1.1069         2.3390       0.355300
       9002.00        88.0129         1.1632         2.3419       0.341000
       9002.50        82.4282         1.2601         2.3457       0.326400
       9003.00        78.7954         1.3770         2.3507       0.314200
       9003.50        78.7417         1.3980         2.3552       0.310300
       9004.00        77.8892         1.4191         2.3618       0.312300
       9004.50        78.2005         1.4333         2.3687       0.312100
       9005.00        78.9212         1.4398         2.3676       0.308600
       9005.50        80.0141         1.4391         2.3604       0.305900
       9006.00        77.7055         1.4246         2.3548       0.304300
       9006.50        75.4555         1.4032         2.3533       0.302600
       9007.00        78.1641         1.3799         2.3554       0.304100
       9007.50        77.5283         1.3420         2.3539       0.307300
       9008.00        80.9068         1.3127         2.3478       0.313500
       9008.50        78.2394         1.3005         2.3483       0.325000
       9009.00        77.8500         1.2974         2.3507       0.333400
       9009.50        80.3361         1.2806         2.3453       0.340600
       9010.00        80.2196         1.2319         2.3405       0.343000
       9010.50        78.8206         1.1782         2.3472       0.331200
       9011.00        82.6042         1.1587         2.3557       0.316800
       9011.50        81.0423         1.2107         2.3578       0.308400
       9012.00        79.0052         1.2868         2.3571       0.310800
       9012.50        80.9420         1.3170         2.3572       0.330800
       9013.00        81.2360         1.3440         2.3595       0.344900
       9013.50        80.3731         1.3458         2.3668       0.337500
       9014.00        83.8315         1.3356         2.3751       0.329700
       9014.50        81.0065         1.3061         2.3776       0.338200
       9015.00        82.8690         1.2785         2.3802       0.350000
       9015.50        86.3748         1.2697         2.3882       0.352900
       9016.00        84.6857         1.2443         2.3948       0.348000
       9016.50        81.5408         1.2316         2.3922       0.336100
       9017.00        80.1574         1.2679         2.3928       0.329300
       9017.50        79.7219         1.3365         2.4020       0.326700
       9018.00        75.9492         1.4590         2.4056       0.318200
       9018.50        72.7228         1.5037         2.4024       0.317600
       9019.00        75.0008         1.4237         2.4005       0.326600
       9019.50        80.6492         1.3364         2.3982       0.328300
       9020.00        84.2792         1.2659         2.3950       0.322100
       9020.50        87.0962         1.2580         2.3981       0.321900
       9021.00        86.8670         1.2911         2.4041       0.330800
       9021.50        88.9484         1.3277         2.4052       0.341800
       9022.00        84.6444         1.3435         2.4075       0.345900
       9022.50        84.2545         1.3678         2.4172       0.336300
       9023.00        78.6485         1.4470         2.4185       0.313900
       9023.50        77.7547         1.5577         2.4038       0.293100
       9024.00        77.0136         1.6575         2.3839       0.288100
       9024.50        73.4021         1.7127         2.3665       0.300000
       9025.00        74.5337         1.7261         2.3489       0.317700
       9025.50        79.7932         1.7679         2.3260       0.336400
       9026.00        85.4038         1.8250         2.3022       0.346200
       9026.50        91.2616         1.8298         2.2875       0.341100
       9027.00       101.4404         1.7199         2.2802       0.336800
       9027.50       100.4017         1.6633         2.2756       0.343700
       9028.00       100.8568         1.5399         2.2834       0.353300
       9028.50        98.7786         1.3172         2.3105       0.356500
       9029.00       100.7217         1.1646         2.3444       0.348000
       9029.50        97.4746         1.1088         2.3697       0.329500
       9030.00        95.7050         1.1840         2.3824       0.315100
       9030.50        83.1951         1.3332         2.3854       0.306300
       9031.00        73.9835         1.4351         2.3818       0.293300
       9031.50        63.8292         1.4320         2.3752       0.278500
       9032.00        55.5072         1.4712         2.3688       0.262900
       9032.50        52.5323         1.6620         2.3613       0.250500
       9033.00        52.5316         1.6465         2.3460       0.256500
       9033.50        57.8087         1.6120         2.3228       0.276300
       9034.00        58.3965         1.6176         2.3032       0.286300
       9034.50        63.2902         1.5987         2.2981       0.285800
       9035.00        68.4682         1.5911         2.3054       0.290400
       9035.50        72.2613         1.5816         2.3181       0.300400
       9036.00        74.6864         1.5662         2.3286       0.304400
       9036.50        81.1770         1.5239         2.3302       0.305900
