~Version Information Block
VERS .                  2.0:  CWLS LOG ASCII STANDARD - VERSION 2.0
WRAP .                   NO:  One line per depth step
~Well Information Block
#MNEM.UNIT        Data Type   Information
#---------- ----------------  -----------
STRT .FT             750.00:  START DEPTH
STOP .FT            8283.50:  STOP DEPTH
STEP .FT               0.50:  STEP
NULL .              -999.25:  NULL VALUE
COMP .                     :  COMPANY
WELL .               STA-20:  WELL
FLD  .                     :  FIELD
LOC  .                     :  LOCATION
CTRY .                     :  COUNTRY
STAT .                     :  STATE
CNTY .                     :  COUNTY
SRVC .                     :  SERVICE COMPANY
DATE .                     :  DATE
API  .                     :  API NUMBER
UWI  .                     :  UNIQUE WELL ID
~Curve Information Block
#MNEM.UNIT         API CODE   Curve Description
#---------- ----------------  -----------------
DEPTH.FT                   :  DEPTH
GR   .GAPI                 :  Gamma Ray
RT   .OHMM                 :  RESDE
RHOB .G/C3                 :  Bulk Density
NPHI .V/V                  :  Thermal Neutron Porosity (Ratio Method) in Selected Lithology
~Parameter Information Block
#MNEM.UNIT            Value   Description
#---------- ----------------  -----------
PROJECT.            SANTAN_FE:  
~Other Information Block
# 
~A       DEPTH             GR             RT           RHOB           NPHI 
# ...
       6742.00        51.7269         2.7702         2.3410       0.219300
       6742.50        56.4569         2.7863         2.3442       0.234000
       6743.00        64.3602         2.8369         2.3474       0.256600
       6743.50        70.3269         2.9294         2.3651       0.280600
       6744.00        72.0463         2.9720         2.3943       0.296100
       6744.50        68.3082         2.7925         2.4271       0.287300
       6745.00        63.0831         2.5362         2.4466       0.270700
       6745.50        60.7094         2.4642         2.4500       0.257200
       6746.00        59.7337         2.4972         2.4508       0.251100
       6746.50        61.5169         2.4747         2.4659       0.252900
       6747.00        65.2655         2.2482         2.4847       0.262800
       6747.50        70.9733         1.9783         2.4966       0.279300
       6748.00        75.1463         1.7841         2.4997       0.295700
       6748.50        76.2095         1.7797         2.4877       0.291500
       6749.00        74.3405         2.0720         2.4754       0.271600
       6749.50        71.5650         2.3055         2.4707       0.253200
       6750.00        70.0153         2.3495         2.4748       0.250000
       6750.50        69.7700         2.3523         2.4747       0.250000
       6751.00        69.4424         2.3806         2.4671       0.253900
       6751.50        69.0324         2.3977         2.4576       0.263700
       6752.00        70.2523         2.3719         2.4543       0.269300
       6752.50        74.1673         2.2714         2.4639       0.270000
       6753.00        78.6573         2.1549         2.4814       0.270000
       6753.50        80.8623         2.1083         2.4950       0.270000
       6754.00        79.8877         2.1361         2.4889       0.269800
       6754.50        75.9727         2.2284         2.4782       0.260800
       6755.00        70.8355         2.5203         2.4711       0.249900
       6755.50        65.5275         2.7026         2.4700       0.239000
       6756.00        61.8554         2.8424         2.4749       0.231200
       6756.50        58.9126         2.9008         2.4739       0.230000
       6757.00        58.0200         2.8718         2.4643       0.234600
       6757.50        58.2600         2.8068         2.4400       0.239300
       6758.00        58.3400         2.7596         2.4083       0.246100
       6758.50        56.0600         2.6878         2.3680       0.243300
       6759.00        49.6100         2.4579         2.3324       0.240400
       6759.50        43.9000         2.0514         2.2872       0.240000
       6760.00        41.2080         1.9921         2.2734       0.240000
       6760.50        43.4080         2.0409         2.2836       0.240000
       6761.00        46.0200         2.1386         2.3006       0.240000
       6761.50        46.1820         2.1676         2.3052       0.246200
       6762.00        43.4920         2.1456         2.2923       0.249600
       6762.50        39.9040         1.9238         2.2717       0.243800
       6763.00        38.5140         1.8790         2.2612       0.234200
       6763.50        39.3340         1.8932         2.2600       0.230400
       6764.00        40.8840         1.8534         2.2735       0.236200
       6764.50        41.5380         1.8759         2.2871       0.245800
       6765.00        41.2917         1.9188         2.2980       0.255800
       6765.50        40.2247         1.8943         2.2767       0.253100
       6766.00        37.0402         1.7763         2.2554       0.250200
       6766.50        33.3702         1.6720         2.2359       0.250000
       6767.00        30.3490         1.6135         2.2235       0.249800
       6767.50        28.8027         1.6302         2.2203       0.241800
       6768.00        27.5827         1.6680         2.2265       0.241300
       6768.50        26.0263         1.6441         2.2295       0.248500
       6769.00        25.0512         1.5660         2.2181       0.250000
       6769.50        25.2184         1.5070         2.1998       0.250000
       6770.00        26.6057         1.5263         2.1967       0.250000
       6770.50        29.2130         1.5483         2.2096       0.254000
       6771.00        32.0710         1.5757         2.2332       0.259100
       6771.50        34.6026         1.6739         2.2615       0.265200
       6772.00        35.0900         1.7487         2.2729       0.264100
       6772.50        32.1502         1.6334         2.2517       0.260800
       6773.00        29.1266         1.5559         2.2229       0.264700
       6773.50        27.9023         1.5686         2.2272       0.264700
       6774.00        28.7266         1.6231         2.2382       0.260900
       6774.50        28.3123         1.6588         2.2458       0.256000
       6775.00        26.5138         1.6073         2.2313       0.254800
       6775.50        25.7812         1.5188         2.2086       0.258900
       6776.00        27.0154         1.4599         2.2073       0.263200
       6776.50        30.6125         1.5231         2.2166       0.271800
       6777.00        36.3288         1.7464         2.2624       0.278700
       6777.50        46.3709         1.8687         2.3158       0.277500
       6778.00        57.0601         1.8973         2.3828       0.271400
       6778.50        66.6835         1.8863         2.4391       0.270000
       6779.00        68.5400         1.9406         2.4496       0.270000
       6779.50        64.6178         2.0654         2.4291       0.266400
       6780.00        54.4822         2.1537         2.3777       0.251300
       6780.50        45.3542         2.2927         2.3378       0.239700
       6781.00        39.0673         2.3256         2.3128       0.231600
       6781.50        39.9076         2.3275         2.3061       0.232000
       6782.00        43.6668         2.2830         2.3234       0.245200
       6782.50        51.0235         2.1495         2.3575       0.255300
       6783.00        58.8542         1.9329         2.3974       0.268700
       6783.50        67.9213         1.7983         2.4387       0.284400
       6784.00        74.6851         1.7329         2.4696       0.298900
       6784.50        78.5082         1.7057         2.4927       0.308700
       6785.00        78.8207         1.6951         2.4807       0.316900
       6785.50        77.1016         1.7127         2.4638       0.303300
       6786.00        74.0818         1.7775         2.4514       0.286200
       6786.50        69.5047         1.8946         2.4500       0.271300
       6787.00        65.9218         2.0015         2.4580       0.262000
       6787.50        66.2598         1.8854         2.4477       0.281200
       6788.00        71.0859         1.7024         2.4403       0.303500
       6788.50        76.1453         1.5395         2.4795       0.312900
       6789.00        71.5363         1.5421         2.5195       0.299300
       6789.50        61.6480         2.1906         2.5749       0.269900
       6790.00        48.7379         3.3001         2.6537       0.177600
       6790.50        40.1974         4.8505         2.7156       0.124500
       6791.00        34.1682         6.5944         2.7005       0.100500
       6791.50        32.7203         7.2041         2.6226       0.102700
       6792.00        36.5804         5.7206         2.5214       0.096000
       6792.50        43.4426         4.4447         2.4517       0.108000
       6793.00        51.1123         3.7195         2.4250       0.133100
       6793.50        57.5515         3.2592         2.4621       0.180800
       6794.00        63.0121         3.0079         2.4894       0.221600
       6794.50        66.6796         2.8003         2.4987       0.237300
       6795.00        69.2902         2.6411         2.4867       0.248900
