~Version Information Block
VERS .                  2.0:  CWLS LOG ASCII STANDARD - VERSION 2.0
WRAP .                   NO:  One line per depth step
~Well Information Block
#MNEM.UNIT        Data Type   Information
#---------- ----------------  -----------
STRT .FT            4582.50:  START DEPTH
STOP .FT           10844.50:  STOP DEPTH
STEP .FT               0.50:  STEP
NULL .              -999.25:  NULL VALUE
COMP .                     :  COMPANY
WELL .               STA-34:  WELL
FLD  .                     :  FIELD
LOC  .                     :  LOCATION
CTRY .                     :  COUNTRY
STAT .                     :  STATE
CNTY .                     :  COUNTY
SRVC .                     :  SERVICE COMPANY
DATE .                     :  DATE
API  .                     :  API NUMBER
UWI  .                     :  UNIQUE WELL ID
~Curve Information Block
#MNEM.UNIT         API CODE   Curve Description
#---------- ----------------  -----------------
DEPTH.FT                   :  Depth
GR   .GAPI                 :  Gamma Ray
RT   .OHMM                 :  True Resistivity
RHOB .G/C3                 :  Bulk Density
NPHI .V/V                  :  Neutron Porosity
~Parameter Information Block
#MNEM.UNIT            Value   Description
#---------- ----------------  -----------
PROJECT.            SANTAN_FE:  
~Other Information Block
# 
~A       DEPTH             GR             RT           RHOB           NPHI 
# ...
       6241.00        61.4407         0.8095         2.2591       0.357600
       6241.50        60.8880         0.8138         2.2531       0.362200
       6242.00        59.6210         0.8120         2.2511       0.370200
       6242.50        55.2931         0.8306         2.2537       0.380100
       6243.00        58.0036         0.8407         2.2635       0.380400
       6243.50        63.1904         0.8161         2.2749       0.377000
       6244.00        60.7692         0.8042         2.2736       0.371000
       6244.50        66.5264         0.7997         2.2625       0.363600
       6245.00        70.3531         0.7943         2.2597       0.371900
       6245.50        71.6948         0.7828         2.2692       0.388400
       6246.00        71.9064         0.7788         2.2808       0.388600
       6246.50        72.0360         0.7817         2.2872       0.375100
       6247.00        76.5383         0.7807         2.2895       0.367200
       6247.50        74.4953         0.7394         2.2916       0.376400
       6248.00        81.2805         0.7099         2.2925       0.394100
       6248.50        80.3997         0.7099         2.2933       0.403700
       6249.00        76.6532         0.7132         2.3018       0.397000
       6249.50        76.3622         0.7139         2.3116       0.376400
       6250.00        71.7438         0.7383         2.3072       0.352900
       6250.50        65.3719         0.8044         2.2935       0.337200
       6251.00        63.3768         0.8317         2.2874       0.330100
       6251.50        64.2401         0.8376         2.2911       0.332500
       6252.00        66.0813         0.8392         2.2962       0.346700
       6252.50        72.3851         0.8457         2.2991       0.361200
       6253.00        71.7691         0.8428         2.3031       0.359400
       6253.50        71.7640         0.8811         2.3149       0.343100
       6254.00        70.5682         1.0692         2.3323       0.330700
       6254.50        71.3735         1.2167         2.3474       0.327600
       6255.00        70.5501         1.0495         2.3504       0.325100
       6255.50        73.0684         0.9006         2.3354       0.322800
       6256.00        74.0562         0.8770         2.3144       0.322500
       6256.50        74.9979         0.9224         2.3089       0.319300
       6257.00        70.7907         1.0096         2.3205       0.315600
       6257.50        66.1324         1.0299         2.3257       0.321800
       6258.00        66.4079         1.0396         2.3188       0.328000
       6258.50        66.0908         1.1044         2.3182       0.320100
       6259.00        63.6972         1.1278         2.3304       0.312200
       6259.50        63.3819         1.1148         2.3459       0.323000
       6260.00        69.3711         1.1110         2.3611       0.338400
       6260.50        71.3598         1.1131         2.3702       0.335900
       6261.00        70.5984         1.1272         2.3682       0.319400
       6261.50        70.1466         1.1524         2.3677       0.306500
       6262.00        71.0100         1.1496         2.3751       0.317200
       6262.50        75.5481         1.0695         2.3825       0.350300
       6263.00        78.9397         0.9855         2.3872       0.381500
       6263.50        77.5868         0.9371         2.3882       0.393900
       6264.00        81.4806         0.8916         2.3898       0.386700
       6264.50        86.0645         0.8514         2.3982       0.380300
       6265.00        88.6961         0.8414         2.4113       0.389900
       6265.50        87.9139         0.8983         2.4292       0.396800
       6266.00        78.2855         1.0365         2.4473       0.382100
       6266.50        68.4837         1.1375         2.4427       0.349700
       6267.00        71.0453         1.1236         2.4270       0.315300
       6267.50        68.5768         1.3020         2.4293       0.294900
       6268.00        64.5177         1.3631         2.4380       0.297600
       6268.50        70.7371         1.2721         2.4268       0.322200
       6269.00        76.4265         1.2109         2.4054       0.341900
       6269.50        75.0878         1.2536         2.4005       0.326200
       6270.00        73.9204         1.4012         2.4122       0.302300
       6270.50        62.4433         1.5353         2.4194       0.292500
       6271.00        62.6682         1.5558         2.4143       0.286000
       6271.50        65.3998         1.5397         2.4055       0.279900
       6272.00        66.7031         1.5171         2.4020       0.280600
       6272.50        65.9589         1.5010         2.4039       0.283500
       6273.00        60.2719         1.5142         2.4061       0.285600
       6273.50        60.8216         1.5402         2.4062       0.290300
       6274.00        61.6138         1.5454         2.4022       0.290300
       6274.50        64.2740         1.5164         2.3942       0.286000
       6275.00        72.1603         1.4523         2.3875       0.293300
       6275.50        71.3639         1.3702         2.3841       0.313400
       6276.00        72.1289         1.3244         2.3824       0.321800
       6276.50        69.4898         1.3352         2.3788       0.322400
       6277.00        69.7150         1.2874         2.3671       0.335200
       6277.50        73.4431         1.1739         2.3467       0.347500
       6278.00        75.3878         1.0864         2.3345       0.343100
       6278.50        77.4839         1.1023         2.3568       0.328400
       6279.00        73.8497         1.1873         2.3851       0.317900
       6279.50        73.4355         1.2516         2.3935       0.320900
       6280.00        74.3605         1.2520         2.3954       0.332400
       6280.50        76.6020         1.1737         2.3978       0.343200
       6281.00        79.7298         1.0461         2.4026       0.355200
       6281.50        86.3202         0.9052         2.4055       0.375700
       6282.00        90.8006         0.8184         2.4075       0.395400
       6282.50        95.2441         0.7945         2.4080       0.397000
       6283.00        87.2943         0.8064         2.4104       0.387500
       6283.50        83.9673         0.8769         2.4167       0.377800
       6284.00        86.2678         0.9228         2.4212       0.374200
       6284.50        86.4045         0.8779         2.4179       0.382400
       6285.00        87.6923         0.8576         2.4117       0.388200
       6285.50        86.1097         0.8549         2.4081       0.372400
       6286.00        82.7302         0.8510         2.4050       0.352000
       6286.50        82.7601         0.8660         2.4032       0.352900
       6287.00        84.0731         0.8994         2.4060       0.360500
       6287.50        78.0060         0.9141         2.4086       0.355100
       6288.00        80.1760         0.9055         2.4086       0.341400
       6288.50        80.6146         0.8996         2.4097       0.327800
       6289.00        75.6105         0.9322         2.4089       0.315000
       6289.50        73.5434         1.0334         2.4023       0.302100
       6290.00        69.6130         1.1348         2.3940       0.290400
       6290.50        65.7924         1.1954         2.3871       0.284700
       6291.00        60.7236         1.2155         2.3772       0.287600
       6291.50        58.9656         1.1961         2.3669       0.297400
       6292.00        62.6388         1.1910         2.3640       0.299000
       6292.50        59.0663         1.2439         2.3669       0.286900
       6293.00        58.5849         1.3108         2.3686       0.273100
       6293.50        60.3193         1.3545         2.3642       0.268100
       6294.00        62.3197         1.3765         2.3558       0.275100
