~Version Information Block
VERS .                  2.0:  CWLS LOG ASCII STANDARD - VERSION 2.0
WRAP .                   NO:  One line per depth step
~Well Information Block
#MNEM.UNIT        Data Type   Information
#---------- ----------------  -----------
STRT .FT            6114.50:  START DEPTH
STOP .FT           14965.50:  STOP DEPTH
STEP .FT               0.50:  STEP
NULL .              -999.25:  NULL VALUE
COMP .                     :  COMPANY
WELL .               STA-36:  WELL
FLD  .                     :  FIELD
LOC  .                     :  LOCATION
CTRY .                     :  COUNTRY
STAT .                     :  STATE
CNTY .                     :  COUNTY
SRVC .                     :  SERVICE COMPANY
DATE .                     :  DATE
API  .                     :  API NUMBER
UWI  .                     :  UNIQUE WELL ID
~Curve Information Block
#MNEM.UNIT         API CODE   Curve Description
#---------- ----------------  -----------------
DEPTH.FT                   :  Depth
GR   .GAPI                 :  Gamma Ray
RT   .OHMM                 :  True Resistivity
RHOB .G/C3                 :  Bulk Density
NPHI .V/V                  :  Neutron Porosity
~Parameter Information Block
#MNEM.UNIT            Value   Description
#---------- ----------------  -----------
PROJECT.            SANTAN_FE:  
~Other Information Block
# 
~A       DEPTH             GR             RT           RHOB           NPHI 
       6114.50        49.5412         1.1101         1.9590       0.547600
       6115.00        50.9953         1.3191         2.0110       0.544500
       6115.50        53.8032         1.3888         2.0189       0.513500
       6116.00        59.6878         1.6038         2.0452       0.489600
       6116.50        65.1028         1.7819         2.0861       0.504500
       6117.00        68.2726         1.8158         2.1094       0.547300
       6117.50        70.5506         1.8199         2.1233       0.558300
       6118.00        70.0306         1.8398         2.1587       0.521300
       6118.50        71.0840         1.8453         2.2086       0.490800
       6119.00        74.9135         1.8261         2.2383       0.497400
       6119.50        75.7576         1.8404         2.2369       0.520900
       6120.00        72.4945         1.8422         2.2268       0.531900
       6120.50        75.8543         1.8937         2.2260       0.534300
       6121.00        75.9694         1.9179         2.2312       0.535800
       6121.50        77.3789         2.0803         2.2362       0.529500
       6122.00        74.5543         2.0337         2.2487       0.512600
       6122.50        77.9103         1.9247         2.2685       0.499100
       6123.00        77.0491         1.8177         2.2799       0.507100
       6123.50        77.7720         1.7751         2.2853       0.527100
       6124.00        75.5006         1.7430         2.2939       0.519700
       6124.50        76.8060         1.5961         2.2984       0.480300
       6125.00        79.4255         1.3128         2.2963       0.451600
       6125.50        83.0107         1.4350         2.3011       0.444500
       6126.00        82.1807         1.5454         2.3139       0.439700
       6126.50        79.3571         1.5667         2.3236       0.432200
       6127.00        75.7192         1.5773         2.3253       0.423900
       6127.50        65.6932         1.7411         2.3114       0.412300
       6128.00        57.6165         1.8715         2.2800       0.408100
       6128.50        48.3752         1.8914         2.2454       0.410400
       6129.00        42.8444         1.9670         2.2225       0.387600
       6129.50        38.6509         2.1161         2.2161       0.337900
       6130.00        31.1434         2.1102         2.2214       0.314700
       6130.50        31.4733         1.9317         2.2195       0.335500
       6131.00        36.1284         1.8662         2.2016       0.356700
       6131.50        39.3439         2.0548         2.1944       0.351400
       6132.00        42.7139         2.1702         2.2303       0.340400
       6132.50        43.5035         2.1490         2.2734       0.341700
       6133.00        47.3319         2.0765         2.2813       0.352100
       6133.50        52.6691         2.0954         2.2773       0.363300
       6134.00        53.3169         2.0730         2.2859       0.371200
       6134.50        61.3171         2.0420         2.2991       0.374100
       6135.00        62.7283         2.0094         2.3100       0.368900
       6135.50        62.8173         2.0059         2.3182       0.361200
       6136.00        65.4387         1.9889         2.3200       0.362500
       6136.50        62.7434         1.9736         2.3189       0.370500
       6137.00        65.6413         1.9558         2.3227       0.373000
       6137.50        63.7959         1.9351         2.3312       0.368600
       6138.00        63.0225         1.9300         2.3405       0.367400
       6138.50        64.6509         1.8838         2.3451       0.371800
       6139.00        67.2652         1.8832         2.3415       0.373700
       6139.50        66.3903         1.8884         2.3347       0.378600
       6140.00        68.6446         1.8947         2.3305       0.387200
       6140.50        68.1205         1.8819         2.3292       0.389500
       6141.00        68.8069         1.8939         2.3283       0.388600
       6141.50        66.6463         1.8800         2.3287       0.388700
       6142.00        68.7901         1.8822         2.3315       0.390500
       6142.50        69.4987         1.8834         2.3335       0.396300
       6143.00        67.2998         1.8824         2.3324       0.404500
       6143.50        70.3824         1.8890         2.3296       0.403100
       6144.00        70.0114         1.8757         2.3292       0.393900
       6144.50        71.7299         1.8587         2.3307       0.390300
       6145.00        73.4945         1.9038         2.3315       0.396700
       6145.50        74.9110         1.9146         2.3318       0.402800
       6146.00        74.8885         1.8344         2.3314       0.400800
       6146.50        72.3493         1.8355         2.3311       0.398100
       6147.00        76.0927         1.8765         2.3353       0.399200
       6147.50        73.6590         1.9349         2.3379       0.398600
       6148.00        75.2252         1.9155         2.3319       0.396600
       6148.50        73.3652         1.8389         2.3256       0.402000
       6149.00        74.7528         1.8134         2.3293       0.417200
       6149.50        79.6137         1.8778         2.3365       0.431500
       6150.00        81.0873         1.8983         2.3411       0.438500
       6150.50        82.3795         1.8963         2.3422       0.443800
       6151.00        80.5413         1.8746         2.3399       0.446300
       6151.50        83.5377         1.8243         2.3364       0.444800
       6152.00        83.9218         1.9276         2.3355       0.443900
       6152.50        83.7596         1.9355         2.3358       0.444600
       6153.00        83.2179         1.8984         2.3322       0.444800
       6153.50        84.7412         1.8619         2.3289       0.448100
       6154.00        82.2607         1.8685         2.3302       0.445800
       6154.50        83.7708         1.8908         2.3262       0.436900
       6155.00        83.9027         1.7868         2.3199       0.443800
       6155.50        85.7505         1.7023         2.3193       0.467600
       6156.00        87.1765         1.6745         2.3204       0.476000
       6156.50        86.8454         1.7220         2.3222       0.455100
       6157.00        85.3467         1.7252         2.3267       0.435600
       6157.50        88.2475         1.6350         2.3319       0.434900
       6158.00        83.0854         1.6032         2.3325       0.432100
       6158.50        79.8784         1.6644         2.3327       0.417100
       6159.00        76.0958         1.9189         2.3403       0.397900
       6159.50        73.4909         2.0675         2.3507       0.378900
       6160.00        69.2071         2.2041         2.3540       0.361300
       6160.50        62.3422         2.2576         2.3479       0.352000
       6161.00        57.3523         2.2320         2.3361       0.347300
       6161.50        53.5751         2.2016         2.3221       0.346900
       6162.00        50.8987         2.1546         2.3081       0.351000
       6162.50        52.5488         2.1848         2.2963       0.347300
       6163.00        52.8807         2.2004         2.2915       0.339600
       6163.50        54.3893         2.1590         2.2893       0.350000
       6164.00        59.1307         2.1484         2.2749       0.362100
       6164.50        60.3191         2.1366         2.2537       0.353200
       6165.00        63.9145         2.0738         2.2467       0.345500
       6165.50        69.8807         2.0447         2.2525       0.357100
       6166.00        71.3373         2.0152         2.2564       0.374400
       6166.50        67.6594         2.0150         2.2530       0.381300
       6167.00        69.0827         1.9600         2.2471       0.377300
       6167.50        66.3604         1.8898         2.2442       0.372600
