~Version Information Block
VERS .                  2.0:  CWLS LOG ASCII STANDARD - VERSION 2.0
WRAP .                   NO:  One line per depth step
~Well Information Block
#MNEM.UNIT        Data Type   Information
#---------- ----------------  -----------
STRT .FT            6415.50:  START DEPTH
STOP .FT           16132.50:  STOP DEPTH
STEP .FT               0.50:  STEP
NULL .              -999.25:  NULL VALUE
COMP .                     :  COMPANY
WELL .               STA-33:  WELL
FLD  .                     :  FIELD
LOC  .                     :  LOCATION
CTRY .                     :  COUNTRY
STAT .                     :  STATE
CNTY .                     :  COUNTY
SRVC .                     :  SERVICE COMPANY
DATE .                     :  DATE
API  .                     :  API NUMBER
UWI  .                     :  UNIQUE WELL ID
~Curve Information Block
#MNEM.UNIT         API CODE   Curve Description
#---------- ----------------  -----------------
DEPTH.FT                   :  Depth
GR   .GAPI                 :  Gamma Ray
RT   .OHMM                 :  True Resistivity
RHOB .G/C3                 :  Bulk Density
NPHI .V/V                  :  Neutron Porosity
~Parameter Information Block
#MNEM.UNIT            Value   Description
#---------- ----------------  -----------
PROJECT.            SANTAN_FE:  
~Other Information Block
# 
~A       DEPTH             GR             RT           RHOB           NPHI 
# ...
      12835.50        90.9319         2.6399         2.5537       0.194500
      12836.00        86.9827         2.5395         2.5570       0.174100
      12836.50        74.8681         2.7045         2.5588       0.154300
      12837.00        68.2178         2.9835         2.5504       0.145600
      12837.50        68.5386         3.0901         2.5369       0.146500
      12838.00        67.1289         3.1475         2.5276       0.153900
      12838.50        71.0271         3.1145         2.5271       0.160800
      12839.00        74.3981         3.0307         2.5327       0.166600
      12839.50        81.8803         2.9742         2.5416       0.173900
      12840.00        85.5000         2.8775         2.5541       0.185700
      12840.50        87.4095         2.7122         2.5622       0.198400
      12841.00        88.2036         2.6181         2.5617       0.207700
      12841.50        88.6464         2.5036         2.5574       0.214000
      12842.00        91.0869         2.3947         2.5552       0.222600
      12842.50        95.3931         2.3133         2.5547       0.233200
      12843.00        97.5102         2.1308         2.5549       0.239000
      12843.50        96.1484         2.1244         2.5523       0.242500
      12844.00        96.6916         2.1683         2.5503       0.247400
      12844.50        99.1756         2.1191         2.5542       0.247400
      12845.00       101.2153         2.1146         2.5542       0.229300
      12845.50        96.9473         2.2747         2.5476       0.193300
      12846.00        85.2116         2.7758         2.5428       0.158100
      12846.50        68.4211         3.1599         2.5230       0.137800
      12847.00        58.0331         3.4207         2.4725       0.132500
      12847.50        49.0278         3.7340         2.4468       0.130900
      12848.00        47.9151         3.9411         2.4371       0.129600
      12848.50        43.3215         4.1087         2.4154       0.129700
      12849.00        40.2148         4.2408         2.3473       0.127600
      12849.50        37.1045         4.3754         2.3111       0.120500
      12850.00        35.8331         4.6218         2.3668       0.113600
      12850.50        37.8649         4.7327         2.4505       0.112900
      12851.00        39.9748         4.5843         2.5070       0.121400
      12851.50        41.9143         4.1823         2.5077       0.135600
      12852.00        46.3176         3.7226         2.4674       0.150300
      12852.50        48.5142         3.4262         2.4433       0.164200
      12853.00        64.7854         3.1646         2.4625       0.179800
      12853.50        79.6384         2.9066         2.4988       0.192200
      12854.00        91.6649         2.7125         2.5334       0.200200
      12854.50        93.6371         2.6179         2.5603       0.206000
      12855.00        97.5461         2.5150         2.5740       0.207600
      12855.50        91.6412         2.4934         2.5787       0.203000
      12856.00        92.3671         2.5242         2.5812       0.197500
      12856.50        92.9708         2.6655         2.5819       0.195000
      12857.00        90.2156         2.7469         2.5821       0.195300
      12857.50        88.2005         2.9875         2.5793       0.191200
      12858.00        90.7829         3.1857         2.5742       0.167300
      12858.50        77.6684         4.4345         2.5772       0.119800
      12859.00        53.6782         8.8467         2.5972       0.075600
      12859.50        37.3279        11.9977         2.6270       0.054900
      12860.00        27.8580        14.0518         2.6430       0.053000
      12860.50        24.1145        16.1645         2.6345       0.057500
      12861.00        22.4112        17.4812         2.6287       0.064000
      12861.50        20.2864        18.0470         2.6381       0.072500
      12862.00        23.5219        16.8735         2.6389       0.080700
      12862.50        30.8698        14.7109         2.6220       0.084900
      12863.00        40.0362        13.5040         2.5976       0.087400
      12863.50        41.2141        10.0578         2.5702       0.093600
      12864.00        44.8679         7.8505         2.5488       0.107400
      12864.50        50.9448         6.7732         2.5256       0.127300
      12865.00        57.3918         5.3663         2.5016       0.152300
      12865.50        77.0906         4.2817         2.4979       0.176200
      12866.00        89.2549         3.6411         2.5045       0.191000
      12866.50        97.0732         3.1129         2.5072       0.193000
      12867.00        96.5360         2.9778         2.5089       0.188000
      12867.50        90.3618         3.1699         2.5048       0.179800
      12868.00        79.0814         3.2759         2.4978       0.170900
      12868.50        75.8243         3.3211         2.4998       0.169300
      12869.00        76.9574         3.3166         2.5066       0.176800
      12869.50        80.6087         3.1953         2.5150       0.183200
      12870.00        83.3518         2.9857         2.5312       0.176600
      12870.50        78.3838         2.8635         2.5517       0.160800
      12871.00        73.9887         3.0189         2.5649       0.148400
      12871.50        68.2841         3.0845         2.5612       0.143900
      12872.00        66.6255         3.0561         2.5480       0.148000
      12872.50        62.5180         2.9494         2.5361       0.168800
      12873.00        69.6575         2.6701         2.5328       0.193300
      12873.50        80.8138         2.2578         2.5386       0.196800
      12874.00        87.4041         2.1947         2.5462       0.182000
      12874.50        83.7681         2.3490         2.5510       0.167500
      12875.00        75.6374         2.6094         2.5508       0.162600
      12875.50        73.3283         2.6397         2.5501       0.165200
      12876.00        72.5008         2.6481         2.5467       0.173200
      12876.50        79.0273         2.5496         2.5381       0.187100
      12877.00        74.4297         2.5022         2.5356       0.202000
      12877.50        81.8345         2.4391         2.5410       0.202900
      12878.00        83.1844         2.3058         2.5412       0.187100
      12878.50        82.0162         2.6307         2.5386       0.170100
      12879.00        71.6409         2.7160         2.5369       0.160400
      12879.50        68.7321         2.7609         2.5275       0.156600
      12880.00        75.5233         2.8028         2.5211       0.156100
      12880.50        80.5138         2.8864         2.5300       0.156300
      12881.00        81.0325         2.9797         2.5428       0.155800
      12881.50        74.5344         3.0456         2.5452       0.154000
      12882.00        71.4890         3.1410         2.5414       0.150600
      12882.50        67.5676         3.2137         2.5377       0.145900
      12883.00        60.1953         3.2810         2.5277       0.141400
      12883.50        60.1167         3.3546         2.5104       0.138200
      12884.00        59.9708         3.4571         2.5048       0.137800
      12884.50        60.1944         3.4094         2.5233       0.142600
      12885.00        64.9477         3.2333         2.5430       0.150600
      12885.50        69.3319         3.1336         2.5488       0.157000
      12886.00        75.1421         3.0163         2.5510       0.161200
      12886.50        85.5309         2.8750         2.5569       0.165700
      12887.00        85.2659         2.7490         2.5651       0.171900
      12887.50        81.0971         2.6726         2.5721       0.173800
      12888.00        67.7713         2.7000         2.5709       0.164300
      12888.50        46.9122         2.5317         2.5347       0.152700
