~Version Information Block
VERS .                  2.0:  CWLS LOG ASCII STANDARD - VERSION 2.0
WRAP .                   NO:  One line per depth step
~Well Information Block
#MNEM.UNIT        Data Type   Information
#---------- ----------------  -----------
STRT .FT            4880.50:  START DEPTH
STOP .FT           10428.00:  STOP DEPTH
STEP .FT               0.50:  STEP
NULL .              -999.25:  NULL VALUE
COMP .                     :  COMPANY
WELL .                STA-3:  WELL
FLD  .                     :  FIELD
LOC  .                     :  LOCATION
CTRY .                     :  COUNTRY
STAT .                     :  STATE
CNTY .                     :  COUNTY
SRVC .                     :  SERVICE COMPANY
DATE .                     :  DATE
API  .                     :  API NUMBER
UWI  .                     :  UNIQUE WELL ID
~Curve Information Block
#MNEM.UNIT         API CODE   Curve Description
#---------- ----------------  -----------------
DEPTH.FT                   :  DEPTH
GR   .GAPI                 :  Gamma Ray
RT   .OHMM                 :  Deep resistivity
RHOB .G/C3                 :  Bulk Density
NPHI .V/V                  :  Neutron porosity
DT   .US/F                 :  Sonic
~Parameter Information Block
#MNEM.UNIT            Value   Description
#---------- ----------------  -----------
PROJECT.            SANTAN_FE:  
~Other Information Block
# 
~A       DEPTH             GR             RT           RHOB           NPHI             DT 
# ...
      10354.00       161.4334         3.9192         2.5076       0.244700        78.2500
      10354.50       161.4334         4.2863         2.5245       0.244700        76.5500
      10355.00       161.4334         6.5035         2.5256       0.245900        75.9000
      10355.50       161.4334         4.8639         2.5290       0.244700        74.0500
      10356.00       161.4334         4.7199         2.5067       0.244700        73.7500
      10356.50       161.4334         5.6018         2.5243       0.244700        74.9000
      10357.00       161.4334         4.6023         2.5372       0.244700        75.3000
      10357.50       161.4334         3.9844         2.5285       0.244700        76.4000
      10358.00       161.4334         4.3795         2.5279       0.244700        76.5000
      10358.50       161.4334         5.2864         2.5301       0.244700        75.6000
      10359.00       161.4334         4.6360         2.5440       0.244700        74.5500
      10359.50       161.4334         4.5350         2.5406       0.244700        76.7000
      10360.00       161.4334         4.2704         2.5509       0.244700        77.6000
      10360.50       161.4334         3.3691         2.5438       0.245600        80.2000
      10361.00       161.4334         2.6967         2.5403       0.244700        80.8500
      10361.50       161.4334         2.8346         2.5139       0.244700        81.1500
      10362.00       161.4334         3.1684         2.5125       0.244700        81.3000
      10362.50       161.4334         2.7840         2.5211       0.244700        81.2500
      10363.00       161.4334         2.6608         2.5214       0.244700        81.2500
      10363.50       161.4334         2.5977         2.5290       0.244700        81.0500
      10364.00       161.4334         2.7481         2.5329       0.245500        81.1000
      10364.50       161.4334         3.8214         2.5290       0.244700        81.1000
      10365.00       161.4334         3.9735         2.5201       0.244700        81.3000
      10365.50       161.4334         4.4866         2.5151       0.244700        81.3000
      10366.00       161.4334         4.5203         2.5194       0.244700      -999.2500
      10366.50       161.4334         4.4222         2.5239       0.244700      -999.2500
      10367.00       161.4334         4.2496         2.5264       0.244700      -999.2500
      10367.50       161.4334         4.5487      -999.2500       0.244700      -999.2500
      10368.00       161.4334         4.2188      -999.2500       0.244700      -999.2500
      10368.50       161.4334         5.0944      -999.2500       0.244700      -999.2500
      10369.00       161.4334         5.2372      -999.2500       0.244700      -999.2500
      10369.50       161.4334         5.5350      -999.2500       0.244700      -999.2500
      10370.00       161.4334         4.8397      -999.2500       0.244700      -999.2500
      10370.50       161.4334         4.3247      -999.2500       0.244700      -999.2500
      10371.00       161.4334         3.9821      -999.2500       0.244700      -999.2500
      10371.50       161.4334         4.0526      -999.2500       0.244700      -999.2500
      10372.00       161.4334         4.0245      -999.2500       0.244700      -999.2500
      10372.50       161.4334         4.1083      -999.2500       0.244700      -999.2500
      10373.00       161.4334         4.1350      -999.2500       0.244700      -999.2500
      10373.50       161.4334         4.4224      -999.2500       0.244700      -999.2500
      10374.00       161.4334         5.2236      -999.2500       0.244700      -999.2500
      10374.50       161.4334         4.7223      -999.2500       0.244700      -999.2500
      10375.00       161.4334         4.2161      -999.2500       0.244700      -999.2500
      10375.50       161.4334         4.0690      -999.2500       0.244700      -999.2500
      10376.00       161.4334         4.5127      -999.2500       0.244700      -999.2500
      10376.50       161.4334         4.2578      -999.2500       0.244700      -999.2500
      10377.00       161.4334         4.2817      -999.2500       0.244700      -999.2500
      10377.50       161.4334         4.3388      -999.2500       0.244700      -999.2500
      10378.00       161.4334         4.1072      -999.2500       0.244700      -999.2500
      10378.50       161.4334         4.2400      -999.2500       0.244700      -999.2500
      10379.00       161.4334         4.4780      -999.2500       0.244700      -999.2500
      10379.50       161.4334         3.9493      -999.2500       0.244700      -999.2500
      10380.00       161.4334         3.6371      -999.2500       0.244700      -999.2500
      10380.50       161.4334         3.8146      -999.2500       0.244700      -999.2500
      10381.00       161.4334         4.4800      -999.2500       0.244700      -999.2500
      10381.50       161.4334         4.2773      -999.2500       0.244700      -999.2500
      10382.00       161.4334         4.6856      -999.2500       0.244700      -999.2500
      10382.50       161.4334         4.5475      -999.2500       0.244700      -999.2500
      10383.00       161.4334         4.0866      -999.2500       0.244700      -999.2500
      10383.50       161.4334         3.9850      -999.2500       0.244700      -999.2500
      10384.00       161.4334         3.8991      -999.2500       0.244700      -999.2500
      10384.50       161.4334         4.1034      -999.2500       0.244700      -999.2500
      10385.00       161.4334         3.8905      -999.2500       0.244700      -999.2500
      10385.50       161.4334         3.8136      -999.2500       0.244700      -999.2500
      10386.00       161.4334         3.8826      -999.2500       0.244700      -999.2500
      10386.50       161.4334         4.2165      -999.2500       0.244700      -999.2500
      10387.00       161.4334         5.9402      -999.2500       0.244700      -999.2500
      10387.50       161.4334         3.6356      -999.2500       0.244700      -999.2500
      10388.00       161.4334         3.2663      -999.2500       0.244700      -999.2500
      10388.50       161.4334         2.6528      -999.2500       0.244700      -999.2500
      10389.00       161.4334      -999.2500      -999.2500       0.244700      -999.2500
      10389.50       161.4334      -999.2500      -999.2500       0.244700      -999.2500
      10390.00       161.4334      -999.2500      -999.2500       0.244700      -999.2500
      10390.50       161.4334      -999.2500      -999.2500       0.244700      -999.2500
      10391.00       161.4334      -999.2500      -999.2500       0.244700      -999.2500
      10391.50       161.4334      -999.2500      -999.2500       0.244700      -999.2500
      10392.00       161.4334      -999.2500      -999.2500       0.244700      -999.2500
      10392.50       161.4334      -999.2500      -999.2500       0.244700      -999.2500
      10393.00       161.4334      -999.2500      -999.2500       0.244700      -999.2500
      10393.50       161.4334      -999.2500      -999.2500       0.244700      -999.2500
      10394.00       161.4334      -999.2500      -999.2500       0.244700      -999.2500
      10394.50       161.4334      -999.2500      -999.2500       0.244700      -999.2500
      10395.00       161.4334      -999.2500      -999.2500       0.244700      -999.2500
      10395.50       161.4334      -999.2500      -999.2500       0.244700      -999.2500
      10396.00       161.4334      -999.2500      -999.2500       0.244700      -999.2500
      10396.50       161.4334      -999.2500      -999.2500       0.244700      -999.2500
      10397.00       161.4334      -999.2500      -999.2500       0.244700      -999.2500
      10397.50       161.4334      -999.2500      -999.2500       0.244700      -999.2500
      10398.00       161.4334      -999.2500      -999.2500       0.244700      -999.2500
