~Version Information Block
VERS .                  2.0:  CWLS LOG ASCII STANDARD - VERSION 2.0
WRAP .                   NO:  One line per depth step
~Well Information Block
#MNEM.UNIT        Data Type   Information
#---------- ----------------  -----------
STRT .FT            3811.50:  START DEPTH
STOP .FT            9515.50:  STOP DEPTH
STEP .FT               0.50:  STEP
NULL .              -999.25:  NULL VALUE
COMP .                     :  COMPANY
WELL .                STA-6:  WELL
FLD  .                     :  FIELD
LOC  .                     :  LOCATION
CTRY .                     :  COUNTRY
STAT .                     :  STATE
CNTY .                     :  COUNTY
SRVC .                     :  SERVICE COMPANY
DATE .                     :  DATE
API  .                     :  API NUMBER
UWI  .                     :  UNIQUE WELL ID
~Curve Information Block
#MNEM.UNIT         API CODE   Curve Description
#---------- ----------------  -----------------
DEPTH.FT                   :  DEPTH
GR   .GAPI                 :  Gamma Ray
RT   .OHMM                 :  Deep resistivity
RHOB .G/C3                 :  Bulk Density
NPHI .V/V                  :  Neutron porosity
DT   .US/F                 :  Sonic
~Parameter Information Block
#MNEM.UNIT            Value   Description
#---------- ----------------  -----------
PROJECT.            SANTAN_FE:  
~Other Information Block
# 
~A       DEPTH             GR             RT           RHOB           NPHI             DT 
# ...
       9418.50        63.8800         4.0400         2.4200       0.190000        81.5500
       9419.00        64.0600         3.9700         2.3900       0.190000        78.8500
       9419.50        62.2100         3.7000         2.3900       0.180000        79.7000
       9420.00        62.9000         4.0500         2.3600       0.190000        80.7000
       9420.50        63.0600         3.7800         2.3700       0.190000        81.4000
       9421.00        66.2700         3.8000         2.3800       0.190000        83.1500
       9421.50        66.8400         3.4100         2.3600       0.180000        86.5000
       9422.00        66.3000         3.7800         2.3500       0.180000        85.6000
       9422.50        65.5000         3.4500         2.3500       0.180000        84.2000
       9423.00        64.8200         3.2800         2.4200       0.180000        77.5000
       9423.50        65.9100         4.2100         2.5000       0.180000        73.4000
       9424.00        65.6900         8.2000         2.5000       0.180000        72.9000
       9424.50        64.6200         7.1900         2.4100       0.180000        75.4000
       9425.00        65.3400         3.5100         2.3600       0.170000        78.5500
       9425.50        65.0700         2.9600         2.4000       0.170000        76.1000
       9426.00        66.9800         4.9600         2.4900       0.170000        74.5500
       9426.50        70.1500         6.4200         2.5300       0.180000        76.3500
       9427.00        77.8700         3.7000         2.5400       0.180000        79.8500
       9427.50        75.8700         2.9500         2.5400       0.180000        83.5000
       9428.00        70.0800         2.6900         2.5300       0.180000        86.3500
       9428.50        60.4600         2.6900         2.5100       0.180000        88.0000
       9429.00        60.4600         2.3900         2.5200       0.180000        90.0500
       9429.50      -999.2500         2.3400         2.5200       0.180000        90.5000
       9430.00      -999.2500         2.2000         2.5200       0.180000        89.9500
       9430.50      -999.2500         2.1900         2.5200       0.180000        89.1000
       9431.00      -999.2500         2.3300         2.5300       0.180000        86.7000
       9431.50      -999.2500         2.5800         2.5300       0.180000        86.4000
       9432.00      -999.2500         2.6100         2.5200       0.180000        86.2500
       9432.50      -999.2500         2.6000         2.5200       0.170000        85.9000
       9433.00      -999.2500         2.6700         2.5200       0.180000        86.0000
       9433.50      -999.2500         2.8900         2.5200       0.170000        85.5500
       9434.00      -999.2500         2.3700         2.5100       0.180000        83.9000
       9434.50      -999.2500         2.2800         2.5100       0.170000        82.9000
       9435.00      -999.2500         2.9600         2.5300       0.180000        80.9000
       9435.50      -999.2500         4.9700         2.5200       0.180000        79.4000
       9436.00      -999.2500         4.7100         2.5300       0.190000        79.3000
       9436.50      -999.2500         3.3000         2.5200       0.200000        80.1500
       9437.00      -999.2500         3.2800         2.5200       0.200000        80.6500
       9437.50      -999.2500         3.3700         2.5200       0.200000        81.5000
       9438.00      -999.2500         3.3300         2.5200       0.200000        82.1500
       9438.50      -999.2500         3.3400         2.5000       0.200000        83.3500
       9439.00      -999.2500         3.2500         2.5000       0.200000        84.0500
       9439.50      -999.2500         2.9300         2.5100       0.200000        86.0500
       9440.00      -999.2500         3.0100         2.5100       0.200000        85.5000
       9440.50      -999.2500         3.1800         2.5100       0.200000        86.0000
       9441.00      -999.2500         2.9000         2.5100       0.210000        86.6500
       9441.50      -999.2500         2.7400         2.5100       0.210000        86.5000
       9442.00      -999.2500         2.6900         2.5000       0.210000        87.6000
       9442.50      -999.2500         2.9700         2.5100       0.210000        85.8000
       9443.00      -999.2500         3.0900         2.5000       0.210000        83.0500
       9443.50      -999.2500         3.2700         2.5100       0.210000        81.0500
       9444.00      -999.2500         3.5600         2.5100       0.210000        80.9000
       9444.50      -999.2500         3.3300         2.5000       0.210000        81.8000
       9445.00      -999.2500         2.9300         2.5000       0.210000        82.6500
       9445.50      -999.2500         3.1900         2.5000       0.210000        83.1000
       9446.00      -999.2500         3.2400         2.5000       0.210000        82.9000
       9446.50      -999.2500         3.1700         2.5000       0.210000        82.2000
       9447.00      -999.2500         3.1900         2.5000       0.210000        82.6000
       9447.50      -999.2500         3.5400         2.4900       0.210000        82.5000
       9448.00      -999.2500         3.4000         2.5000       0.210000        83.2500
       9448.50      -999.2500         2.9000         2.5000       0.210000        85.5000
       9449.00      -999.2500         3.0200         2.5000       0.210000        87.0500
       9449.50      -999.2500         2.5200         2.5000       0.210000        87.6000
       9450.00      -999.2500         2.8000         2.4900       0.210000        88.4500
       9450.50      -999.2500         2.5400         2.4800       0.210000        88.2000
       9451.00      -999.2500         2.4900         2.5000       0.210000        86.8000
       9451.50      -999.2500         2.9900         2.5000       0.210000        86.0000
       9452.00      -999.2500         2.9700         2.5100       0.210000        84.9500
       9452.50      -999.2500         3.1500         2.5100       0.210000        84.8000
       9453.00      -999.2500         2.8900         2.5100       0.210000        85.3500
       9453.50      -999.2500         2.1600         2.5200       0.210000        86.4000
       9454.00      -999.2500         1.6800         2.5400       0.210000        88.3500
       9454.50      -999.2500         1.3800         2.5500       0.210000        88.6000
       9455.00      -999.2500         1.4200         2.5700       0.210000        88.8000
       9455.50      -999.2500         1.8300         2.5600       0.210000        87.6500
       9456.00      -999.2500         2.2900         2.5500       0.210000        85.6000
       9456.50      -999.2500         2.3300         2.5500       0.210000        85.0500
       9457.00      -999.2500         2.2300      -999.2500       0.210000        84.7000
       9457.50      -999.2500         2.2800      -999.2500       0.210000        84.3500
       9458.00      -999.2500         2.6500      -999.2500       0.210000        84.0500
       9458.50      -999.2500         3.3700      -999.2500       0.210000        83.2500
       9459.00      -999.2500         3.5300      -999.2500       0.210000        82.4000
       9459.50      -999.2500         3.5600      -999.2500       0.210000        81.4000
       9460.00      -999.2500         3.5700      -999.2500       0.210000        80.5500
       9460.50      -999.2500         3.5500      -999.2500       0.210000        80.7000
       9461.00      -999.2500         3.5300      -999.2500       0.210000      -999.2500
       9461.50      -999.2500         3.5300      -999.2500       0.210000      -999.2500
       9462.00      -999.2500         3.4500      -999.2500       0.210000      -999.2500
       9462.50      -999.2500         3.4400      -999.2500       0.210000      -999.2500
