~Version Information Block
VERS .                  2.0:  CWLS LOG ASCII STANDARD - VERSION 2.0
WRAP .                   NO:  One line per depth step
~Well Information Block
#MNEM.UNIT        Data Type   Information
#---------- ----------------  -----------
STRT .FT            5224.50:  START DEPTH
STOP .FT           13237.50:  STOP DEPTH
STEP .FT               0.50:  STEP
NULL .              -999.25:  NULL VALUE
COMP .                     :  COMPANY
WELL .               STA-32:  WELL
FLD  .                     :  FIELD
LOC  .                     :  LOCATION
CTRY .                     :  COUNTRY
STAT .                     :  STATE
CNTY .                     :  COUNTY
SRVC .                     :  SERVICE COMPANY
DATE .                     :  DATE
API  .                     :  API NUMBER
UWI  .                     :  UNIQUE WELL ID
~Curve Information Block
#MNEM.UNIT         API CODE   Curve Description
#---------- ----------------  -----------------
DEPTH.FT                   :  Depth
GR   .GAPI                 :  Gamma Ray
RT   .OHMM                 :  True Resistivity
RHOB .G/C3                 :  Bulk Density
NPHI .V/V                  :  Neutron Porosity
~Parameter Information Block
#MNEM.UNIT            Value   Description
#---------- ----------------  -----------
PROJECT.            SANTAN_FE:  
~Other Information Block
# 
~A       DEPTH             GR             RT           RHOB           NPHI 
# ...
       7311.00        63.9171         1.2692         2.3973       0.310508
       7311.50        68.6294         1.1664         2.3938       0.306076
       7312.00        71.7787         1.1018         2.3868       0.308964
       7312.50        73.0012         1.1138         2.3837       0.317856
       7313.00        74.2917         1.1176         2.3887       0.325007
       7313.50        75.5091         1.0789         2.3956       0.323430
       7314.00        77.8601         1.0755         2.3971       0.313791
       7314.50        75.6238         1.0799         2.3959       0.307155
       7315.00        75.1430         1.1040         2.3937       0.312023
       7315.50        74.0786         1.0816         2.3899       0.320291
       7316.00        73.5733         1.0689         2.3897       0.323978
       7316.50        74.3534         1.1046         2.3951       0.326038
       7317.00        73.2238         1.1459         2.3988       0.325156
       7317.50        77.2223         1.1849         2.3964       0.325230
       7318.00        74.3240         1.1425         2.3913       0.334065
       7318.50        73.1049         1.0562         2.3919       0.342537
       7319.00        71.1738         1.0486         2.3997       0.339474
       7319.50        71.1539         1.0049         2.4071       0.330552
       7320.00        73.9131         0.9935         2.4133       0.326226
       7320.50        77.6637         0.9887         2.4197       0.322911
       7321.00        76.5141         1.0187         2.4253       0.316516
       7321.50        76.1600         1.0533         2.4275       0.312966
       7322.00        75.1846         1.0362         2.4279       0.313739
       7322.50        76.2322         1.0124         2.4291       0.315070
       7323.00        77.0216         0.9995         2.4282       0.316600
       7323.50        78.7103         0.9924         2.4223       0.316600
       7324.00        76.9493         0.9996         2.4166       0.318800
       7324.50        76.9608         0.9972         2.4151       0.323700
       7325.00        80.1392         0.9783         2.4157       0.325300
       7325.50        78.4162         0.9505         2.4168       0.327200
       7326.00        74.2374         0.9106         2.4151       0.331300
       7326.50        71.5292         0.9411         2.4134       0.318900
       7327.00        55.6912         1.2792         2.4393       0.281700
       7327.50        42.1196         2.1578         2.5179       0.252500
       7328.00        50.1295         2.1804         2.6063       0.261800
       7328.50        60.8532         1.3336         2.5997       0.303600
       7329.00        66.3233         0.9172         2.4739       0.343600
       7329.50        65.2226         0.8159         2.3518       0.355100
       7330.00        66.7568         0.8254         2.3094       0.345700
       7330.50        64.6769         0.8404         2.3041       0.334200
       7331.00        68.4736         0.8606         2.3060       0.341700
       7331.50        71.1558         0.8059         2.3083       0.368800
       7332.00        76.4349         0.7618         2.3075       0.383900
       7332.50        78.9634         0.7441         2.3049       0.376600
       7333.00        78.7585         0.7283         2.3076       0.362500
       7333.50        77.7454         0.7540         2.3157       0.356700
       7334.00        74.8930         0.7844         2.3197       0.362600
       7334.50        75.9538         0.7654         2.3210       0.370000
       7335.00        77.5328         0.7459         2.3311       0.365400
       7335.50        74.4253         0.7696         2.3488       0.360200
       7336.00        74.3311         0.7627         2.3611       0.370600
       7336.50        74.4953         0.7711         2.3638       0.383400
       7337.00        71.9102         0.8303         2.3663       0.376100
       7337.50        65.5359         0.9563         2.3728       0.342800
       7338.00        62.7511         1.0391         2.3755       0.325000
       7338.50        65.1002         0.9746         2.3677       0.330300
       7339.00        69.7527         0.8744         2.3538       0.345700
       7339.50        75.4146         0.8322         2.3480       0.359700
       7340.00        78.4563         0.8334         2.3550       0.364200
       7340.50        75.6040         0.9232         2.3630       0.364800
       7341.00        72.4474         0.9702         2.3585       0.367000
       7341.50        74.8299         0.9306         2.3463       0.371500
       7342.00        79.0729         0.8930         2.3399       0.375600
       7342.50        84.1729         0.9157         2.3350       0.375400
       7343.00        85.0674         0.9418         2.3259       0.372600
       7343.50        80.5946         0.9408         2.3179       0.372200
       7344.00        79.7759         0.9264         2.3126       0.375300
       7344.50        76.4117         0.9486         2.3019       0.380100
       7345.00        74.1556         0.9867         2.2813       0.384600
       7345.50        72.9853         1.0251         2.2578       0.385200
       7346.00        71.9008         1.0415         2.2437       0.376900
       7346.50        69.3862         0.9976         2.2655       0.357100
       7347.00        69.6610         0.9860         2.2964       0.336100
       7347.50        69.2414         1.0214         2.3109       0.326400
       7348.00        70.2581         0.9987         2.3161       0.333100
       7348.50        69.2098         0.9697         2.3222       0.342800
       7349.00        71.1105         0.9693         2.3267       0.337900
       7349.50        69.5713         0.9874         2.3246       0.331200
       7350.00        63.5860         0.9938         2.3179       0.333800
       7350.50        65.4271         0.9920         2.3025       0.333800
       7351.00        65.9958         0.9850         2.2799       0.333300
       7351.50        66.1932         0.9824         2.2665       0.340600
       7352.00        62.2179         0.9920         2.2672       0.342500
       7352.50        62.1578         0.9876         2.2674       0.330100
       7353.00        61.0475         0.9772         2.2525       0.318000
       7353.50        59.3843         0.9645         2.2393       0.320800
       7354.00        57.9608         0.9573         2.2379       0.338800
       7354.50        59.1779         0.9527         2.2404       0.351700
       7355.00        63.3429         0.9507         2.2417       0.348300
       7355.50        63.6140         0.9435         2.2449       0.342200
       7356.00        60.9676         0.9307         2.2504       0.341900
       7356.50        63.1082         0.9157         2.2531       0.345800
       7357.00        63.5230         0.8915         2.2522       0.350000
       7357.50        63.0166         0.8692         2.2538       0.356200
       7358.00        64.8742         0.8623         2.2580       0.371500
       7358.50        62.8932         0.8574         2.2579       0.383600
       7359.00        64.4009         0.8399         2.2561       0.375000
       7359.50        66.3399         0.8189         2.2605       0.362400
       7360.00        68.9034         0.8144         2.2691       0.369000
       7360.50        69.9267         0.8229         2.2784       0.377000
       7361.00        70.0212         0.8222         2.2887       0.374400
       7361.50        71.2131         0.8248         2.2993       0.372400
       7362.00        70.8392         0.8278         2.3064       0.370300
       7362.50        67.7689         0.8444         2.3095       0.356200
       7363.00        63.9470         0.9136         2.3081       0.334800
       7363.50        57.9674         0.9978         2.2933       0.322300
       7364.00        55.3479         0.9909         2.2633       0.321600
