~Version Information Block
VERS .                  2.0:  CWLS LOG ASCII STANDARD - VERSION 2.0
WRAP .                   NO:  One line per depth step
~Well Information Block
#MNEM.UNIT        Data Type   Information
#---------- ----------------  -----------
STRT .FT             224.00:  START DEPTH
STOP .FT            7977.50:  STOP DEPTH
STEP .FT               0.50:  STEP
NULL .              -999.25:  NULL VALUE
COMP .                     :  COMPANY
WELL .               STA-22:  WELL
FLD  .                     :  FIELD
LOC  .                     :  LOCATION
CTRY .                     :  COUNTRY
STAT .                     :  STATE
CNTY .                     :  COUNTY
SRVC .                     :  SERVICE COMPANY
DATE .                     :  DATE
API  .                     :  API NUMBER
UWI  .                     :  UNIQUE WELL ID
~Curve Information Block
#MNEM.UNIT         API CODE   Curve Description
#---------- ----------------  -----------------
DEPTH.FT                   :  DEPTH
GR   .GAPI                 :  Gamma Ray
RT   .OHMM                 :  RESDE
RHOB .G/C3                 :  Bulk Density
NPHI .V/V                  :  Thermal Neutron Porosity (Ratio Method) in Selected Lithology
~Parameter Information Block
#MNEM.UNIT            Value   Description
#---------- ----------------  -----------
PROJECT.            SANTAN_FE:  
~Other Information Block
# 
~A       DEPTH             GR             RT           RHOB           NPHI 
# ...
       2792.00        94.9500         1.4600         2.0232       0.540700
       2792.50        95.5100         1.4580         2.0235       0.530600
       2793.00        96.0700         1.4500         2.0263       0.505200
       2793.50        95.5600         1.4477         2.0238       0.510000
       2794.00        95.4900         1.4425         2.0505       0.522300
       2794.50        95.4200         1.4500         2.0760       0.506300
       2795.00        95.9200         1.4500         2.1034       0.471900
       2795.50        96.7300         1.4414         2.1143       0.461200
       2796.00        97.5400         1.4200         2.1324       0.479800
       2796.50       100.3600         1.4231         2.1610       0.510600
       2797.00       103.6900         1.4267         2.1914       0.531200
       2797.50       106.9600         1.4234         2.2205       0.560200
       2798.00       107.0700         1.4300         2.2300       0.568600
       2798.50       106.1300         1.4300         2.2200       0.547500
       2799.00       105.6300         1.4262         2.1954       0.527500
       2799.50       106.0000         1.4160         2.1753       0.507000
       2800.00       105.4300         1.4100         2.1746       0.520300
       2800.50       104.4900         1.4143         2.1981       0.552400
       2801.00       103.5500         1.4200         2.2244       0.566800
       2801.50       101.9900         1.4200         2.2385       0.541300
       2802.00       100.4300         1.4668         2.2002       0.480500
       2802.50        98.8700         1.5200         2.0335       0.427800
       2803.00        97.7500         1.5200         1.8783       0.399900
       2803.50        96.6200         1.6677         1.8524       0.385400
       2804.00        95.3000         1.8100         1.8619       0.396600
       2804.50        95.1100         1.8100         1.9106       0.377700
       2805.00        94.1700         1.8871         1.9539       0.333400
       2805.50        93.4200         1.9500         2.0000       0.307200
       2806.00        90.3400         1.9269         1.9937       0.338800
       2806.50        88.0000         1.9100         1.9739       0.416800
       2807.00        84.8100         1.8316         1.9512       0.486200
       2807.50        83.0100         1.6691         1.9216       0.510000
       2808.00        81.2000         1.5308         1.9000       0.511400
       2808.50        80.2600         1.4900         1.9102       0.524600
       2809.00        80.2600         1.4114         1.9546       0.558400
       2809.50        79.3800         1.3700         2.0070       0.566000
       2810.00        78.4900         1.3019         2.0300       0.532800
       2810.50        77.4200         1.2700         2.0341       0.458700
       2811.00        77.2400         1.3831         2.0480       0.452000
       2811.50        78.0500         1.4300         2.0437       0.471400
       2812.00        79.0400         1.6644         2.0583       0.444500
       2812.50        79.5500         1.7500         2.0548       0.439000
       2813.00        79.0600         1.9472         2.0785       0.427900
       2813.50        76.1200         2.0100         2.0727       0.401300
       2814.00        71.7400         2.2609         2.0937       0.397800
       2814.50        65.5900         2.3459         2.1189       0.374000
       2815.00        61.8900         2.3095         2.1130       0.424400
       2815.50        59.0700         2.3000         2.1400       0.359000
       2816.00        55.6300         2.2666         2.1429       0.348900
       2816.50        52.1900         2.2515         2.1763       0.342500
       2817.00        48.0600         2.2500         2.1180       0.360000
       2817.50        46.1200         2.3025         2.0796       0.355100
       2818.00        42.9800         2.4698         2.0725       0.338100
       2818.50        40.7800         2.4720         2.1714       0.385800
       2819.00        37.9600         2.4609         2.2801       0.463500
       2819.50        36.2700         2.4507         2.3690       0.504100
       2820.00        36.3300         2.4218         2.2919       0.450300
       2820.50        37.0000         2.4295         2.2322       0.391500
       2821.00        38.8300         2.4879         2.1729       0.380600
       2821.50        40.4600         2.7150         2.1888       0.376600
       2822.00        42.6000         2.9182         2.1993       0.360000
       2822.50        44.6200         3.0278         2.2000       0.345600
       2823.00        45.6100         2.9290         2.1819       0.353800
       2823.50        45.9100         2.6718         2.1444       0.376100
       2824.00        44.9700         2.2968         2.1488       0.414100
       2824.50        44.3000         2.0273         2.1153       0.410900
       2825.00        43.1700         1.9600         2.0844       0.414500
       2825.50        40.9700         1.8873         2.1053       0.425900
       2826.00        38.3300         1.9324         2.1349       0.429000
       2826.50        36.5300         2.1014         2.1891       0.422600
       2827.00        35.6500         2.3046         2.2242       0.385100
       2827.50        35.4600         2.4714         2.1983       0.379100
       2828.00        35.8900         2.4777         2.1665       0.413200
       2828.50        36.8300         2.4208         2.1446       0.461600
       2829.00        37.5100         2.5203         2.1703       0.453200
       2829.50        37.9400         2.7018         2.2024       0.382700
       2830.00        38.5000         2.9904         2.2613       0.341000
       2830.50        38.7700         3.4311         2.3088       0.345500
       2831.00        38.5200         3.6696         2.4121       0.315500
       2831.50        37.0200         3.5616         2.4709       0.281600
       2832.00        36.5100         3.3574         2.5142       0.261400
       2832.50        35.5700         3.3173         2.5098       0.266200
       2833.00        35.7000         3.3200         2.4934       0.267100
       2833.50        34.3800         3.3200         2.4576       0.267200
       2834.00        34.0100         3.2445         2.4019       0.276600
       2834.50        33.8800         3.1683         2.3488       0.293000
       2835.00        35.8200         3.0588         2.2994       0.318300
       2835.50        37.3800         2.7790         2.2560       0.342900
       2836.00        38.6900         2.4007         2.2048       0.355700
       2836.50        38.9600         2.0368         2.1513       0.359900
       2837.00        39.9000         1.9400         2.1187       0.355200
       2837.50        40.8400         1.7850         2.1045       0.359300
       2838.00        42.2700         1.6853         2.1054       0.379100
       2838.50        44.0300         1.6700         2.1100       0.405500
       2839.00        45.8000         1.6320         2.1100       0.418200
       2839.50        47.0600         1.6200         2.1050       0.402000
       2840.00        47.3100         1.5580         2.0853       0.378300
       2840.50        48.4200         1.4931         2.0700       0.384200
       2841.00        49.2800         1.4800         2.0840       0.421900
       2841.50        53.6100         1.4641         2.1181       0.455200
       2842.00        57.0700         1.4600         2.1532       0.457900
       2842.50        64.1000         1.4519         2.1700       0.441000
       2843.00        69.6600         1.4500         2.1825       0.434400
       2843.50        75.2200         1.4087         2.2081       0.443600
       2844.00        78.3600         1.4000         2.2318       0.436100
       2844.50        80.8300         1.4084         2.2500       0.405300
       2845.00        83.2900         1.4185         2.2537       0.379300
