~Version Information Block
VERS .                  2.0:  CWLS LOG ASCII STANDARD - VERSION 2.0
WRAP .                   NO:  One line per depth step
~Well Information Block
#MNEM.UNIT        Data Type   Information
#---------- ----------------  -----------
STRT .FT            6091.50:  START DEPTH
STOP .FT           14295.50:  STOP DEPTH
STEP .FT               0.50:  STEP
NULL .              -999.25:  NULL VALUE
COMP .                     :  COMPANY
WELL .               STA-35:  WELL
FLD  .                     :  FIELD
LOC  .                     :  LOCATION
CTRY .                     :  COUNTRY
STAT .                     :  STATE
CNTY .                     :  COUNTY
SRVC .                     :  SERVICE COMPANY
DATE .                     :  DATE
API  .                     :  API NUMBER
UWI  .                     :  UNIQUE WELL ID
~Curve Information Block
#MNEM.UNIT         API CODE   Curve Description
#---------- ----------------  -----------------
DEPTH.FT                   :  Depth
GR   .GAPI                 :  Gamma Ray
RT   .OHMM                 :  True Resistivity
RHOB .G/C3                 :  Bulk Density
NPHI .V/V                  :  Neutron Porosity
~Parameter Information Block
#MNEM.UNIT            Value   Description
#---------- ----------------  -----------
PROJECT.            SANTAN_FE:  
~Other Information Block
# 
~A       DEPTH             GR             RT           RHOB           NPHI 
# ...
       9836.50        50.0318         1.5994         2.3637       0.255200
       9837.00        46.7272         1.5344         2.3435       0.255200
       9837.50        46.5952         1.5125         2.3390       0.247800
       9838.00        45.9726         1.5533         2.3365       0.239100
       9838.50        43.7036         1.6126         2.3352       0.235700
       9839.00        45.0684         1.5719         2.3333       0.241000
       9839.50        45.2589         1.4929         2.3235       0.252600
       9840.00        47.0930         1.4605         2.3094       0.258000
       9840.50        47.0763         1.4720         2.3065       0.253500
       9841.00        45.8257         1.5008         2.3125       0.247600
       9841.50        46.2885         1.5663         2.3171       0.246700
       9842.00        46.4791         1.6209         2.3231       0.249500
       9842.50        52.4375         1.6775         2.3337       0.250500
       9843.00        59.4925         1.8431         2.3548       0.248800
       9843.50        66.3454         1.9721         2.3926       0.246600
       9844.00        59.7611         2.0103         2.4343       0.244200
       9844.50        51.8305         1.9494         2.4475       0.241200
       9845.00        46.8366         1.8396         2.4255       0.239200
       9845.50        46.0232         1.7848         2.3897       0.241800
       9846.00        50.0890         1.8665         2.3722       0.249300
       9846.50        54.5732         1.9275         2.3922       0.258100
       9847.00        66.7458         1.9868         2.4290       0.265800
       9847.50        78.6656         1.9515         2.4633       0.275600
       9848.00        89.4084         1.9063         2.4930       0.294400
       9848.50        97.3657         1.9418         2.5037       0.321600
       9849.00       108.3990         1.9996         2.4758       0.342900
       9849.50       104.2389         1.9917         2.4314       0.343300
       9850.00       105.7710         1.9298         2.4158       0.322100
       9850.50       100.9230         1.9707         2.4366       0.301100
       9851.00        99.6060         1.9835         2.4677       0.292600
       9851.50        99.7558         1.9891         2.4863       0.291200
       9852.00        99.4060         1.9881         2.5001       0.293300
       9852.50       103.8062         1.9577         2.5088       0.300300
       9853.00       102.4834         1.9042         2.5029       0.314300
       9853.50       106.1766         1.8623         2.4814       0.336600
       9854.00       109.5762         1.8318         2.4576       0.351000
       9854.50       109.8864         1.8418         2.4436       0.345700
       9855.00       109.1317         1.9070         2.4409       0.334200
       9855.50       108.6226         1.9457         2.4422       0.332000
       9856.00       110.3100         1.9381         2.4384       0.346400
       9856.50       113.9679         1.9314         2.4276       0.368900
       9857.00       118.4942         1.9620         2.4048       0.380800
       9857.50       127.5565         2.0490         2.3702       0.375200
       9858.00       134.5900         2.1111         2.3392       0.358900
       9858.50       135.8824         2.1248         2.3305       0.327600
       9859.00       126.0801         2.2081         2.3483       0.287900
       9859.50       108.8560         2.3057         2.3882       0.261000
       9860.00        87.1579         2.4766         2.4378       0.248700
       9860.50        81.3936         2.5496         2.4776       0.242900
       9861.00        80.1452         2.4992         2.4958       0.238800
       9861.50        77.4591         2.5165         2.4981       0.238900
       9862.00        72.7036         2.5483         2.4949       0.246100
       9862.50        72.3950         2.5107         2.4952       0.257700
       9863.00        79.1461         2.4195         2.5040       0.267100
       9863.50        81.0652         2.3326         2.5129       0.271100
       9864.00        79.0228         2.4189         2.5164       0.270400
       9864.50        76.1363         2.3752         2.5138       0.265800
       9865.00        73.6821         2.2971         2.5099       0.262700
       9865.50        80.7182         2.2498         2.5030       0.268600
       9866.00        88.1175         2.2431         2.4780       0.285200
       9866.50        88.5445         2.3645         2.4391       0.302800
       9867.00        86.7229         2.3477         2.4144       0.309700
       9867.50        88.1725         2.1926         2.4153       0.311000
       9868.00        93.4964         1.9796         2.4247       0.325400
       9868.50        93.1599         1.9403         2.4259       0.349700
       9869.00        91.7290         2.0208         2.4130       0.358100
       9869.50        92.9171         2.0490         2.4040       0.348000
       9870.00        93.7468         1.8244         2.4291       0.329700
       9870.50        97.7250         1.6621         2.4710       0.310000
       9871.00        95.4982         1.6724         2.4969       0.298900
       9871.50        90.1452         1.7764         2.5048       0.298500
       9872.00        91.7783         1.8459         2.5078       0.291700
       9872.50        88.0071         2.0230         2.5069       0.275000
       9873.00        80.5855         2.2113         2.4995       0.257900
       9873.50        66.9460         2.2265         2.4834       0.246300
       9874.00        43.4410         1.9032         2.4435       0.240300
       9874.50        30.9203         1.3894         2.3586       0.250700
       9875.00        36.0080         1.1282         2.2642       0.276100
       9875.50        57.9229         1.2119         2.2463       0.291000
       9876.00        68.8971         1.6460         2.3232       0.280300
       9876.50        60.8889         1.8055         2.4155       0.257500
       9877.00        44.9352         1.6255         2.4338       0.240400
       9877.50        44.0942         1.5492         2.3812       0.233200
       9878.00        45.7357         1.5290         2.3304       0.241800
       9878.50        56.4643         1.6971         2.3170       0.263900
       9879.00        74.3367         1.8741         2.3424       0.279000
       9879.50        85.6076         1.9365         2.4058       0.279000
       9880.00        93.8817         1.9133         2.4715       0.282100
       9880.50        93.3491         1.8167         2.5001       0.294600
       9881.00        96.1825         1.7439         2.5080       0.306100
       9881.50        97.3020         1.7150         2.5106       0.308500
       9882.00        97.6993         1.7277         2.5106       0.301500
       9882.50        92.3277         1.7484         2.5098       0.290200
       9883.00        82.5522         1.9156         2.5048       0.281300
       9883.50        75.0145         2.1028         2.4932       0.283200
       9884.00        77.0086         2.1570         2.4893       0.288700
       9884.50        78.7325         2.1683         2.5025       0.288700
       9885.00        79.6591         2.1087         2.5190       0.281000
       9885.50        83.5585         2.0904         2.5271       0.275900
       9886.00        85.4571         2.0910         2.5291       0.280500
       9886.50        87.4220         2.0702         2.5241       0.290400
       9887.00        91.3573         2.0494         2.5156       0.295700
       9887.50        89.4279         2.0589         2.5063       0.289400
       9888.00        87.1686         2.1064         2.4967       0.281900
       9888.50        86.9893         2.1430         2.4966       0.280600
       9889.00        86.3369         2.1133         2.5032       0.286100
       9889.50        88.7271         2.0661         2.5055       0.293000
