~Version Information Block
VERS .                  2.0:  CWLS LOG ASCII STANDARD - VERSION 2.0
WRAP .                   NO:  One line per depth step
~Well Information Block
#MNEM.UNIT        Data Type   Information
#---------- ----------------  -----------
STRT .FT            6091.50:  START DEPTH
STOP .FT           14295.50:  STOP DEPTH
STEP .FT               0.50:  STEP
NULL .              -999.25:  NULL VALUE
COMP .                     :  COMPANY
WELL .               STA-35:  WELL
FLD  .                     :  FIELD
LOC  .                     :  LOCATION
CTRY .                     :  COUNTRY
STAT .                     :  STATE
CNTY .                     :  COUNTY
SRVC .                     :  SERVICE COMPANY
DATE .                     :  DATE
API  .                     :  API NUMBER
UWI  .                     :  UNIQUE WELL ID
~Curve Information Block
#MNEM.UNIT         API CODE   Curve Description
#---------- ----------------  -----------------
DEPTH.FT                   :  Depth
GR   .GAPI                 :  Gamma Ray
RT   .OHMM                 :  True Resistivity
RHOB .G/C3                 :  Bulk Density
NPHI .V/V                  :  Neutron Porosity
~Parameter Information Block
#MNEM.UNIT            Value   Description
#---------- ----------------  -----------
PROJECT.            SANTAN_FE:  
~Other Information Block
# 
~A       DEPTH             GR             RT           RHOB           NPHI 
# ...
      14223.50        71.8267         5.7961         2.6410       0.123400
      14224.00        71.9781         5.8574         2.6573       0.125800
      14224.50        71.7343         6.0057         2.6612       0.126500
      14225.00        69.2663         6.1814         2.6572       0.125000
      14225.50        64.3016         6.3905         2.6586       0.122700
      14226.00        58.4045         6.8062         2.6612       0.118100
      14226.50        55.7069         8.0075         2.6516       0.110100
      14227.00        57.0269         8.6842         2.6252       0.103000
      14227.50        53.8074         9.6862         2.5932       0.096300
      14228.00        47.8978        11.1311         2.5817       0.086200
      14228.50        36.4727        12.4525         2.6081       0.075100
      14229.00        28.9053        12.2807         2.6477       0.068700
      14229.50        29.6007        11.8296         2.6539       0.069400
      14230.00        31.6931        11.2346         2.6179       0.073300
      14230.50        34.2189        10.4597         2.5688       0.078000
      14231.00        40.0452         9.9729         2.5464       0.085300
      14231.50        49.3014         9.4576         2.5492       0.094200
      14232.00        49.0760         9.2959         2.5664       0.098700
      14232.50        43.0338         9.4680         2.5826       0.096900
      14233.00        37.7305         9.4379         2.5694       0.092200
      14233.50        38.2893         8.9567         2.5322       0.089600
      14234.00        47.7180         8.1601         2.5045       0.092600
      14234.50        52.2534         7.3452         2.5034       0.099200
      14235.00        57.5753         6.6008         2.5264       0.106300
      14235.50        62.4235         6.1968         2.5568       0.113600
      14236.00        65.8852         5.6323         2.5817       0.119800
      14236.50        68.5892         5.2541         2.5931       0.126700
      14237.00        73.8694         5.3063         2.5982       0.134300
      14237.50        71.3583         5.3477         2.6047       0.138100
      14238.00        71.5667         5.7499         2.6077       0.139000
      14238.50        64.9442         5.8391         2.6052       0.136700
      14239.00        60.3011         5.9422         2.6099       0.128800
      14239.50        57.6406         6.1173         2.6258       0.119700
      14240.00        52.6577         6.1957         2.6401       0.113400
      14240.50        49.1671         6.1812         2.6375       0.110100
      14241.00        55.5819         5.9822         2.6199       0.109600
      14241.50        63.2590         5.7817         2.6097       0.113200
      14242.00        64.0988         5.6837         2.6103       0.120400
      14242.50        62.5091         5.8254         2.6124       0.128800
      14243.00        60.1189         6.0660         2.6142       0.131600
      14243.50        58.5500         6.3107         2.6213       0.127400
      14244.00        53.9804         6.5413         2.6326       0.123500
      14244.50        43.9260         7.1704         2.6345       0.118100
      14245.00        38.2444         8.2809         2.6280       0.103100
      14245.50        40.2018         8.3043         2.6290       0.090600
      14246.00        44.7802         7.8345         2.6386       0.092700
      14246.50        48.1532         7.5399         2.6324       0.097300
      14247.00        48.5317         7.3849         2.5982       0.099100
      14247.50        49.9232         7.2928         2.5675       0.099200
      14248.00        52.8107         7.1365         2.5648       0.102200
      14248.50        58.1713         6.9794         2.5711       0.105800
      14249.00        57.2138         6.9899         2.5728       0.106800
      14249.50        56.6610         7.0165         2.5816    -999.250000
      14250.00        45.9757         7.1901         2.6035    -999.250000
      14250.50        36.5875         7.6099         2.6139    -999.250000
      14251.00        36.1407         7.6284         2.5897    -999.250000
      14251.50        34.7517         7.6805         2.5409    -999.250000
      14252.00        35.3619         7.8605         2.5051    -999.250000
      14252.50        40.7869         8.1008         2.5085    -999.250000
      14253.00        42.1579         8.2267         2.5387    -999.250000
      14253.50        45.4659         8.1119         2.5644    -999.250000
      14254.00        49.9877         7.8047         2.5696    -999.250000
      14254.50        55.1473         7.4594         2.5732    -999.250000
      14255.00        57.2987         7.1074         2.5872    -999.250000
      14255.50        56.9793         6.6431         2.6040    -999.250000
      14256.00        57.3218         6.4942         2.6141    -999.250000
      14256.50        58.6238         6.4657         2.6081    -999.250000
      14257.00        61.9383         6.4845         2.5981    -999.250000
      14257.50        69.4732         6.3564         2.5981    -999.250000
      14258.00        71.9862         6.2392      -999.2500    -999.250000
      14258.50        67.4930         6.2071      -999.2500    -999.250000
      14259.00        55.2203         6.5683      -999.2500    -999.250000
      14259.50        45.0718         6.9156      -999.2500    -999.250000
      14260.00        43.4917         7.4576      -999.2500    -999.250000
      14260.50        40.9874         8.3367      -999.2500    -999.250000
      14261.00        40.5409         8.7534      -999.2500    -999.250000
      14261.50        41.7773         8.0616      -999.2500    -999.250000
      14262.00        43.2249         7.7335      -999.2500    -999.250000
      14262.50        40.6356         7.4399      -999.2500    -999.250000
      14263.00        46.6463         7.2351      -999.2500    -999.250000
      14263.50        56.0775         6.8063      -999.2500    -999.250000
      14264.00        66.9862         6.1131      -999.2500    -999.250000
      14264.50        67.2833         5.7410      -999.2500    -999.250000
      14265.00        71.3552         5.5116      -999.2500    -999.250000
      14265.50        71.7022         5.1674      -999.2500    -999.250000
      14266.00        73.1538         4.9549      -999.2500    -999.250000
      14266.50        73.6450         4.9635      -999.2500    -999.250000
      14267.00        72.9174         5.1510      -999.2500    -999.250000
      14267.50        71.8107         5.3494      -999.2500    -999.250000
      14268.00        70.4158         5.3896      -999.2500    -999.250000
      14268.50        73.6791         5.3545      -999.2500    -999.250000
      14269.00        69.1428         5.2726      -999.2500    -999.250000
      14269.50        70.9532         5.2794      -999.2500    -999.250000
      14270.00        73.2996         5.2752      -999.2500    -999.250000
      14270.50        75.9376         5.2866      -999.2500    -999.250000
      14271.00        74.7212         5.5130      -999.2500    -999.250000
      14271.50        69.6877         5.7584      -999.2500    -999.250000
      14272.00        70.2185         5.9263      -999.2500    -999.250000
      14272.50        68.5909         6.0708      -999.2500    -999.250000
      14273.00        68.8470         6.1190      -999.2500    -999.250000
      14273.50        67.0687         6.1303      -999.2500    -999.250000
      14274.00        67.2146         6.0791      -999.2500    -999.250000
      14274.50        66.6751         6.0476      -999.2500    -999.250000
      14275.00        66.9793         5.9601      -999.2500    -999.250000
      14275.50        67.5559         5.7368      -999.2500    -999.250000
      14276.00        70.4592         5.5635      -999.2500    -999.250000
      14276.50        74.9751         5.5255      -999.2500    -999.250000
