~Version Information Block
VERS .                  2.0:  CWLS LOG ASCII STANDARD - VERSION 2.0
WRAP .                   NO:  One line per depth step
~Well Information Block
#MNEM.UNIT        Data Type   Information
#---------- ----------------  -----------
STRT .FT            6091.50:  START DEPTH
STOP .FT           14295.50:  STOP DEPTH
STEP .FT               0.50:  STEP
NULL .              -999.25:  NULL VALUE
COMP .                     :  COMPANY
WELL .               STA-35:  WELL
FLD  .                     :  FIELD
LOC  .                     :  LOCATION
CTRY .                     :  COUNTRY
STAT .                     :  STATE
CNTY .                     :  COUNTY
SRVC .                     :  SERVICE COMPANY
DATE .                     :  DATE
API  .                     :  API NUMBER
UWI  .                     :  UNIQUE WELL ID
~Curve Information Block
#MNEM.UNIT         API CODE   Curve Description
#---------- ----------------  -----------------
DEPTH.FT                   :  Depth
GR   .GAPI                 :  Gamma Ray
RT   .OHMM                 :  True Resistivity
RHOB .G/C3                 :  Bulk Density
NPHI .V/V                  :  Neutron Porosity
~Parameter Information Block
#MNEM.UNIT            Value   Description
#---------- ----------------  -----------
PROJECT.            SANTAN_FE:  
~Other Information Block
# 
~A       DEPTH             GR             RT           RHOB           NPHI 
# ...
       6626.50        56.1477         1.4718         2.2293       0.379300
       6627.00        57.3988         1.4155         2.2338       0.391600
       6627.50        62.3331         1.3834         2.2341       0.406400
       6628.00        64.6660         1.3144         2.2402       0.420700
       6628.50        69.3030         1.2394         2.2535       0.424900
       6629.00        70.9143         1.2624         2.2643       0.417600
       6629.50        71.5189         1.3289         2.2655       0.410600
       6630.00        69.5093         1.3415         2.2626       0.408400
       6630.50        66.1659         1.3318         2.2643       0.408300
       6631.00        68.1983         1.3704         2.2683       0.408600
       6631.50        62.6960         1.3285         2.2664       0.404500
       6632.00        60.5131         1.2773         2.2608       0.386200
       6632.50        57.5534         1.3893         2.2599       0.360800
       6633.00        56.8008         1.6062         2.2692       0.348300
       6633.50        60.9799         1.7530         2.2912       0.345700
       6634.00        57.8939         1.8202         2.3139       0.342600
       6634.50        57.2282         1.8676         2.3178       0.339100
       6635.00        57.6868         1.8620         2.3015       0.339300
       6635.50        55.3407         1.8400         2.2797       0.345000
       6636.00        57.3625         1.7931         2.2598       0.358200
       6636.50        60.7640         1.7541         2.2440       0.375000
       6637.00        59.4038         1.7137         2.2363       0.383200
       6637.50        59.0281         1.6745         2.2347       0.386600
       6638.00        65.0064         1.6347         2.2397       0.391800
       6638.50        70.8665         1.6154         2.2509       0.389200
       6639.00        71.1191         1.5624         2.2616       0.381600
       6639.50        70.6575         1.5116         2.2683       0.388400
       6640.00        74.4060         1.4990         2.2751       0.416300
       6640.50        74.8461         1.4908         2.2836       0.445600
       6641.00        79.0807         1.5157         2.2869       0.447800
       6641.50        79.2515         1.5154         2.2816       0.429600
       6642.00        81.8850         1.4761         2.2760       0.422000
       6642.50        82.3672         1.4322         2.2775       0.419800
       6643.00        83.4376         1.4160         2.2851       0.411300
       6643.50        85.4456         1.4039         2.2926       0.412300
       6644.00        83.7602         1.3991         2.2955       0.424900
       6644.50        82.8770         1.3662         2.2991       0.436500
       6645.00        88.6619         1.3479         2.3089       0.443100
       6645.50        88.3096         1.3511         2.3201       0.450600
       6646.00        90.2666         1.3423         2.3265       0.460700
       6646.50        85.6169         1.3574         2.3276       0.457000
       6647.00        80.9491         1.3920         2.3272       0.436700
       6647.50        81.2876         1.4075         2.3267       0.421100
       6648.00        82.4795         1.3772         2.3232       0.415200
       6648.50        83.9827         1.3600         2.3213       0.421400
       6649.00        86.5494         1.4142         2.3302       0.431000
       6649.50        88.6819         1.4532         2.3417       0.425500
       6650.00        88.0972         1.4488         2.3450       0.424100
       6650.50        87.0435         1.4987         2.3408       0.433100
       6651.00        87.9435         1.5017         2.3355       0.434100
       6651.50        91.9040         1.5101         2.3331       0.444200
       6652.00        91.0161         1.5145         2.3353       0.471300
       6652.50        89.0493         1.4791         2.3394       0.474700
       6653.00        88.1492         1.4673         2.3395       0.438300
       6653.50        87.6737         1.4522         2.3380       0.414700
       6654.00        86.9645         1.4112         2.3391       0.420700
       6654.50        87.8303         1.3483         2.3403       0.441300
       6655.00        88.1808         1.3200         2.3377       0.453100
       6655.50        92.5905         1.2874         2.3341       0.446600
       6656.00        92.0092         1.2617         2.3303       0.448300
       6656.50        87.5152         1.2635         2.3239       0.457600
       6657.00        82.1347         1.2783         2.3159       0.451400
       6657.50        76.1816         1.3976         2.3125       0.426000
       6658.00        66.9450         1.9317         2.3181       0.396700
       6658.50        57.6350         2.6511         2.3335       0.351200
       6659.00        51.3426         3.1472         2.3614       0.288200
       6659.50        46.6803         3.5311         2.4006       0.245300
       6660.00        42.6360         3.7748         2.4308       0.233000
       6660.50        37.1244         3.8559         2.4335       0.238400
       6661.00        34.3559         3.8020         2.4098       0.256600
       6661.50        29.8084         3.7819         2.3514       0.281200
       6662.00        30.9845         3.6894         2.2695       0.307800
       6662.50        34.8574         3.4107         2.2212       0.327100
       6663.00        36.6206         3.1212         2.2061       0.331800
       6663.50        42.2780         2.8938         2.2016       0.326300
       6664.00        44.8086         2.6440         2.1983       0.318600
       6664.50        41.7828         2.4617         2.1945       0.316000
       6665.00        39.4263         2.4034         2.1873       0.324200
       6665.50        35.6317         2.3340         2.1741       0.330000
       6666.00        30.0143         2.2262         2.1552       0.323000
       6666.50        26.9536         2.1572         2.1327       0.315300
       6667.00        25.2306         2.0976         2.1207       0.319200
       6667.50        27.2793         2.0184         2.1216       0.331700
       6668.00        27.0251         1.9582         2.1225       0.346400
       6668.50        27.8242         1.9294         2.1192       0.355800
       6669.00        31.2429         1.9367         2.1233       0.349500
       6669.50        34.8462         1.9559         2.1422       0.340000
       6670.00        41.7933         1.9124         2.1745       0.348200
       6670.50        48.8887         1.8766         2.2160       0.363700
       6671.00        53.6349         1.9480         2.2609       0.364300
       6671.50        61.8528         2.1187         2.2948       0.353900
       6672.00        60.1207         2.2728         2.3149       0.342300
       6672.50        54.8202         2.8877         2.3232       0.339000
       6673.00        52.1512         3.8533         2.3268       0.342700
       6673.50        43.7617         5.0109         2.3392       0.333500
       6674.00        34.5955         6.0657         2.3626       0.299000
       6674.50        27.1790         6.9895         2.3967       0.249600
       6675.00        24.3940         8.7780         2.4395       0.202000
       6675.50        21.7201         9.9849         2.4806       0.170700
       6676.00        21.4071        10.2646         2.5114       0.154000
       6676.50        21.9981        11.1332         2.5286       0.144600
       6677.00        20.2143        10.0703         2.5359       0.138900
       6677.50        18.0508         9.5744         2.5475       0.136500
       6678.00        17.5253         9.9730         2.5595       0.141000
       6678.50        18.5308         9.8957         2.5547       0.154600
       6679.00        24.2850        10.4273         2.5404       0.174400
       6679.50        24.9296        11.1586         2.5222       0.197500
