~Version Information Block
VERS .                  2.0:  CWLS LOG ASCII STANDARD - VERSION 2.0
WRAP .                   NO:  One line per depth step
~Well Information Block
#MNEM.UNIT        Data Type   Information
#---------- ----------------  -----------
STRT .FT             750.00:  START DEPTH
STOP .FT            8283.50:  STOP DEPTH
STEP .FT               0.50:  STEP
NULL .              -999.25:  NULL VALUE
COMP .                     :  COMPANY
WELL .               STA-20:  WELL
FLD  .                     :  FIELD
LOC  .                     :  LOCATION
CTRY .                     :  COUNTRY
STAT .                     :  STATE
CNTY .                     :  COUNTY
SRVC .                     :  SERVICE COMPANY
DATE .                     :  DATE
API  .                     :  API NUMBER
UWI  .                     :  UNIQUE WELL ID
~Curve Information Block
#MNEM.UNIT         API CODE   Curve Description
#---------- ----------------  -----------------
DEPTH.FT                   :  DEPTH
GR   .GAPI                 :  Gamma Ray
RT   .OHMM                 :  RESDE
RHOB .G/C3                 :  Bulk Density
NPHI .V/V                  :  Thermal Neutron Porosity (Ratio Method) in Selected Lithology
~Parameter Information Block
#MNEM.UNIT            Value   Description
#---------- ----------------  -----------
PROJECT.            SANTAN_FE:  
~Other Information Block
# 
~A       DEPTH             GR             RT           RHOB           NPHI 
# ...
       3746.00        68.1600         1.3278         2.2015       0.399800
       3746.50        69.1625         1.2992         2.2022       0.396100
       3747.00        68.6775         1.2725         2.2119       0.385700
       3747.50        68.9650         1.2533         2.2274       0.380900
       3748.00        70.4825         1.2406         2.2376       0.396500
       3748.50        71.1675         1.2350         2.2386       0.430200
       3749.00        71.8525         1.2361         2.2346       0.463100
       3749.50        71.0650         1.2397         2.2279       0.485600
       3750.00        72.4525         1.2403         2.2170       0.497100
       3750.50        74.3975         1.2297         2.2041       0.493000
       3751.00        76.0700         1.2133         2.1983       0.481900
       3751.50        76.1400         1.1995         2.1975       0.468900
       3752.00        75.6825         1.1836         2.2013       0.468900
       3752.50        75.2675         1.1636         2.2025       0.462500
       3753.00        76.0825         1.1503         2.2107       0.474500
       3753.50        78.5125         1.1475         2.2252       0.503800
       3754.00        81.2900         1.1475         2.2450       0.531300
       3754.50        81.2900         1.1442         2.2497       0.527800
       3755.00        80.0900         1.1322         2.2411       0.500600
       3755.50        80.0025         1.1025         2.2267       0.476600
       3756.00        81.4025         1.0686         2.2183       0.458100
       3756.50        80.8000         1.0386         2.2131       0.427600
       3757.00        77.5125         1.0061         2.2103       0.423400
       3757.50        76.5400         0.9839         2.2100       0.461100
       3758.00        77.7425         0.9622         2.2056       0.512100
       3758.50        80.0875         0.9547         2.1961       0.527500
       3759.00        80.0375         0.9542         2.1883       0.507900
       3759.50        78.5050         0.9622         2.1830       0.498500
       3760.00        75.8250         1.0197         2.1825       0.513000
       3760.50        71.2600         1.1380         2.1825       0.530900
       3761.00        64.7250         1.2755         2.1781       0.519400
       3761.50        57.3775         1.4016         2.1597       0.479800
       3762.00        52.5275         1.4947         2.1442       0.438400
       3762.50        52.2000         1.5225         2.1468       0.421600
       3763.00        53.8900         1.5046         2.1763       0.424800
       3763.50        56.9775         1.4929         2.2157       0.434700
       3764.00        59.4225         1.5332         2.2453       0.443600
       3764.50        61.1675         1.5702         2.2594       0.444800
       3765.00        61.8975         1.5792         2.2658       0.435300
       3765.50        61.7125         1.5875         2.2675       0.421400
       3766.00        60.9975         1.5962         2.2618       0.412700
       3766.50        60.9550         1.6108         2.2483       0.408800
       3767.00        62.7275         1.5796         2.2304       0.401300
       3767.50        64.5300         1.5237         2.2123       0.387000
       3768.00        66.0300         1.4624         2.2005       0.375100
       3768.50        66.0725         1.4384         2.1984       0.375600
       3769.00        66.9725         1.4180         2.2031       0.393800
       3769.50        67.9750         1.4061         2.2127       0.427900
       3770.00        68.9050         1.3975         2.2228       0.471400
       3770.50        70.1625         1.3958         2.2353       0.505100
       3771.00        71.8500         1.3773         2.2489       0.516400
       3771.50        73.4250         1.3397         2.2578       0.512800
       3772.00        75.1425         1.2867         2.2601       0.511100
       3772.50        76.5725         1.2601         2.2625       0.516800
       3773.00        76.0000         1.2775         2.2622       0.515500
       3773.50        72.8250         1.3575         2.2534       0.502000
       3774.00        68.8350         1.4525         2.2371       0.472300
       3774.50        65.3150         1.4800         2.2386       0.436600
       3775.00        62.4950         1.5500         2.2577       0.405000
       3775.50        61.0375         1.6200         2.2741       0.382200
       3776.00        61.4100         1.6600         2.2757       0.376300
       3776.50        63.3575         1.5650         2.2704       0.385000
       3777.00        67.8050         1.4400         2.2651       0.405600
       3777.50        73.6375         1.3300         2.2612       0.428700
       3778.00        77.4500         1.2500         2.2615       0.446400
       3778.50        77.1325         1.1900         2.2657       0.456200
       3779.00        76.4425         1.1625         2.2710       0.457500
       3779.50        76.3625         1.1625         2.2763       0.448800
       3780.00        78.8300         1.1650         2.2795       0.431600
       3780.50        79.5450         1.2125         2.2800       0.418700
       3781.00        78.9725         1.2125         2.2823       0.413200
       3781.50        76.4000         1.2325         2.2899       0.406300
       3782.00        75.7425         1.2150         2.2976       0.401500
       3782.50        76.3425         1.2200         2.3000       0.402800
       3783.00        78.4325         1.1875         2.3000       0.411000
       3783.50        80.1500         1.1725         2.2995       0.418900
       3784.00        81.4350         1.1725         2.2956       0.422300
       3784.50        81.4350         1.1750         2.2868       0.426300
       3785.00        80.7625         1.1325         2.2772       0.437700
       3785.50        80.1025         1.1075         2.2714       0.452900
       3786.00        80.4025         1.0750         2.2676       0.469900
       3786.50        82.1350         1.0425         2.2583       0.481900
       3787.00        84.9400         0.9975         2.2466       0.490500
       3787.50        87.4425         0.9600         2.2425       0.496700
       3788.00        87.6125         0.9225         2.2478       0.500600
       3788.50        86.2950         0.9125         2.2519       0.498900
       3789.00        84.1500         0.9125         2.2525       0.495900
       3789.50        83.8650         0.9175         2.2482       0.501000
       3790.00        84.4675         0.9175         2.2429       0.526600
       3790.50        86.7250         0.9175         2.2425       0.574500
       3791.00        89.4400         0.9100         2.2476       0.613700
       3791.50        89.3825         0.9000         2.2498       0.606700
       3792.00        85.8950         0.8950         2.2464       0.558100
       3792.50        81.4325         0.9025         2.2374       0.508400
       3793.00        80.7450         0.9075         2.2243       0.485900
       3793.50        83.0325         0.9100         2.2126       0.489800
       3794.00        87.0375         0.9100         2.2094       0.506700
       3794.50        87.3675         0.9375         2.2146       0.513800
       3795.00        82.4200         1.0375         2.2187       0.503300
       3795.50        73.8525         1.1950         2.2146       0.479600
       3796.00        65.9150         1.3375         2.2056       0.451200
       3796.50        63.0275         1.4150         2.1976       0.432100
       3797.00        63.8425         1.4225         2.1998       0.437800
       3797.50        68.7900         1.3875         2.2091       0.459000
       3798.00        74.2250         1.3150         2.2235       0.476200
       3798.50        78.3725         1.2225         2.2396       0.480000
       3799.00        80.4900         1.1575         2.2457       0.474900
