~Version Information Block
VERS .                  2.0:  CWLS LOG ASCII STANDARD - VERSION 2.0
WRAP .                   NO:  One line per depth step
~Well Information Block
#MNEM.UNIT        Data Type   Information
#---------- ----------------  -----------
STRT .FT            5000.50:  START DEPTH
STOP .FT           14504.00:  STOP DEPTH
STEP .FT               0.50:  STEP
NULL .              -999.25:  NULL VALUE
COMP .                     :  COMPANY
WELL .               STA-18:  WELL
FLD  .                     :  FIELD
LOC  .                     :  LOCATION
CTRY .                     :  COUNTRY
STAT .                     :  STATE
CNTY .                     :  COUNTY
SRVC .                     :  SERVICE COMPANY
DATE .                     :  DATE
API  .                     :  API NUMBER
UWI  .                     :  UNIQUE WELL ID
~Curve Information Block
#MNEM.UNIT         API CODE   Curve Description
#---------- ----------------  -----------------
DEPTH.FT                   :  DEPTH
GR   .GAPI                 :  Gamma Ray
RT   .OHMM                 :  SEDP
RHOB .G/C3                 :  Bulk Density
NPHI .V/V                  :  Neutron porosity
~Parameter Information Block
#MNEM.UNIT            Value   Description
#---------- ----------------  -----------
PROJECT.            SANTAN_FE:  
~Other Information Block
# 
~A       DEPTH             GR             RT           RHOB           NPHI 
# ...
      13239.50       123.6500         3.4200         2.5854       0.216900
      13240.00       124.2000         3.3700         2.5914       0.220700
      13240.50       122.1900         3.4100         2.6038       0.217900
      13241.00       121.5900         3.5100         2.6093       0.215200
      13241.50       119.2000         3.6600         2.6100       0.215200
      13242.00       118.9700         3.7300         2.5993       0.215300
      13242.50       117.4900         3.8600         2.5861       0.211200
      13243.00       118.9200         3.8800         2.5754       0.205200
      13243.50       115.7900         4.0200         2.5761       0.197500
      13244.00       115.1300         4.1700         2.5793       0.189200
      13244.50       114.7600         4.2800         2.5854       0.184400
      13245.00       112.7500         4.3500         2.5786       0.182600
      13245.50       117.4100         4.3300         2.5714       0.179400
      13246.00       130.4000         4.2900         2.5646       0.176000
      13246.50       132.3800         4.1800         2.5768       0.179600
      13247.00       128.1900         4.0500         2.5933       0.192600
      13247.50       121.0500         3.8800         2.5993       0.205500
      13248.00       117.6200         3.7200         2.6000       0.213400
      13248.50       123.5100         3.7000         2.6000       0.215400
      13249.00       126.8300         3.7500         2.6000       0.214600
      13249.50       120.1700         3.8000         2.6000       0.215900
      13250.00       125.0700         3.8600         2.6054       0.215200
      13250.50       126.4900         3.9300         2.6039       0.211600
      13251.00       119.0600         4.1100         2.5899       0.205000
      13251.50       119.2000         4.3300         2.5760       0.192500
      13252.00       115.2100         4.4700         2.5761       0.186000
      13252.50       117.5200         4.4300         2.5847       0.187800
      13253.00       118.9600         4.2800         2.5947       0.192600
      13253.50       118.2300         4.1800         2.5993       0.193300
      13254.00       115.7200         4.1600         2.5946       0.190600
      13254.50       114.8500         4.0700         2.5907       0.189200
      13255.00       116.4800         3.9800         2.5845       0.196400
      13255.50       115.0700         3.9300         2.5807       0.205900
      13256.00       123.7200         3.7900         2.5854       0.214400
      13256.50       129.9400         3.6800         2.5948       0.220400
      13257.00       132.8800         3.6000         2.5939       0.222500
      13257.50       124.7200         3.5400         2.5907       0.223800
      13258.00       123.2000         3.5400         2.6009       0.226300
      13258.50       121.6600         3.5300         2.6086       0.225300
      13259.00       122.7700         3.5300         2.6100       0.219900
      13259.50       124.5000         3.6300         2.6045       0.215300
      13260.00       127.7700         3.7600         2.5952       0.209800
      13260.50       122.7000         3.8300         2.5907       0.205700
      13261.00       126.2400         3.8600         2.5900       0.204300
      13261.50       128.0500         3.8000         2.5900       0.208900
      13262.00       121.2700         3.7200         2.5900       0.215000
      13262.50       121.3500         3.6700         2.5955       0.213000
      13263.00       128.2200         3.6700         2.6048       0.211400
      13263.50       124.8500         3.6500         2.6149       0.212700
      13264.00       126.6300         3.6300         2.6193       0.210300
      13264.50       126.5700         3.6300         2.6145       0.207100
      13265.00       127.3600         3.6200         2.6107       0.206900
      13265.50       130.9100         3.6000         2.6045       0.207900
      13266.00       124.7600         3.6200         2.6062       0.209700
      13266.50       122.4500         3.6400         2.6038       0.210400
      13267.00       124.2500         3.5900         2.6062       0.208700
      13267.50       127.3200         3.5400         2.6149       0.207300
      13268.00       128.2300         3.5500         2.6193       0.209200
      13268.50       123.6600         3.6100         2.6145       0.210600
      13269.00       122.9100         3.6700         2.6051       0.210000
      13269.50       131.5900         3.7700         2.5895       0.206200
      13270.00       129.5700         3.8400         2.5868       0.204900
      13270.50       126.2700         3.8400         2.5838       0.205900
      13271.00       123.5100         3.8600         2.5918       0.207000
      13271.50       117.5200         3.9100         2.6043       0.206200
      13272.00       116.7600         4.0100         2.6038       0.202700
      13272.50       111.3900         4.1000         2.6006       0.197900
      13273.00       117.8200         4.2300         2.5888       0.193000
      13273.50       122.3100         4.2900         2.5813       0.188600
      13274.00       121.7300         4.2600         2.5856       0.187500
      13274.50       121.2100         4.2200         2.5894       0.188700
      13275.00       115.4200         4.2400         2.5900       0.192300
      13275.50       118.5900         4.2800         2.5956       0.195600
      13276.00       120.6200         4.2700         2.5994       0.196100
      13276.50       121.1300         4.2400         2.5944       0.195900
      13277.00       116.1100         4.2100         2.5906       0.197700
      13277.50       102.1400         4.2500         2.5900       0.197900
      13278.00        99.9400         4.4300         2.5900       0.193400
      13278.50       102.1700         4.7100         2.5787       0.184100
      13279.00       109.7900         4.8900         2.5656       0.175400
      13279.50       114.1500         4.8100         2.5663       0.174100
      13280.00       118.4900         4.5500         2.5807       0.180000
      13280.50       121.6300         4.3000         2.5944       0.189200
      13281.00       120.0900         4.1800         2.5994       0.196200
      13281.50       116.0100         4.2100         2.6000       0.197400
      13282.00       113.4000         4.2900         2.6000       0.194000
      13282.50       113.3300         4.4100         2.6000       0.190600
      13283.00       105.3800         4.4600         2.6000       0.189700
      13283.50        95.7200         4.5000         2.5943       0.188100
      13284.00        84.9600         4.6100         2.6020       0.179700
      13284.50        93.7100         4.7700         2.6031       0.167300
      13285.00        98.2900         4.7500         2.5949       0.158700
      13285.50        99.5200         4.6800         2.5849       0.165500
      13286.00       105.0700         4.6200         2.5863       0.179000
      13286.50       105.2400         4.5000         2.5894       0.181700
      13287.00       104.2600         4.3100         2.5900       0.180700
      13287.50       105.6400         4.2300         2.5957       0.183700
      13288.00       104.9400         4.2300         2.5994       0.188400
      13288.50       104.3900         4.2200         2.6057       0.185600
      13289.00       107.4400         4.1800         2.6094       0.178000
      13289.50       107.4900         4.1300         2.6100       0.176300
      13290.00       101.4500         4.0900         2.6043       0.179900
      13290.50       104.8100         4.1800         2.6006       0.184300
      13291.00       111.9400         4.1200         2.5943       0.183100
      13291.50       109.8200         4.0400         2.6021       0.175800
      13292.00       110.8200         4.0700         2.6089       0.174000
      13292.50       109.1400         4.1700         2.6043       0.177300
