~Version Information Block
VERS .                  2.0:  CWLS LOG ASCII STANDARD - VERSION 2.0
WRAP .                   NO:  One line per depth step
~Well Information Block
#MNEM.UNIT        Data Type   Information
#---------- ----------------  -----------
STRT .FT            4880.50:  START DEPTH
STOP .FT           10428.00:  STOP DEPTH
STEP .FT               0.50:  STEP
NULL .              -999.25:  NULL VALUE
COMP .                     :  COMPANY
WELL .                STA-3:  WELL
FLD  .                     :  FIELD
LOC  .                     :  LOCATION
CTRY .                     :  COUNTRY
STAT .                     :  STATE
CNTY .                     :  COUNTY
SRVC .                     :  SERVICE COMPANY
DATE .                     :  DATE
API  .                     :  API NUMBER
UWI  .                     :  UNIQUE WELL ID
~Curve Information Block
#MNEM.UNIT         API CODE   Curve Description
#---------- ----------------  -----------------
DEPTH.FT                   :  DEPTH
GR   .GAPI                 :  Gamma Ray
RT   .OHMM                 :  Deep resistivity
RHOB .G/C3                 :  Bulk Density
NPHI .V/V                  :  Neutron porosity
DT   .US/F                 :  Sonic
~Parameter Information Block
#MNEM.UNIT            Value   Description
#---------- ----------------  -----------
PROJECT.            SANTAN_FE:  
~Other Information Block
# 
~A       DEPTH             GR             RT           RHOB           NPHI             DT 
# ...
       8574.00       105.5831         2.6165         2.5625       0.245400        87.6000
       8574.50       106.1484         2.8036         2.5584       0.244900        86.8000
       8575.00       102.9683         2.9215         2.5600       0.225000        85.6000
       8575.50        99.1759         2.7782         2.5631       0.199400        82.1500
       8576.00        89.1090         3.1083         2.5597       0.192900        81.5000
       8576.50        82.0385         5.2144         2.5601       0.205900        81.8000
       8577.00        84.1489         3.6337         2.5612       0.222900        83.2000
       8577.50        90.5106         2.7866         2.5609       0.239300        86.0000
       8578.00        96.4549         2.7822         2.5545       0.242300        88.1500
       8578.50        96.3325         2.7114         2.5445       0.250500        88.5000
       8579.00       100.7665         2.6442         2.5278       0.233200        88.2500
       8579.50        98.5372         2.5616         2.5283       0.237900        88.5000
       8580.00       104.0845         2.5726         2.5299       0.230500        88.5000
       8580.50        98.9369         2.7950         2.5273       0.233200        87.8500
       8581.00        95.2732         2.5865         2.5161       0.223100        87.4000
       8581.50        91.8121         2.9748         2.5205       0.211400        86.9000
       8582.00        87.2601         2.8946         2.5193       0.202700        85.7000
       8582.50        94.0312         2.8289         2.5400       0.197600        84.7000
       8583.00        94.9932         3.1014         2.5696       0.204000        83.9500
       8583.50       100.1429         3.5017         2.5751       0.208800        83.0500
       8584.00       101.3084         3.2875         2.5712       0.216500        83.5000
       8584.50       101.8565         3.1259         2.5694       0.216100        84.9000
       8585.00       111.3201         3.1128         2.5580       0.227300        86.3500
       8585.50       114.5829         2.8409         2.5441       0.231300        87.0500
       8586.00       116.3443         2.6218         2.5361       0.241500        87.9000
       8586.50       106.0017         2.6433         2.5546       0.245800        87.7000
       8587.00       101.7001         2.5946         2.5546       0.248800        87.2000
       8587.50       101.2063         2.8765         2.5476       0.248000        86.6000
       8588.00       101.3871         2.6994         2.5403       0.232900        85.8000
       8588.50        99.8837         3.1018         2.5526       0.228400        84.9500
       8589.00        96.5621         2.9614         2.5582       0.211500        83.1000
       8589.50        98.4313         3.6984         2.5652       0.209600        81.2500
       8590.00        96.9397         3.8184         2.5709       0.194000        80.5500
       8590.50        94.5167         3.6942         2.5772       0.194100        80.0000
       8591.00        88.8726         3.6369         2.5580       0.189300        80.3000
       8591.50        81.2739         3.7471         2.5407       0.196700        80.0000
       8592.00        71.5844         3.8354         2.5289       0.197900        80.3500
       8592.50        65.8744         4.1513         2.5126       0.192800        81.4500
       8593.00        63.0749         4.3763         2.5022       0.188700        82.5000
       8593.50        64.3065         4.5430         2.4798       0.178300        83.0000
       8594.00        66.2813         4.3593         2.4767       0.175300        83.0000
       8594.50        68.2773         4.0351         2.4836       0.175400        82.0000
       8595.00        67.7643         3.9578         2.4962       0.174500        81.2500
       8595.50        66.1984         3.7887         2.4965       0.169500        80.9000
       8596.00        68.5447         4.0796         2.4968       0.163800        79.6000
       8596.50        71.3802         4.7209         2.4986       0.168200        78.4000
       8597.00        74.3507         5.1017         2.5143       0.179900        78.8000
       8597.50        81.6374         4.3481         2.5417       0.184000        78.7000
       8598.00        89.9285         3.7567         2.5610       0.192600        80.2500
       8598.50       104.5031         3.4039         2.5670       0.206500        82.1000
       8599.00       110.7003         3.0723         2.5544       0.224500        83.1000
       8599.50       116.7084         2.9644         2.5508       0.228900        83.5500
       8600.00       110.0737         2.7466         2.5443       0.225900        83.4500
       8600.50       103.7284         2.8102         2.5502       0.217200        83.6500
       8601.00        98.5610         3.0568         2.5549       0.221500        83.1000
       8601.50        99.1920         2.9597         2.5723       0.216800        82.7000
       8602.00       101.3546         3.1737         2.5693       0.228100        82.9000
       8602.50       100.2490         3.0840         2.5822       0.230100        83.7000
       8603.00       103.5506         2.7666         2.5756       0.239100        84.7000
       8603.50       107.2991         2.5679         2.5830       0.227800        86.1000
       8604.00       111.6465         2.5186         2.5810       0.221200        86.4000
       8604.50       110.0436         2.4320         2.5864       0.232900        85.8500
       8605.00       106.7593         2.6176         2.5766       0.245600        85.3500
       8605.50       106.8925         2.6775         2.5717       0.261000        85.8500
       8606.00       107.2702         2.6428         2.5576       0.265800        86.9000
       8606.50       109.4614         2.3942         2.5640       0.269200        88.1000
       8607.00       113.1097         2.2708         2.5588       0.268400        88.1500
       8607.50       115.9392         2.2697         2.5642       0.250700        87.7500
       8608.00       116.0125         2.4791         2.5598       0.243700        86.8000
       8608.50       111.0962         2.5325         2.5709       0.233000        86.2000
       8609.00       109.5296         2.4836         2.5592       0.231900        85.8500
       8609.50       108.9466         2.5927         2.5537       0.227200        85.7500
       8610.00       110.8568         2.6163         2.5473       0.226400        86.0500
       8610.50       109.7695         2.5403         2.5474       0.231300        86.2000
       8611.00       113.4128         2.4455         2.5529       0.231500        86.7000
       8611.50       115.0590         2.4146         2.5669       0.228000        87.1500
       8612.00       117.3361         2.4704         2.5656       0.222100        87.1500
       8612.50       116.3715         2.4873         2.5492       0.222400        87.6000
       8613.00       112.9109         2.4385         2.5436       0.229200        88.0000
       8613.50       111.2712         2.4202         2.5582       0.243800        88.5000
       8614.00       112.8770         2.3154         2.5695       0.260300        89.0000
       8614.50       111.3689         2.2823         2.5739       0.269000        89.1000
       8615.00       112.1963         2.3527         2.5752       0.264800        88.4000
       8615.50       107.9300         2.2951         2.5766       0.254000        88.5000
       8616.00       108.3441         2.2238         2.5741       0.249300        88.5500
       8616.50       102.7277         2.2518         2.5759       0.253400        86.1500
       8617.00        87.7944         2.5872         2.6011       0.263000        80.8000
       8617.50        71.2794         6.6116         2.6458       0.231500        73.4000
       8618.00        56.1950        10.7766         2.6858       0.175200        65.8000
