~Version Information Block
VERS .                  2.0:  CWLS LOG ASCII STANDARD - VERSION 2.0
WRAP .                   NO:  One line per depth step
~Well Information Block
#MNEM.UNIT        Data Type   Information
#---------- ----------------  -----------
STRT .FT             780.00:  START DEPTH
STOP .FT            8996.00:  STOP DEPTH
STEP .FT               0.50:  STEP
NULL .              -999.25:  NULL VALUE
COMP .                     :  COMPANY
WELL .                STA-4:  WELL
FLD  .                     :  FIELD
LOC  .                     :  LOCATION
CTRY .                     :  COUNTRY
STAT .                     :  STATE
CNTY .                     :  COUNTY
SRVC .                     :  SERVICE COMPANY
DATE .                     :  DATE
API  .                     :  API NUMBER
UWI  .                     :  UNIQUE WELL ID
~Curve Information Block
#MNEM.UNIT         API CODE   Curve Description
#---------- ----------------  -----------------
DEPTH.FT                   :  DEPTH
GR   .GAPI                 :  Gamma Ray
RT   .OHMM                 :  SEDP
RHOB .G/C3                 :  Bulk Density
NPHI .V/V                  :  Neutron porosity
~Parameter Information Block
#MNEM.UNIT            Value   Description
#---------- ----------------  -----------
PROJECT.            SANTAN_FE:  
~Other Information Block
# 
~A       DEPTH             GR             RT           RHOB           NPHI 
# ...
       8377.00        71.0300         1.9200         2.6704       0.213900
       8377.50        62.3300         2.1300         2.7153       0.217600
       8378.00        62.4000         2.0000         2.6716       0.249000
       8378.50        64.8600         1.7300         2.5823       0.292900
       8379.00        66.4400         1.4500         2.5086       0.331600
       8379.50        65.4400         1.2200         2.4541       0.354100
       8380.00        62.4700         1.0700         2.4147       0.365200
       8380.50        66.4100         0.9800         2.4000       0.365000
       8381.00        70.8300         0.9400         2.4050       0.355600
       8381.50        78.5500         0.9400         2.4002       0.344700
       8382.00        78.6800         0.9700         2.3852       0.333600
       8382.50        77.0400         1.0300         2.3752       0.324800
       8383.00        75.4400         1.1100         2.3606       0.318600
       8383.50        75.5600         1.1800         2.3407       0.316400
       8384.00        76.4900         1.2300         2.3300       0.313900
       8384.50        67.8700         1.2700         2.3391       0.310600
       8385.00        64.4500         1.3100         2.3589       0.313600
       8385.50        63.2200         1.3300         2.3788       0.319300
       8386.00        60.5400         1.3500         2.3986       0.325600
       8386.50        57.6600         1.3600         2.4228       0.330700
       8387.00        56.3600         1.3700         2.4442       0.330000
       8387.50        55.9100         1.3600         2.4500       0.328000
       8388.00        59.7000         1.3500         2.4419       0.326800
       8388.50        62.4100         1.3300         2.4300       0.323900
       8389.00        64.9500         1.3000         2.4261       0.322900
       8389.50        61.9400         1.2700         2.4239       0.323400
       8390.00        63.7700         1.2400         2.4338       0.325200
       8390.50        68.4900         1.2300         2.4437       0.332500
       8391.00        66.9300         1.2200         2.4463       0.337900
       8391.50        67.3900         1.2300         2.4364       0.338500
       8392.00        72.8100         1.2400         2.4265       0.335400
       8392.50        72.6500         1.2100         2.4165       0.331900
       8393.00        70.2000         1.2200         2.4134       0.334000
       8393.50        73.5100         1.2700         2.4167       0.330800
       8394.00        76.4400         1.2400         2.4067       0.315800
       8394.50        80.6100         1.2200         2.4129       0.301800
       8395.00        81.4900         1.2000         2.4494       0.296500
       8395.50        80.4600         1.2000         2.4669       0.290400
       8396.00        75.9500         1.2000         2.4570       0.284200
       8396.50        76.7600         1.2300         2.4530       0.286200
       8397.00        78.3100         1.2600         2.4658       0.297200
       8397.50        78.4000         1.2800         2.4800       0.305300
       8398.00        80.8100         1.3400         2.4827       0.304400
       8398.50        79.8800         1.4200         2.4927       0.305500
       8399.00        77.9700         1.4800         2.5026       0.310400
       8399.50        75.9800         1.5100         2.5126       0.312900
       8400.00        79.8700         1.5500         2.5150       0.317600
       8400.50        75.1400         1.5700         2.5000       0.323000
       8401.00        74.8500         1.5500         2.5000       0.333700
       8401.50        72.3500         1.5200         2.5023       0.348500
       8402.00        72.2600         1.5000         2.5100       0.363500
       8402.50        71.2400         1.4900         2.5122       0.361500
       8403.00        73.6000         1.4400         2.5179       0.339800
       8403.50        78.8100         1.4000         2.5080       0.315000
       8404.00        81.4600         1.4100         2.4980       0.295500
       8404.50        81.5100         1.4200         2.4881       0.284800
       8405.00        79.4500         1.4500         2.4782       0.282600
       8405.50        73.1200         1.4700         2.4700       0.277700
       8406.00        70.0000         1.5100         2.4666       0.272800
       8406.50        65.7000         1.5300         2.4467       0.274500
       8407.00        57.1500         1.5300         2.4253       0.277400
       8407.50        51.2800         1.5000         2.3954       0.282000
       8408.00        48.9300         1.5000         2.3671       0.298300
       8408.50        49.7000         1.5000         2.3431       0.328000
       8409.00        49.2600         1.4800         2.2921       0.359400
       8409.50        49.1600         1.4700         2.2362       0.392300
       8410.00        49.7900         1.5000         2.2052       0.427400
       8410.50        53.7100         1.5200         2.1553       0.451100
       8411.00        57.3100         1.5600         2.0325       0.452200
       8411.50        64.9300         1.5400         1.9778       0.443300
       8412.00        76.5500         1.3800         2.0590       0.429700
       8412.50        88.8000         1.2200         2.1927       0.411300
       8413.00        92.6700         1.1100         2.2692       0.393800
       8413.50        93.7200         1.0300         2.3203       0.381500
       8414.00        96.9000         0.9700         2.3692       0.367000
       8414.50        93.2700         0.9500         2.4000       0.354100
       8415.00        89.7400         0.9500         2.3972       0.343900
       8415.50        89.3100         0.9500         2.3870       0.337400
       8416.00        82.5100         0.9500         2.3833       0.336700
       8416.50        77.9000         0.9600         2.3935       0.338700
       8417.00        82.7100         0.9700         2.4000       0.336500
       8417.50        80.6600         0.9900         2.4040       0.332200
       8418.00        78.2300         1.0400         2.4142       0.328600
       8418.50        82.8300         1.0400         2.4200       0.327900
       8419.00        84.5200         1.0000         2.4247       0.331500
       8419.50        88.6200         1.0100         2.4300       0.339600
       8420.00        89.1600         1.0900         2.4248       0.350700
       8420.50        85.5100         1.1400         2.4200       0.362700
       8421.00        85.0600         1.1100         2.4256       0.373700
       8421.50        87.5200         1.1100         2.4300       0.381900
       8422.00        87.5700         1.1300         2.4361       0.386000
       8422.50        86.3800         1.1500         2.4463       0.382400
       8423.00        85.0600         1.1800         2.4566       0.371000
       8423.50        80.6500         1.2200         2.4600       0.353500
       8424.00        78.1800         1.2600         2.4459       0.331500
       8424.50        76.5300         1.2800         2.4254       0.309300
       8425.00        69.3900         1.2800         2.4049       0.293800
       8425.50        67.8300         1.2600         2.4000       0.289700
       8426.00        69.2600         1.2100         2.3840       0.300100
       8426.50        79.3800         1.1300         2.3718       0.326200
       8427.00        85.1300         1.0200         2.3954       0.356400
       8427.50        96.0000         0.9000         2.4262       0.375800
       8428.00        99.7700         0.9200         2.4479       0.384700
       8428.50        99.7300         1.0400         2.4592       0.386100
       8429.00       100.0100         1.2200         2.4600       0.381400
       8429.50        90.1800         1.3800         2.4503       0.364200
       8430.00        82.2100         1.5400         2.4401       0.342400
