~Version Information Block
VERS .                  2.0:  CWLS LOG ASCII STANDARD - VERSION 2.0
WRAP .                   NO:  One line per depth step
~Well Information Block
#MNEM.UNIT        Data Type   Information
#---------- ----------------  -----------
STRT .FT             780.00:  START DEPTH
STOP .FT            8996.00:  STOP DEPTH
STEP .FT               0.50:  STEP
NULL .              -999.25:  NULL VALUE
COMP .                     :  COMPANY
WELL .                STA-4:  WELL
FLD  .                     :  FIELD
LOC  .                     :  LOCATION
CTRY .                     :  COUNTRY
STAT .                     :  STATE
CNTY .                     :  COUNTY
SRVC .                     :  SERVICE COMPANY
DATE .                     :  DATE
API  .                     :  API NUMBER
UWI  .                     :  UNIQUE WELL ID
~Curve Information Block
#MNEM.UNIT         API CODE   Curve Description
#---------- ----------------  -----------------
DEPTH.FT                   :  DEPTH
GR   .GAPI                 :  Gamma Ray
RT   .OHMM                 :  SEDP
RHOB .G/C3                 :  Bulk Density
NPHI .V/V                  :  Neutron porosity
~Parameter Information Block
#MNEM.UNIT            Value   Description
#---------- ----------------  -----------
PROJECT.            SANTAN_FE:  
~Other Information Block
# 
~A       DEPTH             GR             RT           RHOB           NPHI 
# ...
       2973.50        26.4800         1.2400         2.0400       0.453700
       2974.00        26.3200         1.0300         2.0400       0.465400
       2974.50        26.8300         1.0300         2.0400       0.466100
       2975.00        27.3200         1.1900         2.0500       0.467200
       2975.50        29.4100         1.2200         2.0500       0.463800
       2976.00        32.1000         1.1500         2.0600       0.446100
       2976.50        34.2000         1.2000         2.0700       0.428100
       2977.00        37.8800         1.3600         2.0800       0.424000
       2977.50        55.8000         1.3900         2.0800       0.424600
       2978.00        56.7900         1.3900         2.0600       0.425900
       2978.50        53.4300         1.4000         2.0700       0.428700
       2979.00        60.2800         1.4300         2.0800       0.439600
       2979.50        63.4800         1.3900         2.0800       0.473700
       2980.00        64.1600         1.3300         2.0900       0.484000
       2980.50        65.7300         1.3300         2.1000       0.490900
       2981.00        72.6600         1.3700         2.1100       0.503200
       2981.50        78.9900         1.3600         2.1200       0.509900
       2982.00        80.0200         1.3000         2.1300       0.515500
       2982.50        80.1800         1.2300         2.1300       0.520100
       2983.00        79.7200         1.1600         2.1400       0.523700
       2983.50        77.9500         1.1100         2.1300       0.529600
       2984.00        71.2600         1.0900         2.1300       0.532400
       2984.50        63.9600         1.1000         2.1200       0.534300
       2985.00        58.3700         1.2100         2.1100       0.537400
       2985.50        60.0500         1.3600         2.1000       0.540000
       2986.00        70.1900         1.4200         2.1000       0.541200
       2986.50        72.4900         1.4600         2.0900       0.541000
       2987.00        82.4500         1.4700         2.0800       0.541900
       2987.50        82.6900         1.4000         2.0700       0.543800
       2988.00        76.5300         1.3900         2.0700       0.551200
       2988.50        71.9600         1.4900         2.0600       0.550800
       2989.00        67.6900         1.5300         2.0600       0.549500
       2989.50        54.3900         1.5400         2.0700       0.547700
       2990.00        53.8400         1.5500         2.0700       0.541200
       2990.50        55.5100         1.5700         2.0800       0.526400
       2991.00        57.9400         1.5600         2.0900       0.521200
       2991.50        61.2100         1.5400         2.1000       0.521300
       2992.00        66.2400         1.5500         2.1100       0.520500
       2992.50        67.7500         1.5800         2.1200       0.521700
       2993.00        72.7500         1.5900         2.1300       0.523800
       2993.50        77.2600         1.5700         2.1400       0.524500
       2994.00        68.9800         1.5900         2.1400       0.523900
       2994.50        57.7300         1.5700         2.1500       0.522300
       2995.00        63.8300         1.5200         2.1500       0.520400
       2995.50        71.1000         1.5000         2.1500       0.516900
       2996.00        71.0100         1.4900         2.1600       0.505400
       2996.50        68.3700         1.4100         2.1700       0.494700
       2997.00        71.5800         1.2200         2.1700       0.491900
       2997.50        74.6300         1.2900         2.1800       0.490000
       2998.00        74.0500         1.5500         2.1900       0.488000
       2998.50        61.3700         1.5700         2.2000       0.486600
       2999.00        47.8900         1.5400         2.2000       0.486000
       2999.50        46.3800         1.5800         2.2100       0.484900
       3000.00        65.0900         1.6300         2.2200       0.482000
       3000.50        76.1000         1.6400         2.2200       0.478900
       3001.00        72.9800         1.6400         2.2200       0.476000
       3001.50        51.6500         1.6200         2.2200       0.473300
       3002.00        72.9400         1.6100         2.2200       0.471000
       3002.50        71.5000         1.6000         2.2300       0.469600
       3003.00        42.1200         1.5800         2.2300       0.467000
       3003.50        40.1400         1.4900         2.2200       0.466400
       3004.00        44.5800         1.4500         2.2200       0.461100
       3004.50        57.8300         1.4300         2.2200       0.443400
       3005.00        76.0200         1.4200         2.2000       0.426800
       3005.50        80.5400         1.2400         2.1700       0.427800
       3006.00        82.2400         1.2600         2.1700       0.434300
       3006.50        79.2300         1.3900         2.1700       0.441200
       3007.00        75.2800         1.4400         2.1600       0.457500
       3007.50        69.7800         1.4300         2.1600       0.514300
       3008.00        68.0600         1.4400         2.1700       0.565600
       3008.50        67.5700         1.4400         2.1700       0.571500
       3009.00        74.1300         1.4400         2.1700       0.569500
       3009.50        73.0100         1.4400         2.1700       0.570300
       3010.00        67.6100         1.4600         2.1700       0.555600
       3010.50        66.0400         1.4800         2.1600       0.496600
       3011.00        63.5200         1.4700         2.1600       0.482400
       3011.50        58.7700         1.4300         2.1500       0.474100
       3012.00        57.9800         1.3700         2.1500       0.464400
       3012.50        59.1600         1.3400         2.1400       0.450800
       3013.00        52.5400         1.3100         2.1400       0.443700
       3013.50        41.0600         1.2200         2.1300       0.443300
       3014.00        58.1900         1.1600         2.1300       0.449700
       3014.50        60.7700         1.1400         2.1200       0.466100
       3015.00        62.3900         1.2500         2.1200       0.474300
       3015.50        64.6100         1.2800         2.1200       0.477600
       3016.00        66.1100         1.2800         2.1200       0.483400
       3016.50        64.9500         1.2900         2.1200       0.494800
       3017.00        64.6100         1.2900         2.1200       0.516900
       3017.50        64.6500         1.2900         2.1200       0.522600
       3018.00        58.1800         1.3000         2.1300       0.512700
       3018.50        58.3000         1.3100         2.1300       0.501900
       3019.00        67.1400         1.3200         2.1300       0.499900
       3019.50        74.0400         1.3300         2.1300       0.500500
       3020.00        71.6300         1.3400         2.1300       0.501300
       3020.50        66.7000         1.3400         2.1300       0.503600
       3021.00        69.6000         1.3500         2.1300       0.509900
       3021.50        52.4300         1.3600         2.1300       0.511000
       3022.00        44.0800         1.3500         2.1400       0.510800
       3022.50        56.9900         1.2900         2.1400       0.508300
       3023.00        71.2700         1.3300         2.1400       0.500800
       3023.50        72.4600         1.3800         2.1400       0.493700
       3024.00        74.0400         1.4200         2.1400       0.495100
       3024.50        75.8100         1.4400         2.1400       0.504500
       3025.00        76.1200         1.4600         2.1400       0.513600
       3025.50        74.2200         1.4700         2.1400       0.519400
       3026.00        72.4000         1.4800         2.1400       0.532400
       3026.50        71.5000         1.4800         2.1400       0.542900
