~Version Information Block
VERS .                  2.0:  CWLS LOG ASCII STANDARD - VERSION 2.0
WRAP .                   NO:  One line per depth step
~Well Information Block
#MNEM.UNIT        Data Type   Information
#---------- ----------------  -----------
STRT .FT            6415.50:  START DEPTH
STOP .FT           16132.50:  STOP DEPTH
STEP .FT               0.50:  STEP
NULL .              -999.25:  NULL VALUE
COMP .                     :  COMPANY
WELL .               STA-33:  WELL
FLD  .                     :  FIELD
LOC  .                     :  LOCATION
CTRY .                     :  COUNTRY
STAT .                     :  STATE
CNTY .                     :  COUNTY
SRVC .                     :  SERVICE COMPANY
DATE .                     :  DATE
API  .                     :  API NUMBER
UWI  .                     :  UNIQUE WELL ID
~Curve Information Block
#MNEM.UNIT         API CODE   Curve Description
#---------- ----------------  -----------------
DEPTH.FT                   :  Depth
GR   .GAPI                 :  Gamma Ray
RT   .OHMM                 :  True Resistivity
RHOB .G/C3                 :  Bulk Density
NPHI .V/V                  :  Neutron Porosity
~Parameter Information Block
#MNEM.UNIT            Value   Description
#---------- ----------------  -----------
PROJECT.            SANTAN_FE:  
~Other Information Block
# 
~A       DEPTH             GR             RT           RHOB           NPHI 
# ...
      10909.50        90.7465         2.6761         2.4613       0.243600
      10910.00        93.0824         2.6822         2.4623       0.251000
      10910.50        96.8647         2.6944         2.4675       0.257400
      10911.00        97.4625         2.7098         2.4714       0.258600
      10911.50        94.9921         2.6938         2.4750       0.255900
      10912.00        95.7482         2.6037         2.4797       0.256200
      10912.50        90.0784         2.4762         2.4878       0.265100
      10913.00        89.0214         2.4280         2.4981       0.279500
      10913.50        88.4564         2.3621         2.5085       0.288700
      10914.00        91.2039         2.2717         2.5140       0.288100
      10914.50        86.3852         2.1674         2.5118       0.286300
      10915.00        89.4756         2.0393         2.5101       0.285300
      10915.50        93.2919         1.9994         2.5139       0.281100
      10916.00        91.9321         2.0324         2.5123       0.273100
      10916.50        87.3214         2.0566         2.5009       0.264900
      10917.00        85.6662         2.0798         2.4907       0.262300
      10917.50        86.0366         2.1252         2.4849       0.262000
      10918.00        81.0810         2.2331         2.4796       0.258400
      10918.50        76.2367         2.3265         2.4705       0.252000
      10919.00        75.7025         2.3084         2.4636       0.243400
      10919.50        75.7759         2.3345         2.4643       0.235600
      10920.00        71.0335         2.3476         2.4645       0.229200
      10920.50        67.3068         2.3287         2.4551       0.221500
      10921.00        63.3582         2.3114         2.4375       0.219400
      10921.50        63.9789         2.2881         2.4226       0.223600
      10922.00        62.2864         2.2703         2.4195       0.233100
      10922.50        61.1991         2.2556         2.4218       0.246100
      10923.00        58.3400         2.2023         2.4233       0.254400
      10923.50        62.2763         2.1615         2.4329       0.252200
      10924.00        67.3018         2.1661         2.4623       0.243400
      10924.50        68.5718         2.1832         2.4947       0.233300
      10925.00        71.8934         2.2779         2.5117       0.223900
      10925.50        68.1842         2.3622         2.5100       0.216500
      10926.00        68.9752         2.3982         2.4968       0.211600
      10926.50        65.6359         2.4536         2.4836       0.210800
      10927.00        68.3567         2.5057         2.4789       0.212800
      10927.50        66.1579         2.5512         2.4840       0.214100
      10928.00        65.8983         2.5784         2.4903       0.215000
      10928.50        67.9743         2.5828         2.4881       0.219700
      10929.00        65.7817         2.5668         2.4781       0.227300
      10929.50        62.8518         2.5360         2.4712       0.230900
      10930.00        61.9329         2.4982         2.4747       0.232000
      10930.50        65.8919         2.4746         2.4813       0.232300
      10931.00        71.0420         2.4639         2.4879       0.229200
      10931.50        69.8959         2.4737         2.4941       0.221100
      10932.00        68.3085         2.5596         2.4959       0.213000
      10932.50        63.3890         2.6040         2.4903       0.210500
      10933.00        60.8994         2.5912         2.4827       0.212100
      10933.50        59.4530         2.5844         2.4743       0.217600
      10934.00        58.6790         2.5047         2.4604       0.224100
      10934.50        59.2227         2.4834         2.4451       0.225700
      10935.00        59.9775         2.4409         2.4363       0.224500
      10935.50        60.2790         2.3767         2.4369       0.229600
      10936.00        58.6832         2.3438         2.4450       0.236400
      10936.50        63.7832         2.3359         2.4536       0.231000
      10937.00        64.9378         2.3735         2.4610       0.223200
      10937.50        69.4780         2.4288         2.4742       0.224500
      10938.00        67.3512         2.4733         2.4904       0.227000
      10938.50        69.2799         2.4998         2.4992       0.222800
      10939.00        73.4501         2.5088         2.5059       0.219500
      10939.50        75.1854         2.5025         2.5118       0.221300
      10940.00        76.6904         2.4775         2.5123       0.223800
      10940.50        81.3230         2.4290         2.5156       0.225500
      10941.00        84.0727         2.3837         2.5268       0.232500
      10941.50        86.6202         2.3489         2.5349       0.246400
      10942.00        84.1088         2.3116         2.5369       0.259500
      10942.50        82.9681         2.2615         2.5398       0.261700
      10943.00        84.5340         2.2258         2.5409       0.254700
      10943.50        82.5762         2.2310         2.5356       0.252900
      10944.00        81.7884         2.2621         2.5268       0.259000
      10944.50        84.0158         2.2549         2.5196       0.267200
      10945.00        86.3722         2.2321         2.5170       0.272100
      10945.50        84.9712         2.2418         2.5179       0.274800
      10946.00        86.7966         2.2284         2.5210       0.277200
      10946.50        88.2505         2.1635         2.5226       0.277800
      10947.00        85.3097         2.0810         2.5215       0.282700
      10947.50        85.7463         2.0469         2.5210       0.291500
      10948.00        89.1550         1.9978         2.5216       0.294800
      10948.50        87.9444         1.9343         2.5191       0.291000
      10949.00        89.0332         1.9201         2.5147       0.285700
      10949.50        90.0979         1.8478         2.5175       0.284400
      10950.00        89.6511         1.8043         2.5261       0.287900
      10950.50        95.0012         1.7764         2.5255       0.292700
      10951.00       103.0291         1.7555         2.5177       0.298000
      10951.50       103.3993         1.7024         2.5166       0.304200
      10952.00        98.4750         1.6351         2.5256       0.311100
      10952.50        96.3054         1.6394         2.5319       0.315200
      10953.00        94.5846         1.6514         2.5263       0.313900
      10953.50        91.0823         1.6952         2.5112       0.312400
      10954.00        90.3163         1.7164         2.5027       0.317700
      10954.50        95.2658         1.7008         2.5073       0.328700
      10955.00       100.7010         1.6736         2.5172       0.328800
      10955.50        95.8188         1.6890         2.5279       0.313500
      10956.00        93.5354         1.7124         2.5340       0.304900
      10956.50        96.0063         1.7886         2.5342       0.310300
      10957.00        96.3150         1.8128         2.5280       0.316300
      10957.50        95.2235         1.7953         2.5163       0.313700
      10958.00        93.4597         1.7994         2.5064       0.311900
      10958.50        94.1066         1.8475         2.5075       0.313500
      10959.00        94.9514         1.8402         2.5159       0.310300
      10959.50        95.0796         1.8119         2.5188       0.309900
      10960.00        97.2429         1.8642         2.5146       0.317600
      10960.50        95.2032         1.8614         2.5133       0.318100
      10961.00        92.0623         1.8615         2.5186       0.312800
      10961.50        92.9339         1.8648         2.5211       0.311200
      10962.00        95.3352         1.8473         2.5192       0.313400
      10962.50        97.5670         1.8171         2.5211       0.315100
