~Version Information Block
VERS .                  2.0:  CWLS LOG ASCII STANDARD - VERSION 2.0
WRAP .                   NO:  One line per depth step
~Well Information Block
#MNEM.UNIT        Data Type   Information
#---------- ----------------  -----------
STRT .FT            6091.50:  START DEPTH
STOP .FT           14295.50:  STOP DEPTH
STEP .FT               0.50:  STEP
NULL .              -999.25:  NULL VALUE
COMP .                     :  COMPANY
WELL .               STA-35:  WELL
FLD  .                     :  FIELD
LOC  .                     :  LOCATION
CTRY .                     :  COUNTRY
STAT .                     :  STATE
CNTY .                     :  COUNTY
SRVC .                     :  SERVICE COMPANY
DATE .                     :  DATE
API  .                     :  API NUMBER
UWI  .                     :  UNIQUE WELL ID
~Curve Information Block
#MNEM.UNIT         API CODE   Curve Description
#---------- ----------------  -----------------
DEPTH.FT                   :  Depth
GR   .GAPI                 :  Gamma Ray
RT   .OHMM                 :  True Resistivity
RHOB .G/C3                 :  Bulk Density
NPHI .V/V                  :  Neutron Porosity
~Parameter Information Block
#MNEM.UNIT            Value   Description
#---------- ----------------  -----------
PROJECT.            SANTAN_FE:  
~Other Information Block
# 
~A       DEPTH             GR             RT           RHOB           NPHI 
# ...
      11548.50        60.2288         3.3915         2.4995       0.134000
      11549.00        63.8515         3.2388         2.4756       0.150300
      11549.50        69.9720         3.0431         2.4739       0.165300
      11550.00        77.4264         3.0168         2.5184       0.171000
      11550.50        74.6904         3.1364         2.5621       0.169300
      11551.00        74.1059         3.1991         2.5726       0.167800
      11551.50        75.8231         3.1337         2.5654       0.173300
      11552.00        77.1704         2.9542         2.5620       0.183800
      11552.50        78.7387         2.7230         2.5652       0.195700
      11553.00        85.3285         2.5737         2.5709       0.207700
      11553.50        86.3610         2.4645         2.5788       0.216700
      11554.00        93.8936         2.3769         2.5816       0.220100
      11554.50        93.3508         2.3203         2.5656       0.221100
      11555.00        93.8386         2.2987         2.5449       0.220200
      11555.50        92.8233         2.3492         2.5442       0.215900
      11556.00        90.6213         2.3795         2.5605       0.207700
      11556.50        88.6607         2.4760         2.5787       0.196900
      11557.00        87.0552         2.5918         2.5903       0.188800
      11557.50        85.5150         2.6645         2.5917       0.187300
      11558.00        83.0551         2.8303         2.5828       0.183900
      11558.50        82.5257         2.9421         2.5711       0.167600
      11559.00        70.1538         3.4626         2.5661       0.149900
      11559.50        66.8343         3.8039         2.5643       0.146200
      11560.00        72.1588         3.7512         2.5615       0.144300
      11560.50        76.7482         3.8103         2.5565       0.133200
      11561.00        72.8621         4.6812         2.5449       0.118700
      11561.50        65.8934         5.6218         2.5303       0.109200
      11562.00        61.7448         6.1251         2.5181       0.103600
      11562.50        54.8803         6.4626         2.5117       0.100200
      11563.00        48.1746         7.1088         2.5124       0.098900
      11563.50        46.8017         7.7658         2.5155       0.098800
      11564.00        46.5296         8.1176         2.5239       0.097900
      11564.50        47.7007         8.3232         2.5333       0.095300
      11565.00        47.6112         8.7432         2.5400       0.092600
      11565.50        46.4187         9.4133         2.5585       0.091800
      11566.00        46.7823        10.4245         2.5970       0.093700
      11566.50        47.2279        11.6822         2.6423       0.100400
      11567.00        49.2290        11.8066         2.6504       0.110000
      11567.50        57.3076        10.6882         2.6070       0.114500
      11568.00        57.2119         9.2361         2.5568       0.112500
      11568.50        53.5466         8.1511         2.5392       0.110700
      11569.00        51.2136         7.2225         2.5394       0.111500
      11569.50        51.2830         6.6973         2.5387       0.113200
      11570.00        52.2221         6.2696         2.5353       0.117400
      11570.50        51.7660         5.4549         2.5212       0.124700
      11571.00        50.9903         4.6209         2.4941       0.133800
      11571.50        52.5803         4.1057         2.4720       0.140300
      11572.00        55.3931         4.0260         2.4805       0.140000
      11572.50        60.6656         3.9811         2.5093       0.136800
      11573.00        68.7620         3.9288         2.5387       0.135000
      11573.50        66.9618         3.9571         2.5602       0.133300
      11574.00        69.2119         4.0473         2.5604       0.133000
      11574.50        64.9171         4.2554         2.5438       0.133800
      11575.00        64.4999         4.4651         2.5419       0.131800
      11575.50        66.5144         4.2266         2.5607       0.132800
      11576.00        67.1044         3.5830         2.5858       0.144100
      11576.50        72.2144         3.3223         2.6000       0.156000
      11577.00        77.8556         3.3489         2.6003       0.157200
      11577.50        80.0251         3.4114         2.5953       0.156800
      11578.00        71.5993         3.4038         2.5799       0.164700
      11578.50        71.0884         3.1443         2.5589       0.182500
      11579.00        86.2378         2.6637         2.5566       0.201900
      11579.50        96.8295         2.4756         2.5748       0.208200
      11580.00        96.0346         2.4274         2.5947       0.206400
      11580.50        95.7310         2.3927         2.6102       0.204200
      11581.00        94.3167         2.3607         2.6176       0.199600
      11581.50        89.2981         2.3913         2.6191       0.194000
      11582.00        85.0605         2.4838         2.6225       0.188900
      11582.50        78.8406         2.5653         2.6163       0.178800
      11583.00        75.1293         2.7824         2.5970       0.163600
      11583.50        67.8963         3.0449         2.5802       0.148800
      11584.00        64.8166         3.2081         2.5670       0.140500
      11584.50        66.0587         3.2881         2.5539       0.140600
      11585.00        70.4054         3.3000         2.5481       0.146600
      11585.50        72.4498         3.1866         2.5506       0.156100
      11586.00        75.3854         3.0942         2.5559       0.163100
      11586.50        69.0028         3.1924         2.5571       0.163400
      11587.00        66.9549         3.2630         2.5461       0.159100
      11587.50        61.5801         3.3706         2.5264       0.151500
      11588.00        51.4007         3.5337         2.5116       0.137700
      11588.50        42.7377         3.8404         2.5131       0.118600
      11589.00        37.4202         4.2065         2.5330       0.103100
      11589.50        37.5961         3.8201         2.5462       0.112500
      11590.00        40.8591         3.1180         2.5351       0.146500
      11590.50        59.6637         2.7851         2.5289       0.164500
      11591.00        74.5400         2.8138         2.5473       0.167100
      11591.50        76.8200         2.8948         2.5619       0.168100
      11592.00        69.2500         2.8759         2.5505       0.176300
      11592.50        72.0101         2.7547         2.5421       0.193600
      11593.00        79.5413         2.5352         2.5557       0.219000
      11593.50        87.3865         2.2446         2.5779       0.239600
      11594.00        98.2157         1.9952         2.5903       0.244600
      11594.50       103.1040         1.9139         2.5827       0.242600
      11595.00       102.7186         1.9653         2.5753       0.240100
      11595.50       102.1414         1.9991         2.5789       0.231900
      11596.00       102.1301         2.1090         2.5742       0.206300
      11596.50        93.3039         2.3324         2.5622       0.169800
      11597.00        89.0565         2.8595         2.5613       0.144000
      11597.50        69.6450         3.3727         2.5666       0.139500
      11598.00        61.6090         3.5280         2.5663       0.150300
      11598.50        65.3903         3.4702         2.5590       0.160400
      11599.00        73.2958         3.3855         2.5544       0.164400
      11599.50        79.9270         3.3269         2.5563       0.163300
      11600.00        81.0377         3.3377         2.5582       0.160000
      11600.50        79.4312         3.3885         2.5549       0.159100
      11601.00        78.7181         3.4188         2.5509       0.159900
      11601.50        76.0732         3.3742         2.5513       0.154700
