~Version Information Block
VERS .                  2.0:  CWLS LOG ASCII STANDARD - VERSION 2.0
WRAP .                   NO:  One line per depth step
~Well Information Block
#MNEM.UNIT        Data Type   Information
#---------- ----------------  -----------
STRT .FT             224.00:  START DEPTH
STOP .FT            7977.50:  STOP DEPTH
STEP .FT               0.50:  STEP
NULL .              -999.25:  NULL VALUE
COMP .                     :  COMPANY
WELL .               STA-22:  WELL
FLD  .                     :  FIELD
LOC  .                     :  LOCATION
CTRY .                     :  COUNTRY
STAT .                     :  STATE
CNTY .                     :  COUNTY
SRVC .                     :  SERVICE COMPANY
DATE .                     :  DATE
API  .                     :  API NUMBER
UWI  .                     :  UNIQUE WELL ID
~Curve Information Block
#MNEM.UNIT         API CODE   Curve Description
#---------- ----------------  -----------------
DEPTH.FT                   :  DEPTH
GR   .GAPI                 :  Gamma Ray
RT   .OHMM                 :  RESDE
RHOB .G/C3                 :  Bulk Density
NPHI .V/V                  :  Thermal Neutron Porosity (Ratio Method) in Selected Lithology
~Parameter Information Block
#MNEM.UNIT            Value   Description
#---------- ----------------  -----------
PROJECT.            SANTAN_FE:  
~Other Information Block
# 
~A       DEPTH             GR             RT           RHOB           NPHI 
# ...
       6911.50        81.6200         0.9105         2.4346       0.456500
       6912.00        80.5400         1.0241         2.4477       0.449400
       6912.50        80.5400         1.0964         2.4354       0.451400
       6913.00        81.6300         1.0808         2.4108       0.462500
       6913.50        82.7100         0.9745         2.3731       0.473600
       6914.00        83.1700         0.9179         2.3500       0.487000
       6914.50        83.4800         0.9026         2.3477       0.493600
       6915.00        82.5500         0.8777         2.3492       0.480300
       6915.50        81.6300         0.8551         2.3800       0.465100
       6916.00        80.2300         0.8650         2.3800       0.456700
       6916.50        79.7700         0.9227         2.3823       0.445900
       6917.00        76.0600         1.1142         2.3992       0.415000
       6917.50        71.8900         1.6340         2.4437       0.364500
       6918.00        65.3900         2.3529         2.4740       0.315200
       6918.50        59.8300         2.7141         2.3948       0.284900
       6919.00        53.0300         2.4465         2.2825       0.281800
       6919.50        47.9200         2.3654         2.1808       0.301200
       6920.00        45.6100         2.3700         2.1523       0.324700
       6920.50        47.1500         2.1542         2.1783       0.339400
       6921.00        53.1800         1.7431         2.2606       0.352600
       6921.50        60.2900         1.3933         2.3460       0.367900
       6922.00        66.4800         1.1890         2.4046       0.383100
       6922.50        70.6600         1.0960         2.4200       0.400400
       6923.00        73.2800         1.0338         2.4131       0.416200
       6923.50        75.4400         1.0046         2.3877       0.415300
       6924.00        76.5200         0.9923         2.3754       0.410300
       6924.50        77.4500         0.9900         2.3737       0.410400
       6925.00        77.6100         1.0517         2.4246       0.415700
       6925.50        76.5200         1.1933         2.4446       0.410400
       6926.00        75.1300         1.2531         2.4508       0.396500
       6926.50        74.2000         1.1829         2.4223       0.385900
       6927.00        73.2800         1.1292         2.4208       0.388600
       6927.50        73.2800         1.0892         2.3854       0.407600
       6928.00        73.2800         1.0338         2.3654       0.420700
       6928.50        74.0500         0.9815         2.3592       0.420500
       6929.00        74.6700         0.9546         2.3854       0.417500
       6929.50        76.2100         0.9346         2.3677       0.428700
       6930.00        78.2200         0.9146         2.3577       0.442700
       6930.50        79.9200         0.8946         2.3523       0.448200
       6931.00        81.1600         0.8823         2.3531       0.441400
       6931.50        81.1600         0.8954         2.3277       0.429200
       6932.00        81.1600         0.8923         2.3246       0.406800
       6932.50        79.7700         0.8900         2.3469       0.407000
       6933.00        77.4500         1.0519         2.3814       0.415800
       6933.50        75.1300         1.2850         2.4086       0.432900
       6934.00        72.8100         1.4017         2.3609       0.405000
       6934.50        72.3500         1.4740         2.3209       0.371500
       6935.00        72.3500         1.5054         2.2946       0.345200
       6935.50        73.7400         1.4406         2.3123       0.340700
       6936.00        75.1300         1.4740         2.3177       0.322200
       6936.50        76.5200         1.7598         2.2963       0.296800
       6937.00        76.9900         2.0019         2.2409       0.279000
       6937.50        77.9200         2.0500         2.2100       0.292900
       6938.00        78.3800         1.7417         2.2328       0.328100
       6938.50        80.2300         1.3262         2.3260       0.381200
       6939.00        80.7000         1.0835         2.3914       0.420700
       6939.50        81.6300         0.9937         2.4209       0.447800
       6940.00        80.7000         0.9646         2.3877       0.452600
       6940.50        80.7000         0.9446         2.3846       0.459500
       6941.00        80.2300         0.9246         2.3977       0.455100
       6941.50        80.3900         0.9123         2.3900       0.464100
       6942.00        80.2300         0.8868         2.3900       0.466900
       6942.50        80.2300         0.8646         2.3946       0.474700
       6943.00        81.0100         0.8368         2.4054       0.464500
       6943.50        81.6300         0.8223         2.3854       0.449000
       6944.00        81.6300         0.8046         2.3677       0.441200
       6944.50        80.2300         0.7923         2.3577       0.433000
       6945.00        76.0600         0.9058         2.3454       0.409700
       6945.50        70.4900         1.2179         2.3391       0.377400
       6946.00        65.2400         1.7014         2.3768       0.337000
       6946.50        62.4600         2.1133         2.4045       0.316400
       6947.00        62.6100         2.2000         2.3958       0.310000
       6947.50        66.1700         1.7947         2.2952       0.331100
       6948.00        72.6600         1.4419         2.2400       0.365800
       6948.50        81.4700         1.2794         2.2439       0.401700
       6949.00        88.7400         1.2125         2.2618       0.411600
       6949.50        94.7700         1.1851         2.2665       0.413200
       6950.00        96.9300         1.1800         2.2517       0.414700
       6950.50        98.3200         1.1505         2.2616       0.436500
       6951.00        98.1600         1.0083         2.2759       0.462400
       6951.50        97.5400         0.8364         2.3156       0.488100
       6952.00        96.2900         0.7322         2.3526       0.472600
       6952.50        90.8900         0.7387         2.3712       0.438300
       6953.00        84.5500         0.8498         2.3823       0.415000
       6953.50        76.8300         1.0317         2.4010       0.398800
       6954.00        71.7300         1.0759         2.4090       0.389700
       6954.50        67.8700         1.0141         2.3983       0.380000
       6955.00        65.2400         0.9761         2.3800       0.375600
       6955.50        64.3100         1.0390         2.3807       0.391700
       6956.00        63.5400         1.1385         2.3876       0.392400
       6956.50        62.6100         1.2380         2.3485       0.391800
       6957.00        62.1500         1.1619         2.3200       0.377900
       6957.50        63.0700         0.9759         2.3203       0.377200
       6958.00        65.3900         0.8634         2.3310       0.387700
       6958.50        68.1800         0.8400         2.3699       0.398400
       6959.00        70.0300         0.8597         2.3599       0.402900
       6959.50        70.9600         0.8700         2.3401       0.398800
       6960.00        69.1000         0.8765         2.3103       0.393500
       6960.50        67.2500         0.8928         2.2904       0.396100
       6961.00        64.4700         0.9829         2.3191       0.392200
       6961.50        64.0000         1.0490         2.3200       0.383000
       6962.00        62.1500         1.0411         2.3486       0.376200
       6962.50        60.1400         0.9926         2.3123       0.378600
       6963.00        57.3500         0.9576         2.2819       0.391100
       6963.50        56.4300         0.9254         2.2707       0.397000
       6964.00        57.0400         0.8856         2.2608       0.395800
       6964.50        57.9700         0.8640         2.2418       0.392200
