~Version Information Block
VERS .                  2.0:  CWLS LOG ASCII STANDARD - VERSION 2.0
WRAP .                   NO:  One line per depth step
~Well Information Block
#MNEM.UNIT        Data Type   Information
#---------- ----------------  -----------
STRT .FT            6415.50:  START DEPTH
STOP .FT           16132.50:  STOP DEPTH
STEP .FT               0.50:  STEP
NULL .              -999.25:  NULL VALUE
COMP .                     :  COMPANY
WELL .               STA-33:  WELL
FLD  .                     :  FIELD
LOC  .                     :  LOCATION
CTRY .                     :  COUNTRY
STAT .                     :  STATE
CNTY .                     :  COUNTY
SRVC .                     :  SERVICE COMPANY
DATE .                     :  DATE
API  .                     :  API NUMBER
UWI  .                     :  UNIQUE WELL ID
~Curve Information Block
#MNEM.UNIT         API CODE   Curve Description
#---------- ----------------  -----------------
DEPTH.FT                   :  Depth
GR   .GAPI                 :  Gamma Ray
RT   .OHMM                 :  True Resistivity
RHOB .G/C3                 :  Bulk Density
NPHI .V/V                  :  Neutron Porosity
~Parameter Information Block
#MNEM.UNIT            Value   Description
#---------- ----------------  -----------
PROJECT.            SANTAN_FE:  
~Other Information Block
# 
~A       DEPTH             GR             RT           RHOB           NPHI 
# ...
       7699.50        61.4807         2.3640         2.2426       0.320800
       7700.00        62.8592         2.3612         2.2351       0.331400
       7700.50        64.8574         2.3498         2.2369       0.347700
       7701.00        67.6478         2.3485         2.2420       0.364800
       7701.50        70.8260         2.3409         2.2437       0.371100
       7702.00        67.7546         2.3208         2.2442       0.364400
       7702.50        71.0652         2.3080         2.2477       0.357500
       7703.00        71.6676         2.2956         2.2532       0.356000
       7703.50        67.2612         2.2871         2.2571       0.351100
       7704.00        70.8030         2.2768         2.2587       0.346700
       7704.50        72.0815         2.2627         2.2609       0.355000
       7705.00        77.3361         2.2335         2.2619       0.360800
       7705.50        75.6113         2.1999         2.2596       0.352000
       7706.00        77.7219         2.1766         2.2562       0.339500
       7706.50        77.2498         2.1625         2.2562       0.341800
       7707.00        81.2612         2.1379         2.2571       0.358200
       7707.50        77.7766         2.1301         2.2541       0.372200
       7708.00        73.4761         2.0967         2.2497       0.372600
       7708.50        70.4519         2.0680         2.2461       0.364500
       7709.00        68.2288         2.1248         2.2402       0.359700
       7709.50        68.0778         2.1079         2.2333       0.358100
       7710.00        66.8497         2.1119         2.2295       0.356200
       7710.50        62.6746         2.2101         2.2327       0.355700
       7711.00        62.1597         2.1955         2.2438       0.358300
       7711.50        64.5652         2.1178         2.2540       0.360500
       7712.00        61.8965         2.1289         2.2510       0.358900
       7712.50        62.4189         2.0265         2.2424       0.359200
       7713.00        64.7857         1.9303         2.2420       0.359800
       7713.50        65.9937         1.8028         2.2555       0.358300
       7714.00        67.4450         1.7742         2.2772       0.359800
       7714.50        67.9984         1.8561         2.2932       0.359600
       7715.00        67.0305         1.8980         2.2981       0.358300
       7715.50        70.5644         1.8455         2.2982       0.364600
       7716.00        77.0758         1.7545         2.3032       0.370400
       7716.50        73.7410         1.6979         2.3153       0.375600
       7717.00        77.6721         1.7467         2.3223       0.381100
       7717.50        76.1655         1.8030         2.3200       0.383600
       7718.00        75.0803         1.8691         2.3131       0.390900
       7718.50        77.4108         1.8822         2.3070       0.402600
       7719.00        74.8727         1.8074         2.3096       0.404600
       7719.50        77.4431         1.7597         2.3196       0.398400
       7720.00        78.0961         1.7546         2.3264       0.392400
       7720.50        78.6467         1.7913         2.3333       0.380400
       7721.00        78.7267         1.8177         2.3462       0.364100
       7721.50        74.7202         1.8530         2.3613       0.354100
       7722.00        74.7140         2.1182         2.3759       0.355500
       7722.50        74.1085         2.0934         2.3900       0.370400
       7723.00        80.4281         1.9391         2.3957       0.386400
       7723.50        81.3794         1.8236         2.3879       0.394000
       7724.00        82.7785         1.7102         2.3801       0.401100
       7724.50        84.7408         1.6201         2.3788       0.409800
       7725.00        92.0461         1.5789         2.3783       0.414700
       7725.50        92.4758         1.5517         2.3774       0.415600
       7726.00        89.6766         1.5173         2.3750       0.412600
       7726.50        94.0157         1.5305         2.3704       0.414500
       7727.00        93.2556         1.5429         2.3654       0.420300
       7727.50        92.3063         1.5274         2.3646       0.419500
       7728.00        88.8667         1.5247         2.3677       0.415600
       7728.50        88.7618         1.5514         2.3664       0.406400
       7729.00        88.8790         1.5947         2.3578       0.387100
       7729.50        87.4060         1.6143         2.3528       0.379300
       7730.00        86.5054         1.6185         2.3559       0.391100
       7730.50        90.0326         1.6500         2.3607       0.407200
       7731.00        92.7138         1.6357         2.3693       0.413800
       7731.50        91.5114         1.6099         2.3751       0.408800
       7732.00        92.4631         1.6063         2.3739       0.405100
       7732.50        92.3334         1.6173         2.3740       0.405400
       7733.00        90.1401         1.6265         2.3792       0.397700
       7733.50        91.9136         1.5873         2.3874       0.389400
       7734.00        92.9241         1.5267         2.3957       0.403000
       7734.50        91.9823         1.4869         2.4010       0.429100
       7735.00        93.2459         1.5146         2.4021       0.435000
       7735.50        95.9099         1.5297         2.3954       0.418000
       7736.00        90.9838         1.5267         2.3836       0.396700
       7736.50        87.6074         1.5465         2.3786       0.378800
       7737.00        87.7530         1.6484         2.3782       0.358900
       7737.50        82.4569         1.8623         2.3657       0.350500
       7738.00        76.3852         2.1079         2.3368       0.360000
       7738.50        72.9114         2.3007         2.3082       0.368600
       7739.00        69.7794         2.5336         2.2965       0.360800
       7739.50        77.6107         2.6728         2.3071       0.341800
       7740.00        82.5158         2.2935         2.3371       0.332000
       7740.50        89.7220         1.9319         2.3700       0.330100
       7741.00        94.9094         1.7621         2.3859       0.319700
       7741.50        98.8123         1.7250         2.3858       0.305400
       7742.00       100.1513         1.7618         2.3843       0.302600
       7742.50        96.7664         1.7612         2.3847       0.308600
       7743.00        94.7234         1.8034         2.3828       0.313400
       7743.50        92.7593         1.8212         2.3769       0.316700
       7744.00        92.8413         1.8420         2.3681       0.315000
       7744.50        88.4205         1.8568         2.3608       0.305300
       7745.00        84.8559         1.8705         2.3554       0.303700
       7745.50        79.7452         1.8816         2.3499       0.317200
       7746.00        78.2195         1.8671         2.3471       0.326300
       7746.50        74.9135         1.8061         2.3486       0.331300
       7747.00        75.3572         1.7499         2.3567       0.340600
       7747.50        76.8628         1.6922         2.3680       0.345700
       7748.00        77.8784         1.6672         2.3734       0.342100
       7748.50        73.9549         1.6264         2.3737       0.335700
       7749.00        76.0228         1.6270         2.3712       0.329800
       7749.50        75.2422         1.6638         2.3609       0.327800
       7750.00        71.5913         1.7228         2.3425       0.330400
       7750.50        68.2937         1.7945         2.3258       0.330300
       7751.00        68.2382         1.8445         2.3171       0.329900
       7751.50        67.5585         1.8600         2.3146       0.337200
       7752.00        68.5740         1.8585         2.3086       0.347600
       7752.50        70.0937         1.8579         2.2934       0.353800
