~Version Information Block
VERS .                  2.0:  CWLS LOG ASCII STANDARD - VERSION 2.0
WRAP .                   NO:  One line per depth step
~Well Information Block
#MNEM.UNIT        Data Type   Information
#---------- ----------------  -----------
STRT .FT             780.00:  START DEPTH
STOP .FT            8996.00:  STOP DEPTH
STEP .FT               0.50:  STEP
NULL .              -999.25:  NULL VALUE
COMP .                     :  COMPANY
WELL .                STA-4:  WELL
FLD  .                     :  FIELD
LOC  .                     :  LOCATION
CTRY .                     :  COUNTRY
STAT .                     :  STATE
CNTY .                     :  COUNTY
SRVC .                     :  SERVICE COMPANY
DATE .                     :  DATE
API  .                     :  API NUMBER
UWI  .                     :  UNIQUE WELL ID
~Curve Information Block
#MNEM.UNIT         API CODE   Curve Description
#---------- ----------------  -----------------
DEPTH.FT                   :  DEPTH
GR   .GAPI                 :  Gamma Ray
RT   .OHMM                 :  SEDP
RHOB .G/C3                 :  Bulk Density
NPHI .V/V                  :  Neutron porosity
~Parameter Information Block
#MNEM.UNIT            Value   Description
#---------- ----------------  -----------
PROJECT.            SANTAN_FE:  
~Other Information Block
# 
~A       DEPTH             GR             RT           RHOB           NPHI 
# ...
       8912.00        90.5000         2.1200         2.5471       0.293900
       8912.50        89.7200         2.0000         2.5585       0.316800
       8913.00        92.3700         1.9300         2.5685       0.333200
       8913.50        92.8600         1.8600         2.5786       0.345800
       8914.00        90.2200         1.7900         2.5886       0.347800
       8914.50        93.9100         1.7900         2.5900       0.327000
       8915.00        93.4900         1.7800         2.5814       0.308600
       8915.50        87.6600         1.8500         2.5543       0.300000
       8916.00        88.6300         1.9900         2.5500       0.299900
       8916.50        97.1500         2.1600         2.5586       0.308700
       8917.00        99.3700         2.2300         2.5428       0.321200
       8917.50        99.8600         2.2500         2.5314       0.328200
       8918.00        95.9900         2.2500         2.5214       0.319800
       8918.50        93.6500         2.2100         2.5114       0.297100
       8919.00        91.9300         2.2500         2.5100       0.272800
       8919.50        83.3700         2.4800         2.5186       0.254700
       8920.00        78.5900         2.6400         2.5114       0.245500
       8920.50        77.9400         2.7500         2.5100       0.241300
       8921.00        77.0500         2.9200         2.5100       0.240900
       8921.50        78.0800         3.0100         2.5186       0.246200
       8922.00        74.9200         3.0100         2.5286       0.247400
       8922.50        71.0000         3.0200         2.4869       0.245300
       8923.00        68.0100         3.0700         2.4195       0.241100
       8923.50        76.5500         3.0500         2.3841       0.236600
       8924.00        79.7400         2.9500         2.3800       0.232600
       8924.50        80.9600         2.8100         2.3541       0.238900
       8925.00        87.6100         2.7300         2.3327       0.249500
       8925.50       101.3900         2.5700         2.3473       0.266000
       8926.00       106.7000         2.2800         2.4193       0.280800
       8926.50       110.0100         2.0300         2.4733       0.296300
       8927.00       112.1900         1.8900         2.5060       0.305800
       8927.50       113.2200         1.8000         2.5274       0.306600
       8928.00       114.2500         1.7700         2.5474       0.299800
       8928.50       113.5000         1.8100         2.5587       0.301000
       8929.00       110.9300         1.8300         2.5687       0.303600
       8929.50       107.2500         1.7900         2.5787       0.269100
       8930.00       109.3600         1.7900         2.5887       0.253900
       8930.50       113.0600         1.8100         2.5813       0.262800
       8931.00       114.4600         1.8100         2.5887       0.281000
       8931.50       114.7600         1.8300         2.5900       0.291100
       8932.00       117.3100         1.8600         2.5726       0.293400
       8932.50       112.3300         1.8900         2.5613       0.300300
       8933.00       110.6000         1.9000         2.5600       0.299100
       8933.50       111.0500         1.8900         2.5600       0.302800
       8934.00       115.1700         1.8900         2.5687       0.324700
       8934.50       112.4900         1.9000         2.5700       0.342300
       8935.00       119.1300         1.9500         2.5438       0.349200
       8935.50       119.1800         2.0200         2.4962       0.352100
       8936.00       114.1700         2.0700         2.4813       0.360100
       8936.50       105.4500         2.1100         2.4713       0.363600
       8937.00       102.1700         2.1800         2.4525       0.355200
       8937.50        95.7400         2.2300         2.4237       0.354900
       8938.00        88.1200         2.2400         2.4112       0.350600
       8938.50        83.6500         2.2800         2.4363       0.321700
       8939.00        81.9200         2.3400         2.4752       0.322700
       8939.50        82.2900         2.3700         2.4888       0.296100
       8940.00        85.5400         2.3300         2.4988       0.293100
       8940.50        89.4900         2.2700         2.5176       0.291200
       8941.00        88.6800         2.2300         2.5376       0.281000
       8941.50        89.8900         2.1900         2.5576       0.273200
       8942.00        93.4000         2.1800         2.5688       0.304100
       8942.50        93.5900         2.2000         2.5876       0.279100
       8943.00        89.0900         2.2400         2.5988       0.278800
       8943.50        90.6700         2.2400         2.5912       0.301200
       8944.00        87.8100         2.2600         2.5900       0.283500
       8944.50        81.3900         2.3500         2.5900       0.280500
       8945.00        75.0400         2.4600         2.5635       0.277600
       8945.50        75.0900         2.5300         2.5512       0.287500
       8946.00        67.9400         2.5800         2.5323       0.319200
       8946.50        70.1300         2.6000         2.5123       0.278200
       8947.00        71.7600         2.5800         2.4923       0.258200
       8947.50        78.1100         2.5200         2.4989       0.251300
       8948.00        81.0900         2.4200         2.5089       0.263200
       8948.50        83.9800         2.3000         2.5189       0.257300
       8949.00        88.8000         2.2300         2.5200       0.267400
       8949.50        87.3600         2.1500         2.5200       0.284500
       8950.00        83.3100         2.0900         2.5289       0.289500
       8950.50        81.8200         2.0400         2.5300       0.321800
       8951.00        81.0000         2.0200         2.5300       0.305900
       8951.50        77.7500         2.0400         2.5300       0.310500
       8952.00        75.9100         2.1000         2.5211       0.294000
       8952.50        76.6100         2.1500         2.5200       0.294200
       8953.00        70.6100         2.1600         2.5200       0.306100
       8953.50        66.4100         2.1400         2.5289       0.340000
       8954.00        72.7800         2.1000         2.5300       0.308400
       8954.50        79.5500         2.0600         2.5389       0.319400
       8955.00        75.1300         2.0300         2.5400       0.310900
       8955.50        77.9200         1.9900         2.5311       0.294100
       8956.00        79.7000         1.9500         2.5300       0.307300
       8956.50        80.0400         1.9000         2.5389       0.317300
       8957.00        81.5800         1.8600         2.5400       0.306500
       8957.50        78.4200         1.8300         2.5400       0.299000
       8958.00        82.0700         1.8100         2.5490       0.271200
       8958.50        86.5100         1.7800         2.5590       0.286900
       8959.00        85.0400         1.7600         2.5600       0.314400
       8959.50        79.8700         1.7800         2.5510       0.296200
       8960.00        71.9600         1.8800         2.5500       0.306800
       8960.50        71.6000         2.0300         2.5590       0.299000
       8961.00        80.0800      -999.2500         2.5600       0.288400
       8961.50        86.3200      -999.2500         2.5600       0.293800
       8962.00        76.9300      -999.2500         2.5600       0.319500
       8962.50        80.6100      -999.2500         2.5510       0.328200
       8963.00        81.2800      -999.2500         2.5320       0.310500
       8963.50        76.8700      -999.2500         2.5120       0.283000
       8964.00        77.0800      -999.2500         2.5100       0.214900
       8964.50        77.5500      -999.2500         2.5280       0.311900
       8965.00        73.2000      -999.2500         2.5390       0.326300
