~Version Information Block
VERS .                  2.0:  CWLS LOG ASCII STANDARD - VERSION 2.0
WRAP .                   NO:  One line per depth step
~Well Information Block
#MNEM.UNIT        Data Type   Information
#---------- ----------------  -----------
STRT .FT            5224.50:  START DEPTH
STOP .FT           13237.50:  STOP DEPTH
STEP .FT               0.50:  STEP
NULL .              -999.25:  NULL VALUE
COMP .                     :  COMPANY
WELL .               STA-32:  WELL
FLD  .                     :  FIELD
LOC  .                     :  LOCATION
CTRY .                     :  COUNTRY
STAT .                     :  STATE
CNTY .                     :  COUNTY
SRVC .                     :  SERVICE COMPANY
DATE .                     :  DATE
API  .                     :  API NUMBER
UWI  .                     :  UNIQUE WELL ID
~Curve Information Block
#MNEM.UNIT         API CODE   Curve Description
#---------- ----------------  -----------------
DEPTH.FT                   :  Depth
GR   .GAPI                 :  Gamma Ray
RT   .OHMM                 :  True Resistivity
RHOB .G/C3                 :  Bulk Density
NPHI .V/V                  :  Neutron Porosity
~Parameter Information Block
#MNEM.UNIT            Value   Description
#---------- ----------------  -----------
PROJECT.            SANTAN_FE:  
~Other Information Block
# 
~A       DEPTH             GR             RT           RHOB           NPHI 
# ...
      11056.00        60.3006         3.4727         2.3840       0.166200
      11056.50        63.6020         3.4256         2.4143       0.164800
      11057.00        67.7051         3.3726         2.4433       0.163500
      11057.50        69.1744         3.2928         2.4669       0.165100
      11058.00        72.4883         3.1859         2.4919       0.168800
      11058.50        77.9872         3.0775         2.5204       0.171800
      11059.00        81.4893         2.9615         2.5521       0.175300
      11059.50        82.8078         2.8602         2.5715       0.178300
      11060.00        83.4291         2.7999         2.5738       0.181300
      11060.50        85.2123         2.7365         2.5725       0.185400
      11061.00        88.7118         2.6823         2.5762       0.187300
      11061.50        89.9132         2.6532         2.5763       0.186800
      11062.00        88.3626         2.6101         2.5734       0.184400
      11062.50        90.6820         2.6215         2.5735       0.184300
      11063.00        90.8731         2.6223         2.5744       0.188800
      11063.50        90.4611         2.6352         2.5741       0.196500
      11064.00        87.9640         2.6453         2.5699       0.199700
      11064.50        81.2201         2.6509         2.5607       0.193600
      11065.00        83.9259         2.6724         2.5514       0.188400
      11065.50        87.1476         2.6862         2.5487       0.184900
      11066.00        82.4234         2.6965         2.5500       0.181300
      11066.50        79.2604         2.6998         2.5491       0.180000
      11067.00        81.2343         2.6813         2.5463       0.181800
      11067.50        81.9224         2.6486         2.5424       0.183300
      11068.00        86.0556         2.6176         2.5427       0.185000
      11068.50        83.7370         2.6070         2.5484       0.191800
      11069.00        79.1728         2.6064         2.5460       0.198100
      11069.50        78.4717         2.5942         2.5409       0.198900
      11070.00        85.3945         2.5703         2.5437       0.200800
      11070.50        92.3282         2.5466         2.5495       0.206900
      11071.00        86.6911         2.4816         2.5527       0.208900
      11071.50        87.7505         2.4713         2.5495       0.200900
      11072.00        90.7272         2.4641         2.5442       0.192500
      11072.50        87.1898         2.4867         2.5400       0.191500
      11073.00        85.9960         2.4305         2.5419       0.196400
      11073.50        87.5724         2.3622         2.5462       0.204300
      11074.00        90.3366         2.3031         2.5498       0.210700
      11074.50        94.6075         2.2035         2.5531       0.216200
      11075.00        95.0474         2.1340         2.5568       0.224100
      11075.50        98.3313         2.1109         2.5601       0.232200
      11076.00       100.5098         2.1207         2.5616       0.235400
      11076.50        96.7162         2.1517         2.5608       0.234700
      11077.00        96.7176         2.1595         2.5557       0.231800
      11077.50        98.0528         2.1333         2.5499       0.226900
      11078.00        99.2989         2.1195         2.5537       0.222800
      11078.50       101.4559         2.0835         2.5718       0.221400
      11079.00       100.4662         2.0588         2.5908       0.222200
      11079.50        99.7935         2.0612         2.5980       0.226500
      11080.00       100.2829         2.0324         2.5950       0.231400
      11080.50       104.2762         2.0096         2.5873       0.236000
      11081.00       101.9903         1.9754         2.5802       0.244200
      11081.50        99.4066         1.9461         2.5710       0.250800
      11082.00       102.9635         1.9144         2.5606       0.249100
      11082.50       101.9863         1.8986         2.5622       0.244100
      11083.00       105.8559         1.8811         2.5702       0.243800
      11083.50       107.8471         1.7813         2.5635       0.249700
      11084.00       106.5412         1.7371         2.5489       0.255300
      11084.50       101.6622         1.7874         2.5525       0.255200
      11085.00       100.3559         1.7866         2.5816       0.257000
      11085.50       103.3835         1.6647         2.6021       0.262200
      11086.00       102.3261         1.6162         2.5987       0.263200
      11086.50       100.4123         1.6060         2.5940       0.262600
      11087.00       102.0240         1.6474         2.6010       0.264300
      11087.50       104.1536         1.5940         2.6098       0.266900
      11088.00       102.7246         1.5676         2.6091       0.267400
      11088.50       103.3605         1.5949         2.5996       0.260100
      11089.00       104.0852         1.6941         2.5893       0.247200
      11089.50       101.8143         1.7468         2.5859       0.245100
      11090.00       101.1115         1.6903         2.5906       0.256700
      11090.50       103.5927         1.7087         2.6027       0.262900
      11091.00       102.9895         1.7111         2.6151       0.257000
      11091.50       103.8651         1.6974         2.6198       0.251900
      11092.00       105.1192         1.6826         2.6105       0.253500
      11092.50       105.8933         1.6874         2.5869       0.258000
      11093.00       106.3353         1.6818         2.5633       0.264900
      11093.50       100.9637         1.6889         2.5545       0.270500
      11094.00       102.6129         1.6740         2.5561       0.268900
      11094.50       103.4657         1.6323         2.5651       0.265300
      11095.00       104.6593         1.6190         2.5804       0.265300
      11095.50       105.5697         1.6028         2.5940       0.266300
      11096.00       103.4535         1.6249         2.5961       0.266300
      11096.50       102.9142         1.6308         2.5885       0.263500
      11097.00       102.1103         1.6625         2.5811       0.258100
      11097.50       102.5409         1.6788         2.5814       0.255400
      11098.00        99.4988         1.6829         2.5853       0.256200
      11098.50        98.7487         1.6858         2.5867       0.254400
      11099.00        99.2537         1.6815         2.5841       0.245600
      11099.50        91.4368         1.6980         2.5740       0.225700
      11100.00        66.8736         2.4542         2.5673       0.186400
      11100.50        52.8517         3.3488         2.5766       0.134000
      11101.00        45.8198         3.7261         2.5895       0.102700
      11101.50        43.2757         4.0573         2.5881       0.104000
      11102.00        48.8312         3.9242         2.5669       0.128000
      11102.50        60.6773         3.3987         2.5224       0.159200
      11103.00        69.6898         3.0889         2.4703       0.181700
      11103.50        73.3693         3.0485         2.4445       0.187200
      11104.00        73.5252         3.0507         2.4556       0.179500
      11104.50        81.8546         3.0354         2.4897       0.170800
      11105.00        79.1761         2.9744         2.5419       0.162600
      11105.50        70.8680         3.1000         2.5968       0.149400
      11106.00        62.3240         3.6575         2.6386       0.136700
      11106.50        61.3364         3.6527         2.6664       0.132600
      11107.00        59.9050         3.3187         2.6793       0.138900
      11107.50        65.7386         2.8942         2.6677       0.153700
      11108.00        69.9036         2.5426         2.6409       0.175200
      11108.50        72.1601         2.2366         2.6196       0.192700
      11109.00        73.2168         2.2173         2.6104       0.206500
