~Version Information Block
VERS .                  2.0:  CWLS LOG ASCII STANDARD - VERSION 2.0
WRAP .                   NO:  One line per depth step
~Well Information Block
#MNEM.UNIT        Data Type   Information
#---------- ----------------  -----------
STRT .FT            3811.50:  START DEPTH
STOP .FT            9515.50:  STOP DEPTH
STEP .FT               0.50:  STEP
NULL .              -999.25:  NULL VALUE
COMP .                     :  COMPANY
WELL .                STA-6:  WELL
FLD  .                     :  FIELD
LOC  .                     :  LOCATION
CTRY .                     :  COUNTRY
STAT .                     :  STATE
CNTY .                     :  COUNTY
SRVC .                     :  SERVICE COMPANY
DATE .                     :  DATE
API  .                     :  API NUMBER
UWI  .                     :  UNIQUE WELL ID
~Curve Information Block
#MNEM.UNIT         API CODE   Curve Description
#---------- ----------------  -----------------
DEPTH.FT                   :  DEPTH
GR   .GAPI                 :  Gamma Ray
RT   .OHMM                 :  Deep resistivity
RHOB .G/C3                 :  Bulk Density
NPHI .V/V                  :  Neutron porosity
DT   .US/F                 :  Sonic
~Parameter Information Block
#MNEM.UNIT            Value   Description
#---------- ----------------  -----------
PROJECT.            SANTAN_FE:  
~Other Information Block
# 
~A       DEPTH             GR             RT           RHOB           NPHI             DT 
# ...
       4790.50       127.5500         1.2300         2.2700       0.460000       130.3000
       4791.00       116.1400         1.2300         2.2700       0.460000       130.3000
       4791.50       104.9100         1.2700         2.2700       0.440000       130.6000
       4792.00        92.0500         1.5200         2.2700       0.400000       125.4000
       4792.50        87.2100         1.7600         2.2600       0.380000       120.4000
       4793.00        88.0800         1.8200         2.2700       0.350000       117.4000
       4793.50        84.6200         1.8900         2.2600       0.350000       115.2000
       4794.00        91.6600         1.8400         2.2500       0.350000       120.8000
       4794.50        94.9300         1.7700         2.2300       0.360000       122.4000
       4795.00       101.9200         1.7600         2.2200       0.380000       129.3000
       4795.50       108.6800         1.6400         2.2100       0.410000       131.3500
       4796.00       119.7500         1.5900         2.2200       0.420000       130.4000
       4796.50       122.7200         1.5600         2.1900       0.430000       125.8500
       4797.00       116.5700         1.6000         2.1900       0.430000       126.2000
       4797.50       110.4300         1.6700         2.2100       0.430000       129.3000
       4798.00       106.0100         1.7000         2.2300       0.430000       124.7000
       4798.50       101.7900         1.6300         2.2400       0.420000       126.9000
       4799.00        94.5600         1.7500         2.2300       0.400000       128.4000
       4799.50        90.9300         1.8900         2.2100       0.390000       126.6500
       4800.00        88.0700         1.8800         2.1800       0.390000       138.4000
       4800.50        90.2900         1.8600         2.2000       0.430000       137.5500
       4801.00        93.9200         1.8100         2.2400       0.430000       134.8000
       4801.50       101.4700         1.7900         2.2700       0.450000       135.0000
       4802.00       102.6900         1.6400         2.2800       0.450000       129.6000
       4802.50       102.3200         1.5100         2.2800       0.450000       127.3000
       4803.00       102.3200         1.4700         2.2900       0.420000       128.3000
       4803.50       102.2100         1.3900         2.3000       0.420000       128.2000
       4804.00       108.1900         1.3800         2.3000       0.430000       126.4000
       4804.50       108.7900         1.3600         2.2800       0.440000       129.6500
       4805.00       112.5000         1.3000         2.2700       0.430000       128.7500
       4805.50       107.2200         1.2600         2.2800       0.440000       127.0000
       4806.00       104.9100         1.2300         2.2800       0.450000       127.5000
       4806.50       102.6100         1.2100         2.2900       0.480000       128.3500
       4807.00       104.5100         1.2000         2.2900       0.460000       129.3000
       4807.50       107.8600         1.1800         2.2900       0.460000       129.5500
       4808.00       112.4300         1.1800         2.2800       0.440000       129.7500
       4808.50       110.7900         1.1600         2.2800       0.450000       129.5000
       4809.00       115.6000         1.1700         2.2700       0.460000       128.9000
       4809.50       114.3700         1.1900         2.2700       0.470000       129.0500
       4810.00       121.2700         1.2200         2.2600       0.460000       128.6500
       4810.50       117.2100         1.2500         2.2600       0.460000       128.8000
       4811.00       112.9500         1.2900         2.2600       0.460000       128.3000
       4811.50       101.6500         1.3300         2.2600       0.470000       127.0000
       4812.00        87.7200         1.5000         2.2300       0.460000       121.6000
       4812.50        70.6500         2.1200         2.2100       0.410000       118.7500
       4813.00        55.4200         2.4600         2.1800       0.360000       114.5000
       4813.50        45.0100         2.3800         2.1700       0.360000       110.3000
       4814.00        40.3200         2.4400         2.1500       0.360000       107.1500
       4814.50        39.8700         2.7900         2.1700       0.370000       102.8000
       4815.00        39.2800         2.8400         2.2200       0.360000        97.2000
       4815.50        39.3200         3.1000         2.2800       0.360000        94.2000
       4816.00        36.3300         3.1600         2.2900       0.360000        93.4500
       4816.50        35.7300         3.1700         2.2300       0.350000        94.4000
       4817.00        33.0000         3.5400         2.2100       0.340000        91.4000
       4817.50        33.5700         3.7900         2.2400       0.300000        87.0000
       4818.00        34.7600         3.8700         2.2800       0.280000        88.3500
       4818.50        36.2600         3.4900         2.2700       0.280000        96.1000
       4819.00        39.1500         2.9200         2.2300       0.280000       104.0000
       4819.50        43.7400         2.4700         2.2100       0.300000       117.9000
       4820.00        56.0500         2.2400         2.2100       0.310000       123.2000
       4820.50        69.7300         2.0100         2.2100       0.350000       122.4500
       4821.00        80.8500         1.9500         2.2300       0.350000       122.2000
       4821.50        87.6400         1.8500         2.2400       0.360000       122.4000
       4822.00        91.3700         1.7700         2.2700       0.350000       120.9000
       4822.50        97.3100         1.6600         2.2700       0.360000       121.5000
       4823.00       104.4200         1.5600         2.2900       0.360000       121.5500
       4823.50       110.0900         1.5000         2.3000       0.380000       121.9500
       4824.00       104.1100         1.5300         2.3100       0.400000       120.2000
       4824.50        96.2200         1.5000         2.3000       0.400000       119.8000
       4825.00        85.6700         1.5800         2.2900       0.430000       119.0500
       4825.50        75.1100         1.9000         2.2700       0.440000       115.6000
       4826.00        63.5100         2.2800         2.2700       0.460000       107.3000
       4826.50        52.5400         2.6900         2.3100       0.440000        95.4500
       4827.00        49.3700         3.2900         2.3700       0.380000        88.8000
       4827.50        45.3800         4.7900         2.4500       0.280000        82.6000
       4828.00        41.7700         5.1300         2.4700       0.210000        76.4000
       4828.50        41.1700         6.0100         2.4600       0.200000        74.3500
       4829.00        38.6700         6.7700         2.4200       0.220000        79.9000
       4829.50        36.9100         5.6200         2.3800       0.240000        84.5500
       4830.00        36.7600         5.7200         2.3600       0.260000        84.1500
       4830.50        35.7100         4.9800         2.3600       0.250000        84.4000
       4831.00        37.9400         5.6600         2.3800       0.230000        83.4500
       4831.50        34.4000         5.5200         2.4100       0.210000        82.2500
       4832.00        35.7500         6.5000         2.4200       0.200000        81.7000
       4832.50        36.8200         5.3200         2.4400       0.200000        79.5500
       4833.00        38.0900         5.4800         2.4500       0.170000        79.7000
       4833.50        37.3500         5.4900         2.4600       0.170000        77.2000
       4834.00        35.1800         5.9800         2.4600       0.180000        73.3000
       4834.50        35.7900         5.6700         2.4100       0.230000        73.3500
