~Version Information Block
VERS .                  2.0:  CWLS LOG ASCII STANDARD - VERSION 2.0
WRAP .                   NO:  One line per depth step
~Well Information Block
#MNEM.UNIT        Data Type   Information
#---------- ----------------  -----------
STRT .FT            5000.50:  START DEPTH
STOP .FT           14504.00:  STOP DEPTH
STEP .FT               0.50:  STEP
NULL .              -999.25:  NULL VALUE
COMP .                     :  COMPANY
WELL .               STA-18:  WELL
FLD  .                     :  FIELD
LOC  .                     :  LOCATION
CTRY .                     :  COUNTRY
STAT .                     :  STATE
CNTY .                     :  COUNTY
SRVC .                     :  SERVICE COMPANY
DATE .                     :  DATE
API  .                     :  API NUMBER
UWI  .                     :  UNIQUE WELL ID
~Curve Information Block
#MNEM.UNIT         API CODE   Curve Description
#---------- ----------------  -----------------
DEPTH.FT                   :  DEPTH
GR   .GAPI                 :  Gamma Ray
RT   .OHMM                 :  SEDP
RHOB .G/C3                 :  Bulk Density
NPHI .V/V                  :  Neutron porosity
~Parameter Information Block
#MNEM.UNIT            Value   Description
#---------- ----------------  -----------
PROJECT.            SANTAN_FE:  
~Other Information Block
# 
~A       DEPTH             GR             RT           RHOB           NPHI 
# ...
      12597.50        47.6300         2.9800         2.5563       0.113600
      12598.00        54.6600         3.0500         2.5423       0.119300
      12598.50        64.7400         2.8700         2.5138       0.142900
      12599.00        80.7100         3.0000         2.5317       0.165200
      12599.50        75.7300         3.4600         2.5533       0.171100
      12600.00        69.8300         3.7400         2.5352       0.164600
      12600.50        76.7700         3.8300         2.4955       0.158500
      12601.00        81.7200         3.8600         2.4695       0.162100
      12601.50        88.5700         3.7100         2.4806       0.172600
      12602.00        94.6100         3.5400         2.5044       0.180800
      12602.50        98.7800         3.4300         2.5287       0.179900
      12603.00        99.4100         3.3700         2.5396       0.172900
      12603.50        99.0800         3.3300         2.5339       0.171300
      12604.00       103.6000         3.2900         2.5302       0.183000
      12604.50       108.8500         3.1200         2.5360       0.201700
      12605.00       116.4900         2.9600         2.5400       0.216200
      12605.50       124.3300         2.9000         2.5400       0.226700
      12606.00       126.6700         2.7600         2.5400       0.235500
      12606.50       127.5100         2.6900         2.5345       0.237700
      12607.00       119.8000         2.8000         2.5410       0.229300
      12607.50       117.3100         2.9400         2.5600       0.217100
      12608.00       115.9600         3.0100         2.5693       0.207700
      12608.50       111.2200         3.1100         2.5751       0.201700
      12609.00       105.0400         3.2800         2.5745       0.198200
      12609.50        94.1500         3.5000         2.5657       0.190700
      12610.00        96.2200         3.6600         2.5559       0.178300
      12610.50        89.1300         3.8200         2.5554       0.168700
      12611.00        98.2700         3.9400         2.5638       0.164500
      12611.50       103.1400         4.0000         2.5736       0.166000
      12612.00       104.6700         4.0100         2.5746       0.173700
      12612.50       100.9200         3.9700         2.5710       0.179600
      12613.00       101.1000         3.8700         2.5784       0.179000
      12613.50        92.9000         3.8300         2.5836       0.174100
      12614.00        94.2900         3.8400         2.5812       0.169300
      12614.50        93.4600         3.8500         2.5878       0.167900
      12615.00        95.0800         3.8400         2.5896       0.164600
      12615.50        96.6300         3.8500         2.5755       0.158800
      12616.00        96.3900         3.8200         2.5595       0.157900
      12616.50        95.5100         3.7300         2.5516       0.160300
      12617.00       101.9000         3.6100         2.5500       0.163200
      12617.50       115.9900         3.5000         2.5566       0.170500
      12618.00       121.4000         3.3400         2.5664       0.184200
      12618.50       131.1000         3.2000         2.5700       0.204200
      12619.00       119.3000         3.0500         2.5700       0.231400
      12619.50       120.1900         2.9900         2.5758       0.250900
      12620.00       107.6500         3.0000         2.5858       0.246200
      12620.50       101.1300         3.1500         2.5846       0.224000
      12621.00        94.9900         3.3800         2.5668       0.199800
      12621.50        94.8100         3.5800         2.5420       0.184500
      12622.00        96.8000         3.6100         2.5248       0.180300
      12622.50       105.2900         3.5900         2.5200       0.183000
      12623.00       108.5700         3.5500         2.5222       0.189300
      12623.50       109.3200         3.5400         2.5295       0.192100
      12624.00       113.0200         3.4400         2.5413       0.196600
      12624.50       107.8100         3.3200         2.5564       0.205500
      12625.00       104.9400         3.2400         2.5654       0.210000
      12625.50       102.1000         3.2300         2.5629       0.204700
      12626.00        96.9600         3.2300         2.5584       0.196200
      12626.50       103.1500         3.1900         2.5530       0.193200
      12627.00       107.6400         2.9900         2.5527       0.199100
      12627.50       108.4800         2.9000         2.5636       0.208500
      12628.00       115.7600         2.9100         2.5689       0.212700
      12628.50       122.0600         2.8800         2.5654       0.215100
      12629.00       123.1700         2.8000         2.5751       0.224400
      12629.50       114.0200         2.8700         2.5914       0.239300
      12630.00       107.9900         3.0700         2.5849       0.260800
      12630.50       108.3200         3.1000         2.5589       0.287700
      12631.00       106.9600         3.0900         2.5305       0.302800
      12631.50        88.0800         3.2700         2.5142       0.293900
      12632.00        69.3000         3.8900         2.5175       0.257800
      12632.50        57.1600         4.8900         2.5461       0.197300
      12633.00        56.0600         5.8500         2.6026       0.135800
      12633.50        54.5500         6.2600         2.6418       0.100900
      12634.00        64.1300         6.1500         2.6323       0.097500
      12634.50        73.8600         5.4600         2.5730       0.117900
      12635.00        83.1300         4.7500         2.5165       0.147200
      12635.50        81.0700         4.4000         2.4941       0.168400
      12636.00        81.6800         4.2500         2.5017       0.176900
      12636.50        86.0900         4.2100         2.5159       0.178000
      12637.00        83.3100         4.2300         2.5141       0.177800
      12637.50        73.8300         4.3100         2.5100       0.177500
      12638.00        81.0200         4.4000         2.5100       0.175600
      12638.50        88.4900         4.4300         2.5159       0.175700
      12639.00        82.9000         4.3500         2.5200       0.180500
      12639.50        80.9300         4.2500         2.5259       0.186000
      12640.00        77.8400         4.1500         2.5300       0.185400
      12640.50        74.4200         4.0800         2.5065       0.181800
      12641.00        75.0700         4.1200         2.4783       0.179700
      12641.50        75.6900         4.2400         2.4641       0.176100
      12642.00        91.0700         4.2800         2.4600       0.171400
      12642.50        91.5200         4.2000         2.4659       0.171100
      12643.00        87.1000         4.1100         2.4818       0.176300
      12643.50        93.4600         4.0400         2.5018       0.185700
      12644.00        96.4800         3.9400         2.5218       0.195500
      12644.50        93.4500         3.8700         2.5300       0.203300
      12645.00        86.5300         3.7900         2.5418       0.203700
      12645.50        79.6000         3.7900         2.5323       0.195600
      12646.00        84.2300         3.8300         2.4964       0.184800
      12646.50        88.8700         3.8400         2.4682       0.178700
      12647.00        91.8700         3.8600         2.4659       0.182200
      12647.50        94.2300         3.8400         2.4818       0.190400
      12648.00        83.7300         3.7300         2.5195       0.198800
      12648.50        66.5500         3.5500         2.5695       0.212800
      12649.00        51.9300         3.2600         2.5723       0.227900
      12649.50        55.6100         3.0500         2.4952       0.227300
      12650.00        61.5400         3.0000         2.4027       0.211100
      12650.50        73.5400         3.0500         2.3759       0.193800
