~Version Information Block
VERS .                  2.0:  CWLS LOG ASCII STANDARD - VERSION 2.0
WRAP .                   NO:  One line per depth step
~Well Information Block
#MNEM.UNIT        Data Type   Information
#---------- ----------------  -----------
STRT .FT             350.00:  START DEPTH
STOP .FT           16021.50:  STOP DEPTH
STEP .FT               0.50:  STEP
NULL .              -999.25:  NULL VALUE
COMP .                     :  COMPANY
WELL .               STA-30:  WELL
FLD  .                     :  FIELD
LOC  .                     :  LOCATION
CTRY .                     :  COUNTRY
STAT .                     :  STATE
CNTY .                     :  COUNTY
SRVC .                     :  SERVICE COMPANY
DATE .                     :  DATE
API  .                     :  API NUMBER
UWI  .                     :  UNIQUE WELL ID
~Curve Information Block
#MNEM.UNIT         API CODE   Curve Description
#---------- ----------------  -----------------
DEPTH.FT                   :  
GR   .GAPI                 :  Merged RAW_LOG.GR_17P_1 with RAW_LOG.GR_12P_1 and RAW_LOG.GR_8P_1 and RAW_LOG.GR_6P_1 at 1127.75, 5954.49, 11516.11 F
RT   .OHMM                 :  RT_1 Depth Shifted (Shift Pairs in MATCH_RT set)
RHOB .G/C3                 :  RHOB_1 Depth Shifted (Shift Pairs in MATCH_RHOB set)
NPHI .V/V                  :  NPHI_1 Depth Shifted (Shift Pairs in MATCH_NPHI set)
~Parameter Information Block
#MNEM.UNIT            Value   Description
#---------- ----------------  -----------
PROJECT.            SANTAN_FE:  
~Other Information Block
# 
~A       DEPTH             GR             RT           RHOB           NPHI 
# ...
       7679.50        75.8011         1.5138         2.2438       0.417123
       7680.00        75.9000         1.4201         2.2270       0.422372
       7680.50        78.8038         1.2394         2.2203       0.435878
       7681.00        81.0345         1.2050         2.2194       0.449667
       7681.50        79.1396         1.1727         2.2165       0.460797
       7682.00        81.7277         1.1504         2.2122       0.462953
       7682.50        78.7442         1.1483         2.2113       0.450138
       7683.00        74.5173         1.1359         2.2128       0.430812
       7683.50        73.5202         1.1237         2.2130       0.419980
       7684.00        76.6486         1.1073         2.2092       0.418659
       7684.50        81.0054         1.0999         2.2022       0.423614
       7685.00        85.0032         1.0925         2.1960       0.429769
       7685.50        89.1665         1.0613         2.1900       0.431656
       7686.00        91.8720         1.0320         2.1814       0.431011
       7686.50        85.8369         1.0190         2.1691       0.433676
       7687.00        88.3215         1.0239         2.1505       0.441483
       7687.50        89.2577         1.0252         2.1235       0.448006
       7688.00        85.7575         1.0516         2.1036       0.442686
       7688.50        85.1052         1.1601         2.1106       0.424397
       7689.00        90.4957         1.1342         2.1385       0.408488
       7689.50        96.5136         1.1064         2.1638       0.407500
       7690.00        96.8005         1.0548         2.1776       0.410385
       7690.50        96.1025         1.0155         2.1861       0.398524
       7691.00        86.6293         1.0102         2.1903       0.378834
       7691.50        74.1046         0.9949         2.1860       0.374345
       7692.00        68.6151         0.9833         2.1764       0.390084
       7692.50        67.9187         0.9567         2.1655       0.412179
       7693.00        66.2336         0.9939         2.1553       0.423172
       7693.50        62.6016         1.0801         2.1533       0.412115
       7694.00        60.8150         1.4347         2.1697       0.388397
       7694.50        59.0490         1.2880         2.2051       0.373120
       7695.00        61.7201         1.2182         2.2563       0.368124
       7695.50        59.1736         1.6928         2.3291       0.359467
       7696.00        56.8694         2.2237         2.4159       0.339792
       7696.50        53.7202         2.7595         2.4642       0.321707
       7697.00        52.9792         2.1508         2.4257       0.332680
       7697.50        60.7462         1.2234         2.3384       0.370661
       7698.00        72.0186         1.0687         2.2780       0.396209
       7698.50        72.9282         1.0224         2.2619       0.399554
       7699.00        69.0797         1.0128         2.2652       0.400942
       7699.50        68.7544         0.9653         2.2741       0.406536
       7700.00        71.5703         0.9103         2.2853       0.415529
       7700.50        73.8846         0.8699         2.2908       0.425305
       7701.00        74.7080         0.8577         2.2914       0.427970
       7701.50        73.6756         0.8715         2.2944       0.422315
       7702.00        74.2382         0.8682         2.2984       0.413861
       7702.50        73.8292         0.8687         2.2991       0.404818
       7703.00        70.2448         0.9170         2.2993       0.397264
       7703.50        62.8390         1.0392         2.3006       0.394146
       7704.00        51.9566         1.2824         2.2968       0.390904
       7704.50        50.4641         1.4811         2.2790       0.382987
       7705.00        53.7561         1.3366         2.2440       0.381727
       7705.50        57.0610         1.0539         2.2014       0.398119
       7706.00        59.9931         0.9202         2.1726       0.422691
       7706.50        57.9915         0.8621         2.1659       0.442099
       7707.00        59.4070         0.8185         2.1638       0.454629
       7707.50        62.0835         0.7945         2.1557       0.464312
       7708.00        63.9252         0.7797         2.1493       0.470017
       7708.50        63.2615         0.7768         2.1497       0.468412
       7709.00        60.5696         0.7956         2.1508       0.464719
       7709.50        59.8176         0.8068         2.1470       0.466278
       7710.00        59.0504         0.8085         2.1420       0.470105
       7710.50        58.4554         0.8224         2.1395       0.467573
       7711.00        58.0415         0.8307         2.1410       0.459264
       7711.50        58.7957         0.8181         2.1502       0.460094
       7712.00        62.8555         0.8127         2.1659       0.474652
       7712.50        61.9922         0.8232         2.1782       0.484176
       7713.00        60.2566         0.8345         2.1803       0.473795
       7713.50        63.5921         0.8449         2.1744       0.455711
       7714.00        65.6164         0.8489         2.1698       0.447810
       7714.50        66.7811         0.8320         2.1765       0.444045
       7715.00        68.3096         0.8072         2.1946       0.441443
       7715.50        67.3522         0.8177         2.2190       0.440492
       7716.00        69.7581         0.8322         2.2462       0.449115
       7716.50        68.4528         0.8534         2.2668       0.465062
       7717.00        66.8332         0.8856         2.2733       0.467916
       7717.50        67.9739         0.9358         2.2716       0.447639
       7718.00        69.2321         1.0637         2.2737       0.423529
       7718.50        66.3764         1.1945         2.2873       0.408603
       7719.00        63.6478         1.6785         2.3153       0.384506
       7719.50        53.6896         2.8579         2.3609       0.338852
       7720.00        42.7381         2.9198         2.4091       0.294860
       7720.50        41.0011         4.1042         2.4171       0.285493
       7721.00        44.1409         2.8233         2.3737       0.313678
       7721.50        50.2035         1.5643         2.3146       0.354052
       7722.00        59.1179         1.0920         2.2735       0.382482
       7722.50        65.8069         0.9925         2.2580       0.401494
       7723.00        73.4086         0.9698         2.2598       0.416749
       7723.50        76.2764         0.9740         2.2648       0.422444
       7724.00        80.2197         0.9998         2.2601       0.420661
       7724.50        82.2752         0.9462         2.2438       0.419383
       7725.00        78.4848         0.9097         2.2269       0.424675
       7725.50        77.2613         0.8793         2.2163       0.434649
       7726.00        76.9047         0.8293         2.2066       0.439183
       7726.50        78.3935         0.8337         2.1965       0.433086
       7727.00        79.9864         0.8863         2.1898       0.420833
       7727.50        81.9412         0.9695         2.1864       0.418268
       7728.00        83.6009         1.0227         2.1872       0.435225
       7728.50        75.0670         1.0967         2.1963       0.451513
       7729.00        64.7617         1.1469         2.2094       0.445031
       7729.50        59.6519         1.2300         2.2127       0.427652
       7730.00        61.3860         1.2328         2.2066       0.417067
       7730.50        60.2468         1.1724         2.2029       0.413476
       7731.00        59.8526         1.1420         2.1993       0.410757
       7731.50        51.0538         1.1395         2.1930       0.403457
       7732.00        46.7680         1.1750         2.1922       0.391941
       7732.50        43.8013         1.3785         2.2042       0.375533
