~Version Information Block
VERS .                  2.0:  CWLS LOG ASCII STANDARD - VERSION 2.0
WRAP .                   NO:  One line per depth step
~Well Information Block
#MNEM.UNIT        Data Type   Information
#---------- ----------------  -----------
STRT .FT            6415.50:  START DEPTH
STOP .FT           16132.50:  STOP DEPTH
STEP .FT               0.50:  STEP
NULL .              -999.25:  NULL VALUE
COMP .                     :  COMPANY
WELL .               STA-33:  WELL
FLD  .                     :  FIELD
LOC  .                     :  LOCATION
CTRY .                     :  COUNTRY
STAT .                     :  STATE
CNTY .                     :  COUNTY
SRVC .                     :  SERVICE COMPANY
DATE .                     :  DATE
API  .                     :  API NUMBER
UWI  .                     :  UNIQUE WELL ID
~Curve Information Block
#MNEM.UNIT         API CODE   Curve Description
#---------- ----------------  -----------------
DEPTH.FT                   :  Depth
GR   .GAPI                 :  Gamma Ray
RT   .OHMM                 :  True Resistivity
RHOB .G/C3                 :  Bulk Density
NPHI .V/V                  :  Neutron Porosity
~Parameter Information Block
#MNEM.UNIT            Value   Description
#---------- ----------------  -----------
PROJECT.            SANTAN_FE:  
~Other Information Block
# 
~A       DEPTH             GR             RT           RHOB           NPHI 
# ...
      12193.50        85.5930         2.8596         2.5151       0.215800
      12194.00        93.5205         2.6697         2.5360       0.218500
      12194.50        93.0819         2.7980         2.5305       0.210100
      12195.00        90.0936         2.9421         2.5012       0.197300
      12195.50        82.8753         3.0979         2.4821       0.181000
      12196.00        74.2877         3.1942         2.4917       0.165000
      12196.50        69.2327         3.2015         2.5022       0.156300
      12197.00        61.7828         3.2037         2.4857       0.155000
      12197.50        51.8993         3.2139         2.4583       0.155300
      12198.00        52.0916         3.1667         2.4379       0.155300
      12198.50        49.8337         3.1517         2.4195       0.155800
      12199.00        49.7275         3.0936         2.4033       0.158000
      12199.50        50.1987         3.0197         2.3962       0.160600
      12200.00        50.7796         2.9375         2.4022       0.161400
      12200.50        51.1114         2.8555         2.4232       0.163500
      12201.00        59.3033         2.7781         2.4505       0.169300
      12201.50        61.8875         2.6819         2.4590       0.174600
      12202.00        59.3950         2.5341         2.4366       0.178700
      12202.50        54.1730         2.3553         2.4183       0.185300
      12203.00        59.3406         2.2852         2.4446       0.192900
      12203.50        67.6113         2.2442         2.4755       0.200600
      12204.00        66.6725         2.1391         2.4488       0.204300
      12204.50        58.4787         1.9282         2.3912       0.201900
      12205.00        55.3312         1.9002         2.3605       0.202700
      12205.50        52.1134         1.7999         2.3617       0.208700
      12206.00        60.5204         1.9281         2.3974       0.205800
      12206.50        70.0457         2.1755         2.4505       0.190900
      12207.00        70.5179         2.3559         2.4844       0.183100
      12207.50        69.5666         2.3944         2.4922       0.192600
      12208.00        72.6481         2.3727         2.4968       0.206600
      12208.50        82.4116         2.2619         2.5061       0.213900
      12209.00        81.5226         2.3250         2.5134       0.216200
      12209.50        82.1063         2.4288         2.5183       0.209700
      12210.00        80.7620         2.4428         2.5201       0.187000
      12210.50        73.1803         2.5116         2.5223       0.165000
      12211.00        66.9948         2.5890         2.5306       0.166200
      12211.50        65.7998         2.8468         2.5284       0.186400
      12212.00        70.9707         2.5643         2.5121       0.198500
      12212.50        75.1357         2.7270         2.5032       0.191600
      12213.00        73.2694         2.8508         2.5016       0.180100
      12213.50        71.9099         2.9184         2.4991       0.177200
      12214.00        72.9350         2.9232         2.5078       0.177300
      12214.50        70.3147         2.9690         2.5336       0.170500
      12215.00        71.7943         3.0557         2.5503       0.160800
      12215.50        70.5212         3.1602         2.5450       0.159200
      12216.00        67.1689         3.0933         2.5445       0.167500
      12216.50        67.8076         2.9396         2.5573       0.177300
      12217.00        73.0899         2.9305         2.5632       0.182900
      12217.50        80.8606         2.9079         2.5570       0.185600
      12218.00        81.0716         2.8542         2.5534       0.188700
      12218.50        81.4520         2.7846         2.5567       0.193400
      12219.00        79.8860         2.6758         2.5550       0.199600
      12219.50        82.1614         2.6765         2.5472       0.207700
      12220.00        85.7133         2.4589         2.5445       0.218100
      12220.50        95.3831         2.2810         2.5435       0.229500
      12221.00        96.0789         2.1871         2.5337       0.236600
      12221.50        98.6396         2.1638         2.5289       0.236500
      12222.00        97.8372         2.2330         2.5420       0.231800
      12222.50        96.0900         2.3634         2.5537       0.225900
      12223.00        94.1883         2.4050         2.5523       0.221800
      12223.50        92.6995         2.4210         2.5453       0.213800
      12224.00        84.6716         2.4604         2.5414       0.194500
      12224.50        71.8809         2.5937         2.5486       0.169800
      12225.00        58.9867         3.0231         2.5700       0.146800
      12225.50        52.9171         4.0656         2.5940       0.134600
      12226.00        52.5027         4.7806         2.6102       0.140700
      12226.50        62.7284         4.5554         2.6148       0.157000
      12227.00        77.5878         4.0055         2.6088       0.178200
      12227.50        87.1124         3.6650         2.5910       0.194300
      12228.00        89.7416         3.5258         2.5647       0.188400
      12228.50        80.4478         3.5517         2.5480       0.165000
      12229.00        62.0057         4.3449         2.5661       0.139300
      12229.50        48.2437         5.4755         2.6241       0.135200
      12230.00        53.0836         5.8452         2.6812       0.158700
      12230.50        66.9494         3.9678         2.6788       0.193600
      12231.00        84.2581         2.8703         2.6206       0.223100
      12231.50        96.7728         2.6262         2.5628       0.233100
      12232.00        99.2485         2.5463         2.5341       0.230900
      12232.50        95.4943         2.4661         2.5294       0.221800
      12233.00        86.0817         2.3948         2.5434       0.201900
      12233.50        71.2562         2.6576         2.5689       0.186000
      12234.00        64.3289         3.1670         2.5971       0.195100
      12234.50        73.7632         2.7705         2.6051       0.222300
      12235.00        90.3590         2.0042         2.5886       0.247400
      12235.50       100.4340         1.8349         2.5725       0.261800
      12236.00       103.3985         1.7380         2.5618       0.265900
      12236.50       103.1791         1.6745         2.5527       0.266400
      12237.00       105.5409         1.5951         2.5533       0.269500
      12237.50       106.7455         1.6121         2.5622       0.274100
      12238.00       104.4517         1.6127         2.5634       0.278900
      12238.50       103.8453         1.6059         2.5571       0.285300
      12239.00       104.1283         1.6174         2.5549       0.291500
      12239.50       104.1387         1.5899         2.5529       0.293900
      12240.00       105.3990         1.6132         2.5426       0.294700
      12240.50       106.9357         1.6543         2.5362       0.295000
      12241.00       104.8596         1.6399         2.5423       0.286100
      12241.50       100.9446         1.6640         2.5514       0.257300
      12242.00        96.8503         1.7828         2.5577       0.207400
      12242.50        81.9198         2.1907         2.5598       0.152200
      12243.00        58.8198         3.1002         2.5644       0.111900
      12243.50        44.1282         4.0655         2.5795       0.095200
      12244.00        39.1050         4.6212         2.5892       0.097600
      12244.50        40.4851         4.7424         2.5728       0.111900
      12245.00        43.8190         4.4075         2.5329       0.130200
      12245.50        46.4606         4.0161         2.4838       0.143900
      12246.00        50.4111         3.6274         2.4451       0.151100
      12246.50        56.7336         3.3891         2.4407       0.156100
