~Version Information Block
VERS .                  2.0:  CWLS LOG ASCII STANDARD - VERSION 2.0
WRAP .                   NO:  One line per depth step
~Well Information Block
#MNEM.UNIT        Data Type   Information
#---------- ----------------  -----------
STRT .FT            6091.50:  START DEPTH
STOP .FT           14295.50:  STOP DEPTH
STEP .FT               0.50:  STEP
NULL .              -999.25:  NULL VALUE
COMP .                     :  COMPANY
WELL .               STA-35:  WELL
FLD  .                     :  FIELD
LOC  .                     :  LOCATION
CTRY .                     :  COUNTRY
STAT .                     :  STATE
CNTY .                     :  COUNTY
SRVC .                     :  SERVICE COMPANY
DATE .                     :  DATE
API  .                     :  API NUMBER
UWI  .                     :  UNIQUE WELL ID
~Curve Information Block
#MNEM.UNIT         API CODE   Curve Description
#---------- ----------------  -----------------
DEPTH.FT                   :  Depth
GR   .GAPI                 :  Gamma Ray
RT   .OHMM                 :  True Resistivity
RHOB .G/C3                 :  Bulk Density
NPHI .V/V                  :  Neutron Porosity
~Parameter Information Block
#MNEM.UNIT            Value   Description
#---------- ----------------  -----------
PROJECT.            SANTAN_FE:  
~Other Information Block
# 
~A       DEPTH             GR             RT           RHOB           NPHI 
# ...
      12618.50        84.2338         2.3883         2.5905       0.192900
      12619.00        86.3544         2.3156         2.5871       0.193500
      12619.50        86.7277         2.3689         2.5744       0.196400
      12620.00        89.7841         2.3035         2.5613       0.196700
      12620.50        90.5703         2.3765         2.5663       0.193800
      12621.00        88.3527         2.3451         2.5767       0.193300
      12621.50        84.4488         2.2887         2.5782       0.195400
      12622.00        88.7430         2.3193         2.5777       0.195800
      12622.50        86.8536         2.3067         2.5800       0.196500
      12623.00        88.4954         2.3317         2.5764       0.199100
      12623.50        87.1359         2.3444         2.5678       0.198000
      12624.00        85.3624         2.3772         2.5651       0.194400
      12624.50        85.9760         2.2888         2.5678       0.191000
      12625.00        89.0053         2.3780         2.5697       0.185700
      12625.50        84.6536         2.5228         2.5659       0.181100
      12626.00        83.3023         2.5550         2.5704       0.181300
      12626.50        86.9038         2.5691         2.5833       0.183300
      12627.00        87.5510         2.5837         2.5829       0.186000
      12627.50        90.1966         2.5668         2.5718       0.189200
      12628.00        88.5938         2.6138         2.5651       0.188400
      12628.50        89.9944         2.6753         2.5787       0.184700
      12629.00        89.3105         2.7360         2.5918       0.183800
      12629.50        91.5548         2.7063         2.5995       0.186400
      12630.00        89.2551         2.6806         2.5956       0.188300
      12630.50        86.6364         2.7420         2.5780       0.186700
      12631.00        87.2809         2.7636         2.5631       0.184300
      12631.50        84.5879         2.7719         2.5629       0.183800
      12632.00        85.9804         2.7860         2.5795       0.183400
      12632.50        86.2699         2.7296         2.6008       0.181300
      12633.00        85.0601         2.8089         2.6067       0.179800
      12633.50        83.5651         2.8140         2.6020       0.183500
      12634.00        87.0759         2.6991         2.5957       0.190400
      12634.50        87.7876         2.6402         2.5881       0.195700
      12635.00        89.9523         2.6160         2.5847       0.197800
      12635.50        90.9590         2.4995         2.5857       0.192900
      12636.00        89.9921         2.5685         2.5842       0.190700
      12636.50        90.0460         2.7119         2.5903       0.194800
      12637.00        93.8168         2.5790         2.6029       0.196100
      12637.50        97.8155         2.5336         2.6051       0.195700
      12638.00        89.9734         2.5651         2.6000       0.203100
      12638.50        92.7162         2.5176         2.5969       0.214100
      12639.00        92.8727         2.4369         2.5933       0.218300
      12639.50        96.1616         2.3397         2.5858       0.218500
      12640.00        94.7818         2.3503         2.5830       0.222100
      12640.50        97.6320         2.3000         2.5893       0.227200
      12641.00       101.8596         2.1989         2.5957       0.229700
      12641.50       103.1750         2.1460         2.5961       0.229200
      12642.00        99.9593         2.1934         2.5966       0.226700
      12642.50        99.7426         2.2001         2.5962       0.224800
      12643.00        99.5055         2.1462         2.5903       0.225700
      12643.50       102.9359         2.1512         2.5865       0.226000
      12644.00       101.7775         2.1390         2.5878       0.218100
      12644.50       100.0862         2.0169         2.5884       0.204900
      12645.00        97.0970         2.0914         2.5882       0.198000
      12645.50        95.1965         2.3489         2.5906       0.197300
      12646.00        95.2141         2.4517         2.5903       0.194900
      12646.50        93.0249         2.4504         2.5907       0.191100
      12647.00        92.2318         2.5203         2.5975       0.190400
      12647.50        93.4242         2.6038         2.6085       0.188500
      12648.00        94.6637         2.6421         2.6167       0.179500
      12648.50        89.7567         2.6907         2.6154       0.167600
      12649.00        89.1262         2.7788         2.6116       0.158500
      12649.50        83.3843         2.9549         2.6173       0.151200
      12650.00        84.5852         3.1657         2.6296       0.144900
      12650.50        81.9993         3.4235         2.6413       0.142900
      12651.00        76.7145         3.6679         2.6417       0.143000
      12651.50        72.0671         3.8729         2.6209       0.140100
      12652.00        75.7909         3.8846         2.6074       0.136500
      12652.50        76.0730         3.9110         2.6273       0.136700
      12653.00        74.8432         4.0713         2.6547       0.138100
      12653.50        70.7155         4.2718         2.6692       0.137400
      12654.00        73.6483         4.1377         2.6752       0.139100
      12654.50        74.5901         4.1210         2.6772       0.147400
      12655.00        74.7471         4.1738         2.6814       0.158300
      12655.50        76.6854         4.0950         2.6829       0.165800
      12656.00        79.9735         3.8470         2.6723       0.165900
      12656.50        80.2572         3.5593         2.6533       0.161000
      12657.00        84.3583         3.4026         2.6312       0.158500
      12657.50        83.1881         3.3153         2.6184       0.160800
      12658.00        78.5102         3.3132         2.6192       0.166000
      12658.50        77.6312         3.3720         2.6236       0.173400
      12659.00        77.2911         3.1957         2.6240       0.180500
      12659.50        81.4373         2.8824         2.6255       0.181600
      12660.00        84.1344         2.8588         2.6296       0.176200
      12660.50        86.5593         2.9102         2.6360       0.171800
      12661.00        82.3520         2.9953         2.6437       0.169000
      12661.50        82.2541         2.9034         2.6499       0.161500
      12662.00        77.0237         2.9432         2.6495       0.152200
      12662.50        73.6895         3.4356         2.6455       0.147400
      12663.00        70.1406         3.5715         2.6488       0.143400
      12663.50        63.6675         3.8675         2.6532       0.134300
      12664.00        62.2032         4.4170         2.6549       0.122400
      12664.50        64.1788         4.7328         2.6669       0.115100
      12665.00        58.5300         4.9788         2.6880       0.114600
      12665.50        55.4657         5.2738         2.6958       0.115600
      12666.00        55.5686         5.4554         2.6808       0.113200
      12666.50        54.6104         5.4908         2.6709       0.107900
      12667.00        59.6036         5.7780         2.6844       0.104000
      12667.50        57.0137         5.9506         2.6932       0.104700
      12668.00        57.2534         5.9547         2.6823       0.107000
      12668.50        54.1563         5.8826         2.6711       0.109100
      12669.00        52.9465         5.7589         2.6781       0.111400
      12669.50        54.3341         6.0353         2.6918       0.112200
      12670.00        54.3040         5.9667         2.6924       0.110300
      12670.50        53.1696         5.7337         2.6779       0.108000
      12671.00        49.8545         5.7992         2.6633       0.106400
      12671.50        49.1809         6.0197         2.6586       0.104100
