~Version Information Block
VERS .                  2.0:  CWLS LOG ASCII STANDARD - VERSION 2.0
WRAP .                   NO:  One line per depth step
~Well Information Block
#MNEM.UNIT        Data Type   Information
#---------- ----------------  -----------
STRT .FT            3811.50:  START DEPTH
STOP .FT            9515.50:  STOP DEPTH
STEP .FT               0.50:  STEP
NULL .              -999.25:  NULL VALUE
COMP .                     :  COMPANY
WELL .                STA-6:  WELL
FLD  .                     :  FIELD
LOC  .                     :  LOCATION
CTRY .                     :  COUNTRY
STAT .                     :  STATE
CNTY .                     :  COUNTY
SRVC .                     :  SERVICE COMPANY
DATE .                     :  DATE
API  .                     :  API NUMBER
UWI  .                     :  UNIQUE WELL ID
~Curve Information Block
#MNEM.UNIT         API CODE   Curve Description
#---------- ----------------  -----------------
DEPTH.FT                   :  DEPTH
GR   .GAPI                 :  Gamma Ray
RT   .OHMM                 :  Deep resistivity
RHOB .G/C3                 :  Bulk Density
NPHI .V/V                  :  Neutron porosity
DT   .US/F                 :  Sonic
~Parameter Information Block
#MNEM.UNIT            Value   Description
#---------- ----------------  -----------
PROJECT.            SANTAN_FE:  
~Other Information Block
# 
~A       DEPTH             GR             RT           RHOB           NPHI             DT 
# ...
       4078.50        70.3494      -999.2500      -999.2500       0.500000      -999.2500
       4079.00        71.8209      -999.2500      -999.2500       0.520000      -999.2500
       4079.50        72.5525      -999.2500      -999.2500       0.540000      -999.2500
       4080.00        73.0040      -999.2500      -999.2500       0.560000      -999.2500
       4080.50        68.7655      -999.2500      -999.2500       0.590000      -999.2500
       4081.00        67.6470      -999.2500      -999.2500       0.590000      -999.2500
       4081.50        65.3985      -999.2500      -999.2500       0.550000      -999.2500
       4082.00        66.5000      -999.2500      -999.2500       0.540000      -999.2500
       4082.50        64.6015      -999.2500      -999.2500       0.540000      -999.2500
       4083.00        64.7131      -999.2500      -999.2500       0.530000      -999.2500
       4083.50        64.0346      -999.2500      -999.2500       0.510000      -999.2500
       4084.00        65.7561      -999.2500      -999.2500       0.490000      -999.2500
       4084.50        68.3176      -999.2500      -999.2500       0.510000      -999.2500
       4085.00        68.6391      -999.2500      -999.2500       0.480000      -999.2500
       4085.50        69.1106      -999.2500      -999.2500       0.460000      -999.2500
       4086.00        65.9122      -999.2500      -999.2500       0.440000      -999.2500
       4086.50        67.0337      -999.2500      -999.2500       0.440000      -999.2500
       4087.00        65.1552      -999.2500      -999.2500       0.430000      -999.2500
       4087.50        68.5643      -999.2500      -999.2500       0.420000      -999.2500
       4088.00        68.5777      -999.2500      -999.2500       0.450000      -999.2500
       4088.50        69.7510      -999.2500      -999.2500       0.460000      -999.2500
       4089.00        65.0343      -999.2500      -999.2500       0.460000      -999.2500
       4089.50        61.9476      -999.2500      -999.2500       0.440000      -999.2500
       4090.00        60.6910      -999.2500      -999.2500       0.470000      -999.2500
       4090.50        61.7443      -999.2500      -999.2500       0.510000      -999.2500
       4091.00        63.4076      -999.2500      -999.2500       0.510000      -999.2500
       4091.50        62.7510      -999.2500      -999.2500       0.530000      -999.2500
       4092.00        65.9243      -999.2500      -999.2500       0.520000      -999.2500
       4092.50        62.7976      -999.2500      -999.2500       0.520000      -999.2500
       4093.00        62.3210      -999.2500      -999.2500       0.470000      -999.2500
       4093.50        58.6143      -999.2500      -999.2500       0.450000      -999.2500
       4094.00        60.2676      -999.2500      -999.2500       0.490000      -999.2500
       4094.50        58.9810      -999.2500      -999.2500       0.500000      -999.2500
       4095.00        58.3943      -999.2500      -999.2500       0.530000      -999.2500
       4095.50        58.0176      -999.2500      -999.2500       0.530000      -999.2500
       4096.00        58.3010      -999.2500      -999.2500       0.560000      -999.2500
       4096.50        57.8943      -999.2500      -999.2500       0.560000      -999.2500
       4097.00        55.8276      -999.2500      -999.2500       0.550000      -999.2500
       4097.50        56.8910      -999.2500      -999.2500       0.570000      -999.2500
       4098.00        57.6443      -999.2500      -999.2500       0.580000      -999.2500
       4098.50        59.3076      -999.2500      -999.2500       0.580000      -999.2500
       4099.00        57.7110      -999.2500      -999.2500       0.530000      -999.2500
       4099.50        55.2143      -999.2500      -999.2500       0.500000      -999.2500
       4100.00        52.4876      -999.2500      -999.2500       0.470000      -999.2500
       4100.50        52.2010      -999.2500      -999.2500       0.500000      -999.2500
       4101.00        54.3743      -999.2500      -999.2500       0.520000      -999.2500
       4101.50        62.8276      -999.2500      -999.2500       0.550000      -999.2500
       4102.00        71.6610      -999.2500      -999.2500       0.530000      -999.2500
       4102.50        78.3543      -999.2500         2.1096       0.500000      -999.2500
       4103.00        80.0176      -999.2500         2.1637       0.480000      -999.2500
       4103.50        79.7510      -999.2500         2.1778       0.460000      -999.2500
       4104.00        79.8743      -999.2500         2.1720       0.440000      -999.2500
       4104.50        79.8976      -999.2500         2.1961       0.420000      -999.2500
       4105.00        76.1410      -999.2500         2.2002       0.380000      -999.2500
       4105.50        78.2443      -999.2500         2.2143       0.370000       170.7500
       4106.00        85.4176      -999.2500         2.2085       0.370000       160.2000
       4106.50        90.9010      -999.2500         2.2026       0.380000       149.4500
       4107.00        93.6243         1.4200         2.2000       0.380000       150.0000
       4107.50        89.0076         1.4300         2.1900       0.390000       151.5000
       4108.00        89.7510         1.4500         2.1800       0.400000       151.2500
       4108.50        87.6043         1.4400         2.1800       0.400000       152.2500
       4109.00        84.0676         1.4100         2.1700       0.410000       151.4500
       4109.50        81.4210         1.4200         2.1700       0.430000       149.3000
       4110.00        83.8700         1.4700         2.1700       0.440000       149.8500
       4110.50        83.7500         1.4800         2.1700       0.420000       148.8000
       4111.00        89.2000         1.4900         2.1800       0.410000       145.9000
       4111.50        89.7600         1.5100         2.1900       0.420000       142.1500
       4112.00        89.9400         1.4600         2.2000       0.430000       137.5500
       4112.50        85.6500         1.5500         2.2100       0.430000       136.2000
       4113.00        85.2700         1.6500         2.2200       0.460000       134.4500
       4113.50        96.2900         1.4800         2.2300       0.450000       133.6000
       4114.00       100.4400         1.6100         2.2200       0.450000       132.6000
       4114.50       104.4400         1.6100         2.2200       0.450000       131.9500
       4115.00       102.3500         1.5600         2.2400       0.430000       132.2500
       4115.50       104.1900         1.5700         2.2400       0.410000       131.4000
       4116.00        99.5000         1.5600         2.2400       0.380000       130.1500
       4116.50        99.7200         1.5400         2.2400       0.380000       131.1500
       4117.00        98.8000         1.5500         2.2400       0.400000       130.0000
       4117.50       105.4800         1.5500         2.2500       0.400000       130.2000
       4118.00       105.1400         1.5400         2.2500       0.410000       129.8500
       4118.50       108.1900         1.5400         2.2400       0.420000       129.6000
       4119.00       109.5600         1.5300         2.2300       0.420000       129.6000
       4119.50       109.8600         1.5200         2.2300       0.420000       129.3500
       4120.00       112.3400         1.5100         2.2400       0.430000       129.0500
       4120.50       107.9500         1.5100         2.2500       0.440000       129.1000
       4121.00       109.1400         1.4800         2.2500       0.410000       129.2500
       4121.50       107.2500         1.4600         2.2600       0.400000       129.3000
       4122.00       112.5700         1.4500         2.2600       0.420000       129.9000
       4122.50       111.3900         1.4200         2.2600       0.440000       130.1500
