~Version Information Block
VERS .                  2.0:  CWLS LOG ASCII STANDARD - VERSION 2.0
WRAP .                   NO:  One line per depth step
~Well Information Block
#MNEM.UNIT        Data Type   Information
#---------- ----------------  -----------
STRT .FT             728.00:  START DEPTH
STOP .FT           10480.50:  STOP DEPTH
STEP .FT               0.50:  STEP
NULL .              -999.25:  NULL VALUE
COMP .                     :  COMPANY
WELL .               STA-21:  WELL
FLD  .                     :  FIELD
LOC  .                     :  LOCATION
CTRY .                     :  COUNTRY
STAT .                     :  STATE
CNTY .                     :  COUNTY
SRVC .                     :  SERVICE COMPANY
DATE .                     :  DATE
API  .                     :  API NUMBER
UWI  .                     :  UNIQUE WELL ID
~Curve Information Block
#MNEM.UNIT         API CODE   Curve Description
#---------- ----------------  -----------------
DEPTH.FT                   :  DEPTH
GR   .GAPI                 :  Gamma Ray
RT   .OHMM                 :  RESDE
RHOB .G/C3                 :  Bulk Density
NPHI .V/V                  :  Thermal Neutron Porosity (Ratio Method) in Selected Lithology
~Parameter Information Block
#MNEM.UNIT            Value   Description
#---------- ----------------  -----------
PROJECT.            SANTAN_FE:  
~Other Information Block
# 
~A       DEPTH             GR             RT           RHOB           NPHI 
# ...
       5917.50        78.2000         2.0798         2.2712         0.3503
       5918.00        74.5700         2.0726         2.2905         0.3663
       5918.50        71.1600         2.0601         2.3161         0.3756
       5919.00        69.9400         2.0365         2.3352         0.3786
       5919.50        70.4200         2.0176         2.3415         0.3658
       5920.00        71.6000         2.0043         2.3336         0.3539
       5920.50        73.0800         1.9746         2.3217         0.3581
       5921.00        74.1200         1.9298         2.3216         0.3746
       5921.50        76.7500         1.8765         2.3257         0.3925
       5922.00        79.2800         1.8050         2.3256         0.4047
       5922.50        82.2500         1.7247         2.3159         0.4252
       5923.00        84.5600         1.6792         2.3010         0.4530
       5923.50        86.8500         1.6525         2.2945         0.4710
       5924.00        89.3800         1.6331         2.2944         0.4777
       5924.50        90.6700         1.6231         2.3056         0.4841
       5925.00        92.4000         1.6362         2.3098         0.4969
       5925.50        92.7600         1.6794         2.3061         0.4980
       5926.00        93.0700         1.7724         2.2865         0.4857
       5926.50        92.0600         1.8739         2.2649         0.4607
       5927.00        90.6900         1.9243         2.2600         0.4256
       5927.50        89.9200         1.9306         2.2672         0.3872
       5928.00        88.3400         1.8988         2.2816         0.3545
       5928.50        88.2800         1.8434         2.3007         0.3419
       5929.00        88.7100         1.7946         2.3313         0.3489
       5929.50        90.9800         1.7557         2.3543         0.3775
       5930.00        92.5900         1.7085         2.3679         0.4143
       5930.50        94.1600         1.6640         2.3680         0.4418
       5931.00        94.8300         1.6365         2.3753         0.4454
       5931.50        92.3000         1.6349         2.3713         0.4245
       5932.00        87.6900         1.6404         2.3497         0.4036
       5932.50        83.5600         1.6447         2.3158         0.3849
       5933.00        81.8400         1.6618         2.3103         0.3785
       5933.50        81.0900         1.6747         2.3150         0.3701
       5934.00        79.6000         1.6806         2.3115         0.3675
       5934.50        78.0600         1.6685         2.2975         0.3675
       5935.00        77.4200         1.6525         2.2958         0.3688
       5935.50        78.3700         1.6525         2.3009         0.3723
       5936.00        80.9300         1.6657         2.3137         0.3769
       5936.50        86.1100         1.6756         2.3235         0.3823
       5937.00        88.0600         1.6887         2.3268         0.3861
       5937.50        87.9900         1.7145         2.3093         0.3825
       5938.00        84.7700         1.7250         2.2793         0.3806
       5938.50        82.9600         1.7304         2.2595         0.3773
       5939.00        82.4800         1.7362         2.2589         0.3725
       5939.50        81.9800         1.7537         2.2780         0.3789
       5940.00        81.5700         1.7876         2.3071         0.3965
       5940.50        80.6300         1.8122         2.3255         0.4129
       5941.00        78.4300         1.8310         2.3291         0.4330
       5941.50        77.3500         1.8623         2.3259         0.4507
       5942.00        75.1600         1.9132         2.3225         0.4486
       5942.50        74.1000         1.9598         2.3194         0.3993
       5943.00        71.8800         1.9739         2.3057         0.3504
       5943.50        71.5000         1.9425         2.2874         0.3525
       5944.00        73.5500         1.8722         2.2753         0.3926
       5944.50        77.0600         1.8136         2.2792         0.4125
       5945.00        79.9400         1.7763         2.2971         0.3978
       5945.50        80.3500         1.7513         2.3303         0.3841
       5946.00        79.3500         1.7340         2.3423         0.4011
       5946.50        79.2800         1.7045         2.3307         0.4117
       5947.00        80.0200         1.6839         2.3141         0.3858
       5947.50        82.9500         1.6470         2.3103         0.3706
       5948.00        86.0100         1.6225         2.3058         0.3858
       5948.50        88.4000         1.6348         2.2831         0.4138
       5949.00        87.5900         1.6861         2.2703         0.4175
       5949.50        84.0000         1.7845         2.2809         0.4088
       5950.00        78.9900         1.9807         2.3119         0.3912
       5950.50        73.0600         2.2879         2.3481         0.3652
       5951.00        66.3100         2.6198         2.3733         0.3408
       5951.50        59.6100         2.9365         2.3884         0.3197
       5952.00        53.0800         3.2682         2.4013         0.3023
       5952.50        47.8700         3.6665         2.4064         0.2893
       5953.00        43.3100         4.1766         2.4091         0.2827
       5953.50        40.3100         4.6105         2.4100         0.2771
       5954.00        37.4000         4.8557         2.4148         0.2722
       5954.50        34.4900         5.0972         2.4163         0.2703
       5955.00        32.5500         5.3231         2.3935         0.2638
       5955.50        32.2800         5.3575         2.3632         0.2591
       5956.00        33.1800         5.2167         2.3372         0.2575
       5956.50        34.1800         5.0518         2.3432         0.2575
       5957.00        34.6500         5.0410         2.3533         0.2605
       5957.50        34.3000         5.0903         2.3553         0.2625
       5958.00        33.1000         5.1933         2.3379         0.2631
       5958.50        32.0100         5.2873         2.2921         0.2687
       5959.00        30.9200         5.3802         2.2271         0.2700
       5959.50        30.0400         5.5174         2.1600         0.2723
       5960.00        28.7800         5.6313         2.1160         0.2775
       5960.50        28.3100         5.5103         2.1111         0.2775
       5961.00        28.2800         5.0898         2.1360         0.2802
       5961.50        29.2700         4.9405         2.1790         0.2853
       5962.00        30.9900         5.3527         2.2297         0.2930
       5962.50        33.7000         5.5706         2.2749         0.3060
       5963.00        36.5200         5.6193         2.3384         0.3190
       5963.50        38.9300         5.4913         2.3917         0.3314
       5964.00        40.3500         5.6212         2.4221         0.3425
       5964.50        40.9300         5.6854         2.4295         0.3411
       5965.00        40.3500         5.5237         2.4277         0.3209
       5965.50        38.8100         5.2683         2.4380         0.2947
       5966.00        36.9300         5.1564         2.4565         0.2756
       5966.50        35.9600         5.1217         2.4728         0.2593
       5967.00        36.6400         4.7184         2.4754         0.2602
       5967.50        39.6100         4.0113         2.4448         0.2720
       5968.00        43.3800         3.3939         2.3738         0.2917
       5968.50        47.4600         2.9605         2.2919         0.3138
       5969.00        50.7100         2.5928         2.2342         0.3310
       5969.50        53.1200         2.3225         2.2034         0.3375
       5970.00        54.9000         2.1382         2.1959         0.3353
       5970.50        56.4400         2.0063         2.1977         0.3336
