~Version Information Block
VERS .                  2.0:  CWLS LOG ASCII STANDARD - VERSION 2.0
WRAP .                   NO:  One line per depth step
~Well Information Block
#MNEM.UNIT        Data Type   Information
#---------- ----------------  -----------
STRT .FT             750.00:  START DEPTH
STOP .FT            8283.50:  STOP DEPTH
STEP .FT               0.50:  STEP
NULL .              -999.25:  NULL VALUE
COMP .                     :  COMPANY
WELL .               STA-20:  WELL
FLD  .                     :  FIELD
LOC  .                     :  LOCATION
CTRY .                     :  COUNTRY
STAT .                     :  STATE
CNTY .                     :  COUNTY
SRVC .                     :  SERVICE COMPANY
DATE .                     :  DATE
API  .                     :  API NUMBER
UWI  .                     :  UNIQUE WELL ID
~Curve Information Block
#MNEM.UNIT         API CODE   Curve Description
#---------- ----------------  -----------------
DEPTH.FT                   :  DEPTH
GR   .GAPI                 :  Gamma Ray
RT   .OHMM                 :  RESDE
RHOB .G/C3                 :  Bulk Density
NPHI .V/V                  :  Thermal Neutron Porosity (Ratio Method) in Selected Lithology
~Parameter Information Block
#MNEM.UNIT            Value   Description
#---------- ----------------  -----------
PROJECT.            SANTAN_FE:  
~Other Information Block
# 
~A       DEPTH             GR             RT           RHOB           NPHI 
# ...
       4227.50        34.0050         3.5789         2.4550       0.213000
       4228.00        33.1025         3.5182         2.4675       0.221700
       4228.50        32.1625         3.5063         2.4700       0.222500
       4229.00        31.7825         3.4260         2.4625       0.227200
       4229.50        32.0925         3.4207         2.4575       0.227500
       4230.00        34.1875         3.3556         2.4575       0.229900
       4230.50        36.9825         3.2602         2.4550       0.230000
       4231.00        38.7175         3.1853         2.4425       0.230200
       4231.50        38.4850         3.2469         2.4327       0.234300
       4232.00        36.9425         3.3290         2.4404       0.241200
       4232.50        34.7975         3.3044         2.4542       0.246900
       4233.00        32.3400         3.2284         2.4527       0.256800
       4233.50        30.6750         3.1363         2.4367       0.277700
       4234.00        31.2075         2.9612         2.4148       0.314300
       4234.50        34.0275         2.6500         2.3851       0.357200
       4235.00        38.0975         2.3036         2.3378       0.384000
       4235.50        43.6375         1.9772         2.2863       0.394100
       4236.00        51.5700         1.6264         2.2583       0.404600
       4236.50        61.2075         1.3144         2.2621       0.414000
       4237.00        69.1875         1.1460         2.2808       0.421900
       4237.50        71.1625         1.1275         2.2914       0.426300
       4238.00        69.2625         1.2536         2.2891       0.425100
       4238.50        62.8425         1.4288         2.2714       0.402600
       4239.00        57.5075         1.5142         2.2551       0.384100
       4239.50        56.4500         1.5335         2.2592       0.377800
       4240.00        58.1950         1.5113         2.2871       0.383700
       4240.50        60.9125         1.4408         2.2994       0.400900
       4241.00        64.4575         1.3058         2.2891       0.421700
       4241.50        69.5075         1.1580         2.2765       0.439200
       4242.00        75.3850         1.0529         2.2880       0.453900
       4242.50        80.0825         0.9847         2.3413       0.458400
       4243.00        80.5500         0.9640         2.3544       0.460100
       4243.50        79.0550         1.0096         2.3444       0.454800
       4244.00        76.7725         1.0748         2.3256       0.439500
       4244.50        75.9675         1.2047         2.3002       0.420000
       4245.00        73.6400         1.3720         2.2794       0.404600
       4245.50        69.6475         1.4732         2.2607       0.391300
       4246.00        63.8525         1.5396         2.2442       0.379800
       4246.50        59.7350         1.5254         2.2281       0.369700
       4247.00        56.8300         1.5296         2.2082       0.359100
       4247.50        53.5625         1.4737         2.1883       0.347900
       4248.00        49.7375         1.3837         2.1709       0.339900
       4248.50        46.6675         1.3099         2.1561       0.333400
       4249.00        44.9275         1.2660         2.1501       0.332500
       4249.50        44.1100         1.2583         2.1505       0.333500
       4250.00        44.2850         1.2510         2.1610       0.338000
       4250.50        44.8650         1.2341         2.1688       0.341800
       4251.00        45.4825         1.2052         2.1700       0.348800
       4251.50        46.2625         1.1817         2.1745       0.365100
       4252.00        47.6300         1.1891         2.1750       0.393900
       4252.50        48.0950         1.2184         2.1750       0.412300
       4253.00        47.3475         1.2435         2.1675       0.405500
       4253.50        45.3075         1.2559         2.1625       0.389200
       4254.00        44.8800         1.2693         2.1600       0.376500
       4254.50        44.4200         1.2818         2.1575       0.365800
       4255.00        43.3925         1.3132         2.1525       0.360000
       4255.50        40.9450         1.3225         2.1475       0.360000
       4256.00        40.4450         1.3201         2.1525       0.360000
       4256.50        42.5625         1.2973         2.1659       0.351500
       4257.00        45.8225         1.3014         2.1851       0.350000
       4257.50        49.0550         1.3226         2.2035       0.357800
       4258.00        53.2625         1.3462         2.2228       0.374500
       4258.50        56.4950         1.3716         2.2451       0.386200
       4259.00        57.9800         1.3800         2.2697       0.387100
       4259.50        60.2950         1.3549         2.2918       0.376500
       4260.00        64.6150         1.3053         2.3060       0.360400
       4260.50        68.6175         1.2666         2.3125       0.349900
       4261.00        70.5925         1.2582         2.3125       0.350000
       4261.50        69.8750         1.2672         2.3105       0.364800
       4262.00        71.0200         1.2677         2.2994       0.395500
       4262.50        72.7100         1.2322         2.2757       0.434200
       4263.00        77.4875         1.1601         2.2369       0.470800
       4263.50        83.7800         1.0864         2.1911       0.496500
       4264.00        87.2375         1.0280         2.1568       0.507500
       4264.50        85.4625         1.0158         2.1673       0.481900
       4265.00        79.3425         1.0506         2.2457       0.432600
       4265.50        72.3650         1.1228         2.2928       0.405400
       4266.00        69.0675         1.1889         2.3253       0.380500
       4266.50        68.9050         1.2242         2.3375       0.372900
       4267.00        72.1900         1.2581         2.3315       0.374800
       4267.50        75.8300         1.2603         2.3158       0.378300
       4268.00        78.0350         1.2353         2.3028       0.380400
       4268.50        77.9125         1.1736         2.2931       0.382900
       4269.00        77.4575         1.1431         2.2820       0.388900
       4269.50        75.4075         1.1481         2.2774       0.395200
       4270.00        73.7350         1.1519         2.2727       0.398700
       4270.50        72.5975         1.1464         2.2703       0.398800
       4271.00        71.1600         1.1417         2.2617       0.397700
       4271.50        69.4625         1.1861         2.2523       0.398000
       4272.00        68.5975         1.2817         2.2412       0.401000
       4272.50        69.7225         1.3369         2.2278       0.409500
       4273.00        71.4675         1.3536         2.2153       0.423900
       4273.50        71.6575         1.3636         2.2087       0.445200
       4274.00        67.7800         1.3703         2.2041       0.469900
       4274.50        62.6550         1.3467         2.1981       0.489200
       4275.00        61.1100         1.2936         2.1926       0.496300
       4275.50        63.1400         1.2394         2.1862       0.479400
       4276.00        65.8125         1.2142         2.1820       0.430000
       4276.50        66.7000         1.2078         2.1810       0.374600
       4277.00        65.8300         1.2103         2.1889       0.378300
       4277.50        62.1975         1.2167         2.2057       0.397000
       4278.00        55.2900         1.2645         2.2248       0.407700
       4278.50        47.0550         1.4006         2.2463       0.401900
       4279.00        40.9925         1.5828         2.2655       0.377800
       4279.50        37.5300         1.7523         2.2803       0.340700
       4280.00        33.7100         2.0307         2.2946       0.302100
       4280.50        28.5050         2.5958         2.3223       0.274700
