~Version Information Block
VERS .                  2.0:  CWLS LOG ASCII STANDARD - VERSION 2.0
WRAP .                   NO:  One line per depth step
~Well Information Block
#MNEM.UNIT        Data Type   Information
#---------- ----------------  -----------
STRT .FT             224.00:  START DEPTH
STOP .FT            7977.50:  STOP DEPTH
STEP .FT               0.50:  STEP
NULL .              -999.25:  NULL VALUE
COMP .                     :  COMPANY
WELL .               STA-22:  WELL
FLD  .                     :  FIELD
LOC  .                     :  LOCATION
CTRY .                     :  COUNTRY
STAT .                     :  STATE
CNTY .                     :  COUNTY
SRVC .                     :  SERVICE COMPANY
DATE .                     :  DATE
API  .                     :  API NUMBER
UWI  .                     :  UNIQUE WELL ID
~Curve Information Block
#MNEM.UNIT         API CODE   Curve Description
#---------- ----------------  -----------------
DEPTH.FT                   :  DEPTH
GR   .GAPI                 :  Gamma Ray
RT   .OHMM                 :  RESDE
RHOB .G/C3                 :  Bulk Density
NPHI .V/V                  :  Thermal Neutron Porosity (Ratio Method) in Selected Lithology
~Parameter Information Block
#MNEM.UNIT            Value   Description
#---------- ----------------  -----------
PROJECT.            SANTAN_FE:  
~Other Information Block
# 
~A       DEPTH             GR             RT           RHOB           NPHI 
# ...
        277.50        11.5900         0.7609      -999.2500    -999.250000
        278.00        12.1400         0.9610      -999.2500    -999.250000
        278.50        12.5600         0.9663      -999.2500    -999.250000
        279.00        12.8700         0.7211      -999.2500    -999.250000
        279.50        12.8800         0.7309      -999.2500    -999.250000
        280.00        13.0800         0.5700      -999.2500    -999.250000
        280.50        13.0600         0.5781      -999.2500    -999.250000
        281.00        12.7400         0.7216      -999.2500    -999.250000
        281.50        12.0800         0.7495      -999.2500    -999.250000
        282.00        11.6200         0.7367      -999.2500    -999.250000
        282.50        11.4900         0.6778      -999.2500    -999.250000
        283.00        11.3200         0.6372      -999.2500    -999.250000
        283.50        11.1900         0.5934      -999.2500    -999.250000
        284.00        11.0400         0.6563      -999.2500    -999.250000
        284.50        11.2600         0.7560      -999.2500    -999.250000
        285.00        11.5500         0.6831      -999.2500    -999.250000
        285.50        11.7300         0.5752      -999.2500    -999.250000
        286.00        11.7200         0.6577      -999.2500    -999.250000
        286.50        11.4700         0.6218      -999.2500    -999.250000
        287.00        11.2700         0.6536      -999.2500    -999.250000
        287.50        11.0100         0.7106      -999.2500    -999.250000
        288.00        10.8600         0.7188      -999.2500    -999.250000
        288.50        10.7600         0.7079      -999.2500    -999.250000
        289.00        10.6400         0.8434      -999.2500    -999.250000
        289.50        10.8200         1.0335      -999.2500    -999.250000
        290.00        10.9500         0.7782      -999.2500    -999.250000
        290.50        11.2000         0.7469      -999.2500    -999.250000
        291.00        11.1200         0.6988      -999.2500    -999.250000
        291.50        11.1500         0.6838      -999.2500    -999.250000
        292.00        10.8700         0.7349      -999.2500    -999.250000
        292.50        10.0800         0.6606      -999.2500    -999.250000
        293.00         8.7300         0.6713      -999.2500    -999.250000
        293.50         8.3300         0.6894      -999.2500    -999.250000
        294.00         8.9200         0.6787      -999.2500    -999.250000
        294.50        10.2500         0.6587      -999.2500    -999.250000
        295.00        10.9600         0.6400      -999.2500    -999.250000
        295.50        11.5800         0.6360      -999.2500    -999.250000
        296.00        11.7700         0.5846      -999.2500    -999.250000
        296.50        11.5400         0.6493      -999.2500    -999.250000
        297.00        10.8300         0.6420      -999.2500    -999.250000
        297.50        10.6400         0.6700      -999.2500    -999.250000
        298.00        10.3400         0.6693      -999.2500    -999.250000
        298.50         9.6500         0.6614      -999.2500    -999.250000
        299.00         8.1800         0.6855      -999.2500    -999.250000
        299.50         7.7600         0.7579      -999.2500    -999.250000
        300.00         8.1500         0.7251      -999.2500    -999.250000
        300.50         9.3100         0.6614      -999.2500    -999.250000
        301.00        10.0800         0.6765      -999.2500    -999.250000
        301.50        10.5000         0.6349      -999.2500    -999.250000
        302.00        10.5100         0.7021      -999.2500    -999.250000
        302.50        10.3600         0.7286      -999.2500    -999.250000
        303.00        10.4500         0.7136      -999.2500    -999.250000
        303.50        10.3700         0.7607      -999.2500    -999.250000
        304.00        10.3000         0.7736      -999.2500    -999.250000
        304.50        10.3000         0.8229      -999.2500    -999.250000
        305.00        10.4800         0.8761      -999.2500    -999.250000
        305.50        10.4500         1.0977      -999.2500    -999.250000
        306.00        10.2700         1.3155      -999.2500    -999.250000
        306.50        10.2900         1.2526      -999.2500    -999.250000
        307.00        10.3500         1.1585      -999.2500    -999.250000
        307.50        10.6100         1.1393      -999.2500    -999.250000
        308.00        10.9000         1.1308      -999.2500    -999.250000
        308.50        11.4900         1.1461      -999.2500    -999.250000
        309.00        11.7400         1.2284      -999.2500    -999.250000
        309.50        11.5600         1.3331      -999.2500    -999.250000
        310.00        11.1500         1.3785      -999.2500    -999.250000
        310.50        11.0300         1.4761      -999.2500    -999.250000
        311.00        11.1700         1.4136      -999.2500    -999.250000
        311.50        11.9200         1.2083      -999.2500    -999.250000
        312.00        12.6100         1.0684      -999.2500    -999.250000
        312.50        13.0700         1.0460      -999.2500    -999.250000
        313.00        12.7700         1.0008      -999.2500    -999.250000
        313.50        12.6200         1.0092      -999.2500    -999.250000
        314.00        12.6600         1.0000      -999.2500    -999.250000
        314.50        12.6500         0.9952      -999.2500    -999.250000
        315.00        12.2200         0.9400      -999.2500    -999.250000
        315.50        11.6400         0.9384      -999.2500    -999.250000
        316.00        11.3100         0.9175      -999.2500    -999.250000
        316.50        11.2600         0.8917      -999.2500    -999.250000
        317.00        11.4400         0.9092      -999.2500    -999.250000
        317.50        11.4000         0.9033      -999.2500    -999.250000
        318.00        10.9600         0.9358      -999.2500    -999.250000
        318.50        10.6500         0.8908      -999.2500    -999.250000
        319.00        10.4500         0.8992      -999.2500    -999.250000
        319.50        10.0500         0.8900      -999.2500    -999.250000
        320.00         9.6600         0.8993      -999.2500    -999.250000
        320.50         9.7100         1.0051      -999.2500    -999.250000
        321.00        10.0600         1.0454      -999.2500    -999.250000
        321.50        10.3500         0.8900      -999.2500    -999.250000
        322.00         9.9000         0.9004      -999.2500    -999.250000
        322.50         9.8200         1.0213      -999.2500    -999.250000
        323.00         9.5400         1.1304      -999.2500    -999.250000
        323.50         9.6900         1.0142      -999.2500    -999.250000
        324.00         9.9600         0.8518      -999.2500    -999.250000
        324.50         9.8800         0.8727      -999.2500    -999.250000
        325.00         9.5600         0.9027      -999.2500    -999.250000
        325.50         8.8000         0.9247      -999.2500    -999.250000
        326.00         8.2100         0.8736      -999.2500    -999.250000
        326.50         8.4800         0.9145      -999.2500    -999.250000
        327.00         9.8400         0.9591      -999.2500    -999.250000
        327.50        11.2400         0.9518      -999.2500    -999.250000
        328.00        11.5400         0.9755      -999.2500    -999.250000
        328.50        10.7200         1.0227      -999.2500    -999.250000
        329.00        10.0900         0.9463      -999.2500    -999.250000
        329.50        10.4200         0.9128      -999.2500    -999.250000
        330.00        11.1200         0.9428      -999.2500    -999.250000
        330.50        12.3100         0.9700      -999.2500    -999.250000
