~Version Information Block
VERS .                  2.0:  CWLS LOG ASCII STANDARD - VERSION 2.0
WRAP .                   NO:  One line per depth step
~Well Information Block
#MNEM.UNIT        Data Type   Information
#---------- ----------------  -----------
STRT .FT             750.00:  START DEPTH
STOP .FT            8283.50:  STOP DEPTH
STEP .FT               0.50:  STEP
NULL .              -999.25:  NULL VALUE
COMP .                     :  COMPANY
WELL .               STA-20:  WELL
FLD  .                     :  FIELD
LOC  .                     :  LOCATION
CTRY .                     :  COUNTRY
STAT .                     :  STATE
CNTY .                     :  COUNTY
SRVC .                     :  SERVICE COMPANY
DATE .                     :  DATE
API  .                     :  API NUMBER
UWI  .                     :  UNIQUE WELL ID
~Curve Information Block
#MNEM.UNIT         API CODE   Curve Description
#---------- ----------------  -----------------
DEPTH.FT                   :  DEPTH
GR   .GAPI                 :  Gamma Ray
RT   .OHMM                 :  RESDE
RHOB .G/C3                 :  Bulk Density
NPHI .V/V                  :  Thermal Neutron Porosity (Ratio Method) in Selected Lithology
~Parameter Information Block
#MNEM.UNIT            Value   Description
#---------- ----------------  -----------
PROJECT.            SANTAN_FE:  
~Other Information Block
# 
~A       DEPTH             GR             RT           RHOB           NPHI 
# ...
       2248.00        74.8000         1.3356         2.1726       0.521800
       2248.50        77.6600         1.3225         2.1700       0.525000
       2249.00        78.6025         1.3105         2.1700       0.520700
       2249.50        77.2725         1.2999         2.1696       0.498900
       2250.00        77.4000         1.2918         2.1653       0.471400
       2250.50        79.0025         1.2842         2.1570       0.455900
       2251.00        81.6775         1.2613         2.1500       0.457800
       2251.50        82.7050         1.2298         2.1435       0.468700
       2252.00        83.4925         1.2089         2.1361       0.475600
       2252.50        82.7600         1.2011         2.1281       0.476200
       2253.00        82.1325         1.2000         2.1228       0.466000
       2253.50        82.4625         1.1961         2.1250       0.456900
       2254.00        83.3525         1.1831         2.1335       0.446700
       2254.50        84.1675         1.1760         2.1368       0.444600
       2255.00        83.1225         1.1830         2.1343       0.454900
       2255.50        81.0625         1.1870         2.1295       0.481200
       2256.00        78.9725         1.1814         2.1232       0.507700
       2256.50        77.3400         1.1719         2.1160       0.512600
       2257.00        77.3400         1.1639         2.1112       0.492300
       2257.50        77.4550         1.1604         2.1112       0.464000
       2258.00        78.8300         1.1600         2.1125       0.454900
       2258.50        79.7750         1.1600         2.1125       0.472500
       2259.00        80.8625         1.1600         2.1116       0.500000
       2259.50        80.1475         1.1642         2.1108       0.515700
       2260.00        78.0875         1.1755         2.1125       0.512000
       2260.50        77.2575         1.1902         2.1118       0.500300
       2261.00        78.3525         1.2116         2.1077       0.496200
       2261.50        80.1175         1.2278         2.0995       0.501700
       2262.00        79.3850         1.2450         2.0979       0.518900
       2262.50        77.4750         1.2539         2.1013       0.535300
       2263.00        75.9775         1.2593         2.1109       0.541800
       2263.50        78.0275         1.2600         2.1207       0.546500
       2264.00        80.5475         1.2469         2.1328       0.551300
       2264.50        82.5525         1.2450         2.1449       0.563300
       2265.00        81.9775         1.2384         2.1498       0.567200
       2265.50        82.5775         1.2353         2.1500       0.559800
       2266.00        81.3050         1.2284         2.1500       0.546100
       2266.50        81.2050         1.2164         2.1479       0.531700
       2267.00        79.3300         1.2195         2.1414       0.520000
       2267.50        77.8900         1.2110         2.1321       0.508000
       2268.00        77.8700         1.2100         2.1278       0.491700
       2268.50        79.5175         1.1942         2.1300       0.488800
       2269.00        80.3750         1.1834         2.1375       0.494500
       2269.50        81.0175         1.1802         2.1357       0.503600
       2270.00        81.1425         1.1892         2.1264       0.511700
       2270.50        80.7175         1.1900         2.1188       0.518500
       2271.00        78.7150         1.1808         2.1190       0.528000
       2271.50        78.1725         1.1730         2.1272       0.533900
       2272.00        78.9150         1.1655         2.1321       0.531500
       2272.50        81.7175         1.1510         2.1301       0.524000
       2273.00        82.9775         1.1289         2.1194       0.522100
       2273.50        84.1500         1.1086         2.1115       0.529700
       2274.00        85.2400         1.0957         2.1075       0.540800
       2274.50        86.2975         1.0831         2.1086       0.543200
       2275.00        84.7250         1.0777         2.1142       0.525100
       2275.50        82.1500         1.0775         2.1175       0.508500
       2276.00        80.6900         1.0871         2.1115       0.517000
       2276.50        81.6625         1.0923         2.1077       0.530600
       2277.00        81.6875         1.0949         2.1101       0.518800
       2277.50        82.4450         1.0926         2.1125       0.515000
       2278.00        82.3600         1.1047         2.1111       0.549800
       2278.50        82.6325         1.1320         2.1075       0.573200
       2279.00        80.1600         1.1817         2.1027       0.540000
       2279.50        72.9950         1.3381         2.0883       0.488900
       2280.00        63.5000         1.6920         2.0612       0.414600
       2280.50        55.9625         2.1379         2.0255       0.344200
       2281.00        52.8725         2.4472         2.0108       0.315400
       2281.50        52.2425         2.4865         2.0064       0.322600
       2282.00        50.7200         2.3131         2.0128       0.338900
       2282.50        48.0600         2.0658         1.9922       0.355400
       2283.00        46.7200         1.8866         1.9919       0.371000
       2283.50        48.3525         1.7635         1.9948       0.375600
       2284.00        53.4150         1.6555         2.0216       0.373200
       2284.50        59.3325         1.5608         2.0402       0.367700
       2285.00        64.9550         1.4894         2.0612       0.368600
       2285.50        71.5325         1.4420         2.0844       0.384700
       2286.00        81.3150         1.3735         2.1032       0.413800
       2286.50        94.5025         1.2627         2.1047       0.463300
       2287.00       109.4050         1.1523         2.0840       0.505100
       2287.50       122.0175         1.0993         2.0428       0.535700
       2288.00       126.9975         1.0900         2.0071       0.548000
       2288.50       125.7675         1.0874         2.0044       0.543000
       2289.00       120.7025         1.0743         2.0224       0.519900
       2289.50       115.0375         1.0701         2.0590       0.492700
       2290.00       107.8300         1.1117         2.0961       0.471400
       2290.50        99.6225         1.1867         2.1289       0.454500
       2291.00        92.0450         1.2571         2.1470       0.438100
       2291.50        84.2375         1.3305         2.1587       0.420400
       2292.00        74.5125         1.4252         2.1661       0.410000
       2292.50        65.7025         1.5366         2.1697       0.412700
       2293.00        60.6100         1.6305         2.1700       0.432700
       2293.50        58.2925         1.6560         2.1689       0.458800
       2294.00        58.6075         1.6172         2.1616       0.472400
       2294.50        63.0425         1.5431         2.1311       0.460500
       2295.00        73.6800         1.4748         2.1096       0.437800
       2295.50        84.7200         1.4085         2.1089       0.458100
       2296.00        90.7300         1.3283         2.1053       0.499200
       2296.50        92.0750         1.2591         2.0936       0.506700
       2297.00        90.6875         1.2265         2.0910       0.492500
       2297.50        88.2850         1.2152         2.0953       0.491800
       2298.00        86.1250         1.1970         2.1040       0.497400
       2298.50        85.6675         1.1757         2.1132       0.516600
       2299.00        86.4675         1.1711         2.1150       0.540000
       2299.50        87.8425         1.1750         2.1141       0.561600
       2300.00        88.5150         1.1792         2.1100       0.568800
       2300.50        88.3850         1.1766         2.1100       0.561900
       2301.00        86.6100         1.1694         2.1100       0.548400
