~Version Information Block
VERS .                  2.0:  CWLS LOG ASCII STANDARD - VERSION 2.0
WRAP .                   NO:  One line per depth step
~Well Information Block
#MNEM.UNIT        Data Type   Information
#---------- ----------------  -----------
STRT .FT            5000.50:  START DEPTH
STOP .FT           14504.00:  STOP DEPTH
STEP .FT               0.50:  STEP
NULL .              -999.25:  NULL VALUE
COMP .                     :  COMPANY
WELL .               STA-18:  WELL
FLD  .                     :  FIELD
LOC  .                     :  LOCATION
CTRY .                     :  COUNTRY
STAT .                     :  STATE
CNTY .                     :  COUNTY
SRVC .                     :  SERVICE COMPANY
DATE .                     :  DATE
API  .                     :  API NUMBER
UWI  .                     :  UNIQUE WELL ID
~Curve Information Block
#MNEM.UNIT         API CODE   Curve Description
#---------- ----------------  -----------------
DEPTH.FT                   :  DEPTH
GR   .GAPI                 :  Gamma Ray
RT   .OHMM                 :  SEDP
RHOB .G/C3                 :  Bulk Density
NPHI .V/V                  :  Neutron porosity
~Parameter Information Block
#MNEM.UNIT            Value   Description
#---------- ----------------  -----------
PROJECT.            SANTAN_FE:  
~Other Information Block
# 
~A       DEPTH             GR             RT           RHOB           NPHI 
# ...
      11955.50        44.9800         3.7700         2.5487       0.108900
      11956.00        49.4100         3.5100         2.5000       0.127000
      11956.50        54.3800         3.0500         2.4312       0.157100
      11957.00        51.8800         2.8200         2.3925       0.186000
      11957.50        43.0400         2.7900         2.3612       0.200700
      11958.00        51.2500         2.5500         2.3149       0.198900
      11958.50        73.5900         2.4400         2.3013       0.197100
      11959.00        85.3200         2.6200         2.3617       0.201300
      11959.50        96.6900         2.8400         2.4414       0.204400
      11960.00        97.4400         3.0600         2.4790       0.199000
      11960.50        93.6200         3.3300         2.5327       0.187300
      11961.00        90.7100         3.4200         2.5700       0.176300
      11961.50        89.9500         3.4100         2.5738       0.169900
      11962.00        98.0100         3.3400         2.5800       0.173400
      11962.50       102.0300         3.1400         2.5800       0.186200
      11963.00       113.9600         2.9900         2.5838       0.203300
      11963.50       117.4000         2.8400         2.5823       0.222700
      11964.00       110.8900         2.6500         2.5662       0.236800
      11964.50       116.5200         2.4700         2.5638       0.238300
      11965.00       124.5000         2.3600         2.5815       0.235200
      11965.50       126.2500         2.2900         2.5923       0.237600
      11966.00       132.4800         2.2600         2.5800       0.243800
      11966.50       126.7900         2.2300         2.5761       0.253600
      11967.00       123.4300         2.1600         2.5661       0.267500
      11967.50       128.4100         2.1600         2.5600       0.274500
      11968.00       129.8100         2.1200         2.5639       0.275500
      11968.50       130.6900         2.0800         2.5700       0.280200
      11969.00       137.3600         2.0100         2.5739       0.284000
      11969.50       131.8700         1.9800         2.5800       0.281700
      11970.00       120.7400         1.9600         2.5800       0.280400
      11970.50       127.7500         1.9700         2.5839       0.282500
      11971.00       132.5300         1.9900         2.5900       0.290700
      11971.50       137.1100         2.0000         2.5900       0.302800
      11972.00       140.0600         1.9900         2.5861       0.306600
      11972.50       135.0700         2.0000         2.5839       0.298300
      11973.00       140.5700         2.0100         2.5900       0.291300
      11973.50       133.6400         2.0400         2.5861       0.292200
      11974.00       134.9600         2.1200         2.5761       0.298200
      11974.50       136.9900         2.2400         2.5739       0.318300
      11975.00       135.3300         2.3400         2.5918       0.339000
      11975.50       126.0100         2.4900         2.6061       0.342000
      11976.00       102.6100         2.8000         2.6000       0.322800
      11976.50        83.9800         3.3000         2.6000       0.285600
      11977.00        74.4500         3.8800         2.6000       0.239500
      11977.50        79.5300         4.4000         2.5960       0.192800
      11978.00        87.9100         4.7400         2.5860       0.159000
      11978.50        93.6500         4.8800         2.5681       0.144300
      11979.00        91.2500         4.8500         2.5500       0.142500
      11979.50        88.1700         4.7500         2.5580       0.148700
      11980.00        90.0400         4.6300         2.5740       0.159500
      11980.50        81.6400         4.5300         2.5800       0.169100
      11981.00        87.6800         4.5500         2.5760       0.173900
      11981.50        90.3900         4.6000         2.5580       0.172000
      11982.00        81.8000         4.6400         2.5360       0.166000
      11982.50        78.6100         4.6700         2.5260       0.160100
      11983.00        74.8400         4.6900         2.5160       0.158700
      11983.50        72.8900         4.6900         2.5100       0.159300
      11984.00        68.4700         4.7500         2.5060       0.154200
      11984.50        58.7700         4.9600         2.5080       0.142700
      11985.00        60.8700         5.2000         2.5200       0.131900
      11985.50        59.6100         5.2600         2.5160       0.129600
      11986.00        65.3500         4.9700         2.5100       0.133700
      11986.50        63.1200         4.8400         2.5060       0.137300
      11987.00        59.5100         4.8500         2.5040       0.133000
      11987.50        57.3600         4.9600         2.5262       0.123200
      11988.00        65.7600         5.0800         2.5581       0.118100
      11988.50        79.4300         4.9600         2.5659       0.124400
      11989.00        75.5300         4.7000         2.5438       0.137300
      11989.50        73.3400         4.4200         2.5119       0.147800
      11990.00        71.1400         4.2900         2.4919       0.151400
      11990.50        64.8600         4.2700         2.4759       0.148100
      11991.00        67.9400         4.3000         2.4741       0.144100
      11991.50        70.6900         4.3000         2.4800       0.147000
      11992.00        76.2700         4.2800         2.4718       0.154800
      11992.50        84.7300         4.2000         2.4559       0.162500
      11993.00        88.4400         4.1000         2.4541       0.168300
      11993.50        89.0200         4.0100         2.4723       0.166200
      11994.00        95.7800         3.9600         2.5064       0.158700
      11994.50        98.5800         3.9500         2.5423       0.151800
      11995.00        98.4600         3.9500         2.5641       0.146400
      11995.50       101.5200         3.9800         2.5659       0.145800
      11996.00        88.7900         3.9800         2.5600       0.146300
      11996.50        79.8400         3.9500         2.5600       0.145900
      11997.00        74.3200         3.9000         2.5559       0.145700
      11997.50        82.9700         3.8500         2.5459       0.146700
      11998.00        79.1400         3.7800         2.5317       0.148000
      11998.50        76.5200         3.7400         2.5200       0.146200
      11999.00        74.8200         3.6900         2.5159       0.142300
      11999.50        79.7000         3.6100         2.5100       0.142800
      12000.00        82.2300         3.5200         2.5183       0.150300
      12000.50        77.6700         3.4900         2.5300       0.155900
      12001.00        71.4400         3.3800         2.5175       0.156000
      12001.50        70.9300         3.1900         2.4833       0.160200
      12002.00        71.4400         3.0300         2.4642       0.169300
      12002.50        74.2400         3.0400         2.4826       0.179000
      12003.00        84.5800         3.1300         2.5084       0.185100
      12003.50        86.4900         3.2500         2.5158       0.185100
      12004.00        84.7500         3.3300         2.5100       0.185500
      12004.50        85.1300         3.3700         2.5058       0.185400
      12005.00        81.1000         3.3700         2.4958       0.181500
      12005.50        80.3900         3.3300         2.4900       0.178100
      12006.00        77.5400         3.3500         2.4900       0.178100
      12006.50        81.8900         3.3700         2.5027       0.177700
      12007.00        90.7300         3.3700         2.5285       0.177200
      12007.50        90.5200         3.4600         2.5315       0.181000
      12008.00        89.6100         3.5200         2.5200       0.188900
      12008.50        93.1000         3.5100         2.5242       0.192200
