~Version Information Block
VERS .                  2.0:  CWLS LOG ASCII STANDARD - VERSION 2.0
WRAP .                   NO:  One line per depth step
~Well Information Block
#MNEM.UNIT        Data Type   Information
#---------- ----------------  -----------
STRT .FT            5224.50:  START DEPTH
STOP .FT           13237.50:  STOP DEPTH
STEP .FT               0.50:  STEP
NULL .              -999.25:  NULL VALUE
COMP .                     :  COMPANY
WELL .               STA-32:  WELL
FLD  .                     :  FIELD
LOC  .                     :  LOCATION
CTRY .                     :  COUNTRY
STAT .                     :  STATE
CNTY .                     :  COUNTY
SRVC .                     :  SERVICE COMPANY
DATE .                     :  DATE
API  .                     :  API NUMBER
UWI  .                     :  UNIQUE WELL ID
~Curve Information Block
#MNEM.UNIT         API CODE   Curve Description
#---------- ----------------  -----------------
DEPTH.FT                   :  Depth
GR   .GAPI                 :  Gamma Ray
RT   .OHMM                 :  True Resistivity
RHOB .G/C3                 :  Bulk Density
NPHI .V/V                  :  Neutron Porosity
~Parameter Information Block
#MNEM.UNIT            Value   Description
#---------- ----------------  -----------
PROJECT.            SANTAN_FE:  
~Other Information Block
# 
~A       DEPTH             GR             RT           RHOB           NPHI 
# ...
       6776.00        83.7318         0.9364         2.2945       0.410809
       6776.50        82.0880         0.9258         2.2990       0.412656
       6777.00        81.0360         0.9374         2.3032       0.412321
       6777.50        77.7769         0.9436         2.3065       0.416030
       6778.00        78.3668         0.9241         2.3070       0.424901
       6778.50        77.4449         0.9576         2.3050       0.428611
       6779.00        80.6345         0.9989         2.2992       0.417865
       6779.50        84.8407         1.0182         2.2977       0.403960
       6780.00        82.8503         1.0175         2.3060       0.403781
       6780.50        77.6159         1.0126         2.3143       0.410352
       6781.00        76.9141         1.0397         2.3128       0.409848
       6781.50        76.0028         1.0639         2.2960       0.407137
       6782.00        73.8051         1.0348         2.2737       0.410569
       6782.50        71.7830         1.0324         2.2616       0.415212
       6783.00        69.7230         1.0563         2.2574       0.413393
       6783.50        70.3945         1.0766         2.2518       0.409325
       6784.00        69.3728         1.0735         2.2468       0.410311
       6784.50        69.7692         1.0558         2.2450       0.414377
       6785.00        70.9215         1.0565         2.2445       0.417858
       6785.50        72.4979         1.0715         2.2511       0.418897
       6786.00        73.3400         1.0903         2.2673       0.411329
       6786.50        71.6394         1.0908         2.2859       0.399881
       6787.00        75.1844         1.0884         2.3001       0.402261
       6787.50        73.8643         1.0607         2.3002       0.415552
       6788.00        74.0973         1.0385         2.2880       0.424006
       6788.50        77.1685         1.0308         2.2780       0.428771
       6789.00        76.2661         1.0164         2.2753       0.432727
       6789.50        75.4215         1.0174         2.2770       0.425857
       6790.00        76.1299         1.0323         2.2833       0.409530
       6790.50        73.8036         1.0549         2.2881       0.395927
       6791.00        76.0223         1.0831         2.2903       0.392439
       6791.50        73.4659         1.0922         2.2975       0.397977
       6792.00        74.0159         1.0943         2.3084       0.402012
       6792.50        74.8412         1.1008         2.3168       0.398409
       6793.00        77.1340         1.0884         2.3195       0.389702
       6793.50        77.1081         1.0728         2.3166       0.385852
       6794.00        78.9702         1.0510         2.3172       0.401963
       6794.50        76.6080         1.0196         2.3241       0.429255
       6795.00        78.2431         0.9999         2.3299       0.443687
       6795.50        81.5147         0.9883         2.3327       0.450177
       6796.00        78.2655         1.0091         2.3333       0.445321
       6796.50        79.9400         1.0234         2.3353       0.419918
       6797.00        82.0057         1.0346         2.3398       0.400199
       6797.50        79.9531         1.0879         2.3405       0.405781
       6798.00        73.8510         1.2753         2.3450       0.413309
       6798.50        63.6773         1.5918         2.3778       0.402587
       6799.00        52.4740         2.4529         2.4450       0.359918
       6799.50        48.6627         2.9866         2.5209       0.288108
       6800.00        53.7012         2.7596         2.5511       0.233153
       6800.50        61.7748         1.9312         2.4850       0.227240
       6801.00        68.6802         1.5167         2.3778       0.264992
       6801.50        71.8659         1.5767         2.3232       0.322412
       6802.00        63.7994         1.5640         2.3131       0.361344
       6802.50        58.1704         1.5774         2.3126       0.365599
       6803.00        59.7889         1.6300         2.3141       0.354568
       6803.50        64.0892         1.6145         2.3222       0.342878
       6804.00        66.5109         1.5224         2.3302       0.338910
       6804.50        65.6270         1.4586         2.3258       0.346249
       6805.00        62.8543         1.4083         2.3066       0.360270
       6805.50        67.4982         1.3288         2.2840       0.371116
       6806.00        71.7996         1.2219         2.2694       0.373999
       6806.50        72.7477         1.2186         2.2654       0.374100
       6807.00        72.5218         1.2610         2.2701       0.380989
       6807.50        68.6592         1.3069         2.2783       0.389493
       6808.00        68.6581         1.3415         2.2841       0.390975
       6808.50        63.5673         1.3570         2.2943       0.387942
       6809.00        60.7331         1.3705         2.3083       0.386710
       6809.50        59.5051         1.4428         2.3082       0.388694
       6810.00        56.9048         1.5087         2.2963       0.386871
       6810.50        53.7063         1.5397         2.2877       0.374299
       6811.00        55.5487         1.5159         2.2839       0.361162
       6811.50        55.9847         1.4224         2.2834       0.358465
       6812.00        59.6350         1.2831         2.2913       0.367679
       6812.50        66.9244         1.1932         2.3065       0.383590
       6813.00        73.8903         1.1182         2.3198       0.393197
       6813.50        77.4081         1.0716         2.3225       0.389911
       6814.00        80.9847         1.0749         2.3185       0.380158
       6814.50        80.1953         1.0942         2.3186       0.372915
       6815.00        77.0592         1.1048         2.3228       0.373629
       6815.50        74.4772         1.1068         2.3261       0.381687
       6816.00        76.1703         1.1063         2.3318       0.395054
       6816.50        77.1835         1.1086         2.3406       0.413962
       6817.00        77.3383         1.1173         2.3446       0.430292
       6817.50        78.8860         1.1153         2.3402       0.428940
       6818.00        77.8893         1.1014         2.3374       0.413795
       6818.50        80.3553         1.0904         2.3396       0.402188
       6819.00        77.3691         1.1069         2.3370       0.401828
       6819.50        78.5926         1.1311         2.3277       0.409164
       6820.00        79.1017         1.1368         2.3201       0.414300
       6820.50        79.8243         1.1199         2.3197       0.407833
       6821.00        78.0697         1.1087         2.3255       0.394586
       6821.50        79.5295         1.1239         2.3294       0.386688
       6822.00        80.5718         1.1210         2.3294       0.390148
       6822.50        83.6457         1.1110         2.3275       0.400913
       6823.00        78.7044         1.0890         2.3235       0.407097
       6823.50        80.8943         1.0859         2.3233       0.398672
       6824.00        79.4690         1.0905         2.3308       0.380022
       6824.50        80.5238         1.0890         2.3394       0.373729
       6825.00        82.1093         1.0668         2.3406       0.391491
       6825.50        84.7687         0.9626         2.3377       0.416606
       6826.00        86.4216         0.8573         2.3380       0.435575
       6826.50        85.4822         0.8346         2.3415       0.444046
       6827.00        82.7335         0.8568         2.3477       0.450642
       6827.50        77.2850         0.9674         2.3490       0.460487
       6828.00        68.4201         1.2037         2.3445       0.453350
       6828.50        56.5374         1.5761         2.3692       0.413653
       6829.00        44.0243         2.5706         2.4547       0.348960
