~Version Information Block
VERS .                  2.0:  CWLS LOG ASCII STANDARD - VERSION 2.0
WRAP .                   NO:  One line per depth step
~Well Information Block
#MNEM.UNIT        Data Type   Information
#---------- ----------------  -----------
STRT .FT             350.00:  START DEPTH
STOP .FT           16021.50:  STOP DEPTH
STEP .FT               0.50:  STEP
NULL .              -999.25:  NULL VALUE
COMP .                     :  COMPANY
WELL .               STA-30:  WELL
FLD  .                     :  FIELD
LOC  .                     :  LOCATION
CTRY .                     :  COUNTRY
STAT .                     :  STATE
CNTY .                     :  COUNTY
SRVC .                     :  SERVICE COMPANY
DATE .                     :  DATE
API  .                     :  API NUMBER
UWI  .                     :  UNIQUE WELL ID
~Curve Information Block
#MNEM.UNIT         API CODE   Curve Description
#---------- ----------------  -----------------
DEPTH.FT                   :  
GR   .GAPI                 :  Merged RAW_LOG.GR_17P_1 with RAW_LOG.GR_12P_1 and RAW_LOG.GR_8P_1 and RAW_LOG.GR_6P_1 at 1127.75, 5954.49, 11516.11 F
RT   .OHMM                 :  RT_1 Depth Shifted (Shift Pairs in MATCH_RT set)
RHOB .G/C3                 :  RHOB_1 Depth Shifted (Shift Pairs in MATCH_RHOB set)
NPHI .V/V                  :  NPHI_1 Depth Shifted (Shift Pairs in MATCH_NPHI set)
~Parameter Information Block
#MNEM.UNIT            Value   Description
#---------- ----------------  -----------
PROJECT.            SANTAN_FE:  
~Other Information Block
# 
~A       DEPTH             GR             RT           RHOB           NPHI 
# ...
       1473.50        84.8862         1.1446         2.0231       0.493305
       1474.00        83.5343         1.0964         2.0752       0.480490
       1474.50        81.5651         1.0488         2.1352       0.463701
       1475.00        79.5414         1.1493         2.1746       0.451367
       1475.50        78.0969         1.2767         2.1862       0.445590
       1476.00        75.6478         1.3702         2.1799       0.443883
       1476.50        72.8450         1.4031         2.1666       0.444875
       1477.00        68.6861         1.4115         2.1525       0.447950
       1477.50        63.6099         1.3792         2.1407       0.449577
       1478.00        58.3134         1.3453         2.1314       0.447374
       1478.50        53.5258         1.3141         2.1218       0.442643
       1479.00        49.4260         1.2433         2.1070       0.434948
       1479.50        45.8646         1.1724         2.0881       0.426135
       1480.00        42.5399         1.0890         2.0700       0.423597
       1480.50        39.4332         1.0164         2.0537       0.428430
       1481.00        37.5806         0.9619         2.0354       0.434666
       1481.50        36.4116         0.9300         2.0141       0.441249
       1482.00        36.4877         0.9159         1.9956       0.448417
       1482.50        37.2678         0.9322         1.9868       0.451274
       1483.00        37.4676         0.9398         1.9878       0.448720
       1483.50        36.4103         0.9080         1.9899       0.445710
       1484.00        35.0163         0.8953         1.9850       0.446075
       1484.50        33.1262         0.8566         1.9739       0.449617
       1485.00        31.9029         0.8420         1.9655       0.454283
       1485.50        32.3470         0.8498         1.9666       0.458279
       1486.00        34.8274         0.8773         1.9768       0.461886
       1486.50        38.0839         0.9151         1.9886       0.466943
       1487.00        42.3898         0.9466         1.9943       0.475960
       1487.50        45.7002         0.9835         1.9933       0.490233
       1488.00        48.2760         1.0155         1.9929       0.506000
       1488.50        49.6931         1.0286         1.9978       0.517474
       1489.00        50.7471         1.0086         2.0037       0.523099
       1489.50        51.2205         1.0066         2.0060       0.526251
       1490.00        51.7744         1.0368         2.0067       0.529835
       1490.50        52.1030         1.0837         2.0094       0.530296
       1491.00        52.7063         1.1051         2.0119       0.526758
       1491.50        53.1458         1.1021         2.0093       0.524117
       1492.00        53.2979         1.1058         2.0023       0.523710
       1492.50        54.0261         1.1182         1.9964       0.524217
       1493.00        54.9631         1.1201         1.9948       0.530730
       1493.50        55.9163         1.1171         1.9964       0.543909
       1494.00        57.0284         1.1239         2.0001       0.553250
       1494.50        57.9939         1.1437         2.0062       0.553073
       1495.00        58.3121         1.1673         2.0130       0.545763
       1495.50        58.2123         1.1880         2.0162       0.534344
       1496.00        57.7914         1.1824         2.0156       0.524418
       1496.50        58.8020         1.1781         2.0156       0.521592
       1497.00        59.2939         1.1646         2.0178       0.523670
       1497.50        59.3103         1.1599         2.0197       0.524512
       1498.00        59.8299         1.1642         2.0200       0.523233
       1498.50        59.8516         1.1669         2.0206       0.522437
       1499.00        58.0163         1.1682         2.0229       0.523610
       1499.50        56.8978         1.1675         2.0249       0.526487
       1500.00        56.8108         1.1698         2.0242       0.529565
       1500.50        56.8610         1.1680         2.0231       0.530572
       1501.00        57.4639         1.1667         2.0246       0.527326
       1501.50        58.1158         1.1723         2.0228       0.523009
       1502.00        57.9619         1.1723         2.0172       0.520661
       1502.50        58.0856         1.1752         2.0100       0.520777
       1503.00        58.1237         1.1675         2.0104       0.522498
       1503.50        58.8952         1.1673         2.0176       0.522167
       1504.00        59.8718         1.1669         2.0284       0.516510
       1504.50        60.6900         1.1682         2.0419       0.508437
       1505.00        61.3105         1.1752         2.0559       0.507482
       1505.50        62.3996         1.1791         2.0650       0.517589
       1506.00        62.7690         1.1742         2.0660       0.533887
       1506.50        63.4607         1.1694         2.0599       0.551227
       1507.00        65.2470         1.1633         2.0535       0.568794
       1507.50        66.1212         1.1488         2.0522       0.577487
       1508.00        66.2564         1.1475         2.0565       0.570674
       1508.50        66.2502         1.1481         2.0610       0.559732
       1509.00        65.9737         1.1360         2.0611       0.553980
       1509.50        65.4502         1.1235         2.0575       0.547102
       1510.00        65.4680         1.1134         2.0557       0.536532
       1510.50        65.9154         1.0989         2.0596       0.528027
       1511.00        66.0929         1.0878         2.0658       0.521860
       1511.50        65.6366         1.0692         2.0692       0.515330
       1512.00        65.5996         1.0573         2.0667       0.510688
       1512.50        66.7231         1.0530         2.0614       0.511765
       1513.00        67.5310         1.0460         2.0560       0.515932
       1513.50        68.4628         1.0371         2.0507       0.514268
       1514.00        70.2482         1.0294         2.0457       0.505226
       1514.50        71.7343         1.0243         2.0422       0.495610
       1515.00        71.7559         1.0224         2.0410       0.488239
       1515.50        71.1183         1.0234         2.0414       0.483177
       1516.00        70.6620         1.0179         2.0407       0.485870
       1516.50        70.9019         1.0070         2.0380       0.498574
       1517.00        70.1988         0.9986         2.0350       0.514091
       1517.50        69.9911         0.9790         2.0340       0.523634
       1518.00        71.0600         0.9640         2.0341       0.525612
       1518.50        72.2140         0.9544         2.0328       0.526336
       1519.00        71.6596         0.9456         2.0291       0.529451
       1519.50        72.1029         0.9312         2.0243       0.531581
       1520.00        72.9477         0.9060         2.0198       0.536465
       1520.50        72.9983         0.8932         2.0159       0.550635
       1521.00        72.3845         0.8896         2.0132       0.565423
       1521.50        72.5161         0.8858         2.0118       0.570462
       1522.00        71.5783         0.8810         2.0107       0.568813
       1522.50        70.4927         0.8757         2.0076       0.562745
       1523.00        68.7590         0.8810         2.0019       0.552917
       1523.50        66.3880         0.9192         1.9973       0.544397
       1524.00        61.7110         1.0326         1.9992       0.537057
       1524.50        55.0453         1.2090         2.0105       0.526724
       1525.00        46.5640         1.3598         2.0300       0.516902
       1525.50        37.8529         1.4755         2.0544       0.507364
       1526.00        30.0099         1.5457         2.0776       0.491690
       1526.50        24.5007         1.7089         2.0942       0.473599
