~Version Information Block
VERS .                  2.0:  CWLS LOG ASCII STANDARD - VERSION 2.0
WRAP .                   NO:  One line per depth step
~Well Information Block
#MNEM.UNIT        Data Type   Information
#---------- ----------------  -----------
STRT .FT            5224.50:  START DEPTH
STOP .FT           13237.50:  STOP DEPTH
STEP .FT               0.50:  STEP
NULL .              -999.25:  NULL VALUE
COMP .                     :  COMPANY
WELL .               STA-32:  WELL
FLD  .                     :  FIELD
LOC  .                     :  LOCATION
CTRY .                     :  COUNTRY
STAT .                     :  STATE
CNTY .                     :  COUNTY
SRVC .                     :  SERVICE COMPANY
DATE .                     :  DATE
API  .                     :  API NUMBER
UWI  .                     :  UNIQUE WELL ID
~Curve Information Block
#MNEM.UNIT         API CODE   Curve Description
#---------- ----------------  -----------------
DEPTH.FT                   :  Depth
GR   .GAPI                 :  Gamma Ray
RT   .OHMM                 :  True Resistivity
RHOB .G/C3                 :  Bulk Density
NPHI .V/V                  :  Neutron Porosity
~Parameter Information Block
#MNEM.UNIT            Value   Description
#---------- ----------------  -----------
PROJECT.            SANTAN_FE:  
~Other Information Block
# 
~A       DEPTH             GR             RT           RHOB           NPHI 
       5224.50        66.8847         0.9775         1.7631    -999.250000
       5225.00        66.2369         0.8695         1.8268    -999.250000
       5225.50        69.4258         0.9438         1.9685       0.541199
       5226.00        75.8358         1.2505         2.1194       0.495957
       5226.50        80.9249         1.2569         2.2144       0.472643
       5227.00        81.2938         1.2506         2.2561       0.468026
       5227.50        80.3835         1.3056         2.2752       0.470212
       5228.00        78.0578         1.3915         2.2864       0.458464
       5228.50        69.7941         1.6247         2.2837       0.431510
       5229.00        55.7947         1.7932         2.2515       0.411259
       5229.50        43.7236         1.9026         2.1977       0.404540
       5230.00        39.0017         2.0143         2.1549       0.400382
       5230.50        42.2679         2.0536         2.1451       0.396619
       5231.00        51.4424         1.9319         2.1687       0.403590
       5231.50        60.1417         1.8323         2.2080       0.426383
       5232.00        65.4504         1.7339         2.2408       0.448985
       5232.50        73.1423         1.6354         2.2585       0.455975
       5233.00        75.1168         1.4939         2.2723       0.457901
       5233.50        76.0758         1.4204         2.2830       0.467986
       5234.00        76.3810         1.3799         2.2810       0.480101
       5234.50        77.9549         1.3489         2.2718       0.485191
       5235.00        76.3315         1.3078         2.2630       0.485236
       5235.50        79.0332         1.2548         2.2542       0.491194
       5236.00        76.9636         1.2384         2.2454       0.505124
       5236.50        73.9276         1.2374         2.2361       0.519550
       5237.00        74.7923         1.2220         2.2202       0.526592
       5237.50        75.4755         1.2278         2.1984       0.515191
       5238.00        71.7907         1.3217         2.1835       0.488283
       5238.50        61.9413         1.4753         2.1825       0.467912
       5239.00        49.2943         1.6251         2.1821       0.458338
       5239.50        40.9377         1.7275         2.1609       0.444112
       5240.00        37.1800         1.8398         2.1140       0.425985
       5240.50        38.1914         1.8401         2.0615       0.414242
       5241.00        38.3028         1.7502         2.0313       0.413201
       5241.50        40.7842         1.7023         2.0289       0.422770
       5242.00        45.7007         1.6817         2.0310       0.435217
       5242.50        49.8698         1.6983         2.0253       0.444473
       5243.00        53.9429         1.7237         2.0264       0.452573
       5243.50        51.3671         1.7448         2.0383       0.463696
       5244.00        47.6671         1.7602         2.0407       0.484818
       5244.50        45.1565         1.7545         2.0246       0.501523
       5245.00        41.7282         1.7264         2.0089       0.497457
       5245.50        39.0432         1.6934         2.0000       0.486957
       5246.00        38.1883         1.6455         1.9705       0.483758
       5246.50        35.6894         1.5984         1.9331       0.483600
       5247.00        36.3237         1.5318         1.9149       0.484780
       5247.50        38.3413         1.4699         1.8881       0.483504
       5248.00        40.4983         1.3424         1.8783       0.462548
       5248.50        38.8473         1.3145         1.9455       0.396752
       5249.00        41.4500         1.3251         2.0469       0.342202
       5249.50        44.6676         1.3311         2.1098       0.340745
       5250.00        54.0684         1.3780         2.1460       0.357183
       5250.50        60.2977         1.4485         2.1951       0.368336
       5251.00        62.7175         1.5065         2.2520       0.375788
       5251.50        63.0557         1.5432         2.2956       0.379443
       5252.00        61.2272         1.5549         2.3181       0.374643
       5252.50        58.9369         1.5374         2.3167       0.367022
       5253.00        58.8564         1.5407         2.3046       0.366549
       5253.50        58.3515         1.5333         2.2966       0.369755
       5254.00        59.4757         1.5517         2.2916       0.370331
       5254.50        61.6211         1.5438         2.2832       0.373739
       5255.00        65.8388         1.5164         2.2788       0.380899
       5255.50        67.2646         1.5445         2.2774       0.384770
       5256.00        65.2556         1.5573         2.2759       0.386285
       5256.50        65.5709         1.5269         2.2728       0.386231
       5257.00        64.0553         1.5336         2.2697       0.379832
       5257.50        65.1960         1.5750         2.2701       0.368751
       5258.00        65.2204         1.5568         2.2729       0.364641
       5258.50        72.2453         1.5141         2.2782       0.369462
       5259.00        75.9851         1.5379         2.2842       0.372627
       5259.50        78.7929         1.5523         2.2906       0.378925
       5260.00        74.1822         1.5488         2.2991       0.394125
       5260.50        75.5337         1.5536         2.3092       0.407132
       5261.00        72.2025         1.5838         2.3163       0.403169
       5261.50        72.1099         1.6008         2.3179       0.398340
       5262.00        70.6228         1.6125         2.3187       0.402809
       5262.50        69.8679         1.5931         2.3221       0.404258
       5263.00        72.2892         1.5871         2.3256       0.401224
       5263.50        73.2242         1.5982         2.3238       0.403150
       5264.00        73.4385         1.5801         2.3224       0.408772
       5264.50        78.1721         1.5557         2.3203       0.414234
       5265.00        77.3285         1.5558         2.3146       0.419582
       5265.50        75.2037         1.5473         2.3093       0.422106
       5266.00        77.0190         1.5444         2.3085       0.419477
       5266.50        77.8379         1.5280         2.3081       0.422382
       5267.00        79.5530         1.5179         2.3069       0.434713
       5267.50        79.4344         1.4769         2.3072       0.441033
       5268.00        78.1368         1.4285         2.3001       0.435558
       5268.50        79.0812         1.4101         2.2930       0.432194
       5269.00        79.4383         1.3831         2.2860       0.439026
       5269.50        78.7191         1.3604         2.2832       0.444107
       5270.00        77.0468         1.3533         2.2928       0.443378
       5270.50        77.2066         1.3645         2.3105       0.448257
       5271.00        76.8157         1.4136         2.3236       0.454551
       5271.50        72.8900         1.5084         2.3362       0.438624
       5272.00        65.0765         1.7407         2.3481       0.398701
       5272.50        51.7214         2.0779         2.3568       0.352117
       5273.00        42.8247         1.8632         2.3587       0.319817
       5273.50        39.4212         1.6289         2.3236       0.314617
       5274.00        37.7050         1.5019         2.2528       0.325623
       5274.50        38.2119         1.4102         2.1880       0.337706
       5275.00        39.9936         1.3449         2.1487       0.351318
       5275.50        41.1333         1.3096         2.1338       0.365423
       5276.00        38.8960         1.2808         2.1314       0.369764
       5276.50        37.3070         1.2529         2.1253       0.366755
       5277.00        35.0579         1.2238         2.1172       0.365379
       5277.50        37.4787         1.2051         2.1141       0.360138
