~Version Information Block
VERS .                  2.0:  CWLS LOG ASCII STANDARD - VERSION 2.0
WRAP .                   NO:  One line per depth step
~Well Information Block
#MNEM.UNIT        Data Type   Information
#---------- ----------------  -----------
STRT .FT            6114.50:  START DEPTH
STOP .FT           14965.50:  STOP DEPTH
STEP .FT               0.50:  STEP
NULL .              -999.25:  NULL VALUE
COMP .                     :  COMPANY
WELL .               STA-36:  WELL
FLD  .                     :  FIELD
LOC  .                     :  LOCATION
CTRY .                     :  COUNTRY
STAT .                     :  STATE
CNTY .                     :  COUNTY
SRVC .                     :  SERVICE COMPANY
DATE .                     :  DATE
API  .                     :  API NUMBER
UWI  .                     :  UNIQUE WELL ID
~Curve Information Block
#MNEM.UNIT         API CODE   Curve Description
#---------- ----------------  -----------------
DEPTH.FT                   :  Depth
GR   .GAPI                 :  Gamma Ray
RT   .OHMM                 :  True Resistivity
RHOB .G/C3                 :  Bulk Density
NPHI .V/V                  :  Neutron Porosity
~Parameter Information Block
#MNEM.UNIT            Value   Description
#---------- ----------------  -----------
PROJECT.            SANTAN_FE:  
~Other Information Block
# 
~A       DEPTH             GR             RT           RHOB           NPHI 
# ...
       9645.50        66.6189         1.7697         2.4896       0.241200
       9646.00        51.7786         1.7099         2.4194       0.234100
       9646.50        52.6544         1.7846         2.3912       0.230700
       9647.00        54.7715         1.9567         2.4121       0.221400
       9647.50        50.6942         2.2701         2.4311       0.210500
       9648.00        47.4535         2.3507         2.4409       0.201800
       9648.50        53.1160         2.5106         2.4531       0.195700
       9649.00        54.7822         2.6589         2.4655       0.194600
       9649.50        53.3989         2.6867         2.4688       0.197200
       9650.00        48.0031         2.6003         2.4525       0.202300
       9650.50        43.6304         2.5135         2.4370       0.207700
       9651.00        48.5590         2.5029         2.4375       0.209000
       9651.50        55.0089         2.5515         2.4543       0.206300
       9652.00        56.6274         2.5960         2.4718       0.206100
       9652.50        54.3536         2.5789         2.4748       0.211300
       9653.00        51.8430         2.5188         2.4703       0.216200
       9653.50        52.7018         2.4501         2.4663       0.215600
       9654.00        54.0271         2.4109         2.4657       0.212500
       9654.50        56.6581         2.3819         2.4625       0.208600
       9655.00        51.6328         2.3504         2.4481       0.205400
       9655.50        49.7804         2.3245         2.4331       0.205800
       9656.00        48.4950         2.3266         2.4327       0.206600
       9656.50        48.8357         2.3299         2.4428       0.208400
       9657.00        46.7614         2.3460         2.4558       0.218500
       9657.50        49.4820         2.3524         2.4712       0.240000
       9658.00        61.7097         2.2722         2.4861       0.262100
       9658.50        70.2184         2.0981         2.4877       0.274800
       9659.00        72.2538         1.9246         2.4610       0.277900
       9659.50        75.4353         1.7498         2.4211       0.278700
       9660.00        63.1948         1.6159         2.3975       0.279300
       9660.50        57.6077         1.5055         2.4032       0.278500
       9661.00        61.5113         1.5164         2.4365       0.273000
       9661.50        72.3347         1.6484         2.4800       0.268700
       9662.00        78.7179         1.8339         2.5126       0.271700
       9662.50        86.2981         1.9165         2.5241       0.274900
       9663.00        84.5840         2.0187         2.5218       0.270600
       9663.50        86.1037         2.1335         2.5165       0.263100
       9664.00        83.2330         2.2331         2.5139       0.254800
       9664.50        79.8995         2.4532         2.5160       0.239400
       9665.00        81.3850         2.5450         2.5196       0.225300
       9665.50        81.7780         2.6495         2.5214       0.221400
       9666.00        79.0464         2.6687         2.5208       0.222100
       9666.50        75.2620         2.6397         2.5193       0.225600
       9667.00        79.0469         2.5213         2.5185       0.236200
       9667.50        83.7924         2.4362         2.5162       0.250700
       9668.00        84.4885         2.3875         2.5114       0.261300
       9668.50        84.9275         2.3348         2.5099       0.263700
       9669.00        83.5706         2.3237         2.5134       0.256400
       9669.50        74.9443         2.3337         2.5152       0.242600
       9670.00        67.2772         2.4562         2.5115       0.228000
       9670.50        66.0545         2.5513         2.5026       0.218800
       9671.00        73.8513         2.5917         2.4918       0.225400
       9671.50        80.5892         2.5672         2.4791       0.247600
       9672.00        95.7265         2.4210         2.4623       0.274600
       9672.50       102.4953         2.3676         2.4486       0.282900
       9673.00       101.9269         2.3636         2.4530       0.268900
       9673.50        94.7182         2.5661         2.4823       0.250100
       9674.00        89.3676         2.6678         2.5188       0.234300
       9674.50        84.3420         2.7858         2.5461       0.220500
       9675.00        81.2881         2.8977         2.5568       0.208800
       9675.50        81.0893         2.9541         2.5567       0.204000
       9676.00        82.9617         2.9907         2.5538       0.207200
       9676.50        84.9514         3.0109         2.5485       0.209100
       9677.00        83.8882         3.0425         2.5410       0.205100
       9677.50        76.9197         3.0905         2.5320       0.202000
       9678.00        73.3686         3.0675         2.5229       0.203700
       9678.50        77.6180         2.8853         2.5185       0.212700
       9679.00        77.2103         2.6186         2.5197       0.227300
       9679.50        82.5310         2.4956         2.5239       0.238200
       9680.00        82.7537         2.4570         2.5275       0.240200
       9680.50        88.1430         2.4603         2.5270       0.237200
       9681.00        85.1268         2.4992         2.5240       0.232500
       9681.50        81.0724         2.5035         2.5249       0.232900
       9682.00        80.8882         2.5272         2.5301       0.240200
       9682.50        79.9933         2.5753         2.5367       0.243200
       9683.00        78.2114         2.7023         2.5460       0.239100
       9683.50        75.2629         2.8328         2.5513       0.230100
       9684.00        76.8514         2.8841         2.5488       0.217800
       9684.50        70.5807         2.9941         2.5512       0.205700
       9685.00        63.3825         3.2590         2.5661       0.193300
       9685.50        62.7135         3.3280         2.5817       0.185700
       9686.00        61.3797         3.0944         2.5807       0.191800
       9686.50        69.9801         2.7878         2.5646       0.214100
       9687.00        74.6040         2.5557         2.5489       0.237500
       9687.50        75.9278         2.5075         2.5383       0.245600
       9688.00        75.1021         2.5008         2.5291       0.242100
       9688.50        76.2001         2.4898         2.5184       0.236600
       9689.00        77.3994         2.4439         2.5108       0.234000
       9689.50        76.6739         2.3790         2.5056       0.234700
       9690.00        77.3383         2.1945         2.4989       0.243200
       9690.50        83.9292         1.9314         2.4934       0.265000
       9691.00        90.7436         1.8663         2.4923       0.286200
       9691.50        89.2767         2.0629         2.4918       0.274800
       9692.00        83.9997         2.3744         2.5000       0.254200
       9692.50        75.2479         2.6854         2.5174       0.233400
       9693.00        72.0869         2.8922         2.5242       0.214800
       9693.50        67.3451         2.9626         2.5147       0.204000
       9694.00        63.9549         2.9295         2.5075       0.200400
       9694.50        63.3216         2.8744         2.5104       0.205900
       9695.00        69.8571         2.7233         2.5136       0.221700
       9695.50        77.3152         2.5492         2.5151       0.240700
       9696.00        79.3269         2.3938         2.5193       0.255100
       9696.50        84.0549         2.2213         2.5249       0.266900
       9697.00        87.7872         2.0075         2.5347       0.266700
       9697.50        84.4957         2.0056         2.5463       0.251200
       9698.00        80.3011         2.1425         2.5500       0.236800
       9698.50        78.0550         2.3807         2.5496       0.229700
