~Version Information Block
VERS .                  2.0:  CWLS LOG ASCII STANDARD - VERSION 2.0
WRAP .                   NO:  One line per depth step
~Well Information Block
#MNEM.UNIT        Data Type   Information
#---------- ----------------  -----------
STRT .FT            6114.50:  START DEPTH
STOP .FT           14965.50:  STOP DEPTH
STEP .FT               0.50:  STEP
NULL .              -999.25:  NULL VALUE
COMP .                     :  COMPANY
WELL .               STA-36:  WELL
FLD  .                     :  FIELD
LOC  .                     :  LOCATION
CTRY .                     :  COUNTRY
STAT .                     :  STATE
CNTY .                     :  COUNTY
SRVC .                     :  SERVICE COMPANY
DATE .                     :  DATE
API  .                     :  API NUMBER
UWI  .                     :  UNIQUE WELL ID
~Curve Information Block
#MNEM.UNIT         API CODE   Curve Description
#---------- ----------------  -----------------
DEPTH.FT                   :  Depth
GR   .GAPI                 :  Gamma Ray
RT   .OHMM                 :  True Resistivity
RHOB .G/C3                 :  Bulk Density
NPHI .V/V                  :  Neutron Porosity
~Parameter Information Block
#MNEM.UNIT            Value   Description
#---------- ----------------  -----------
PROJECT.            SANTAN_FE:  
~Other Information Block
# 
~A       DEPTH             GR             RT           RHOB           NPHI 
# ...
      12534.50        28.7896        37.7992         2.7157       0.034100
      12535.00        33.6673        41.2696         2.7199       0.033800
      12535.50        29.4132        43.1918         2.7180       0.033400
      12536.00        20.3958        44.1055         2.7144       0.032500
      12536.50        17.1415        43.6690         2.7154       0.032300
      12537.00        18.0022        44.9266         2.7249       0.033100
      12537.50        17.8730        44.7004         2.7285       0.033200
      12538.00        18.2233        44.4213         2.7219       0.032400
      12538.50        20.1262        46.2596         2.7185       0.032000
      12539.00        18.9631        45.1298         2.7179       0.031400
      12539.50        19.4208        45.5258         2.7125       0.030700
      12540.00        16.1034        46.4815         2.7074       0.029900
      12540.50        14.8135        46.0617         2.7113       0.029200
      12541.00        12.1216        45.6789         2.7200       0.029100
      12541.50        12.1148        44.5324         2.7245       0.031800
      12542.00        12.6321        43.3823         2.7200       0.035400
      12542.50        11.2766        40.0242         2.7056       0.037800
      12543.00        11.5004        36.0292         2.6922       0.039300
      12543.50        10.6308        31.7699         2.6858       0.041300
      12544.00        10.5596        30.3855         2.6753       0.043900
      12544.50        12.4290        27.3009         2.6642       0.048100
      12545.00        12.1313        24.0337         2.6560       0.053200
      12545.50        15.5531        22.0423         2.6508       0.056300
      12546.00        15.0742        20.9323         2.6537       0.056700
      12546.50        14.4611        20.2231         2.6551       0.057600
      12547.00        12.8436        18.9685         2.6500       0.059100
      12547.50        12.5968        18.3987         2.6664       0.060600
      12548.00        13.7998        17.6630         2.6824       0.061900
      12548.50        16.4438        16.3389         2.6869       0.062300
      12549.00        26.4354        16.3336         2.6905       0.063900
      12549.50        36.2607        12.5170         2.6935       0.068900
      12550.00        42.0316        11.7339         2.6835       0.075200
      12550.50        44.8598        11.0951         2.6609       0.079700
      12551.00        46.6500         9.5940         2.6566       0.083900
      12551.50        50.2166         7.8935         2.6545       0.090600
      12552.00        53.9283         7.4164         2.6428       0.100400
      12552.50        60.3434         6.1669         2.6266       0.112300
      12553.00        63.3176         3.8335         2.6110       0.125100
      12553.50        67.4640         3.6569         2.6073       0.131700
      12554.00        68.5798         3.6749         2.6186       0.131600
      12554.50        67.9969         3.7361         2.6265       0.132700
      12555.00        67.5051         3.6656         2.6277       0.139800
      12555.50        69.9106         3.2442         2.6348       0.149200
      12556.00        71.0879         2.9690         2.6362       0.153100
      12556.50        71.3764         2.8743         2.6276       0.153800
      12557.00        71.0195         2.9026         2.6306       0.155600
      12557.50        69.3762         2.8083         2.6403       0.160400
      12558.00        68.9227         2.6554         2.6413       0.167000
      12558.50        72.8239         2.7207         2.6375       0.167200
      12559.00        69.8602         2.7086         2.6328       0.164100
      12559.50        71.2070         2.6160         2.6271       0.164100
      12560.00        74.1456         2.5553         2.6228       0.171400
      12560.50        75.8664         2.4196         2.6270       0.183500
      12561.00        78.3822         2.3563         2.6431       0.190500
      12561.50        79.5493         2.3578         2.6514       0.190300
      12562.00        82.3959         2.4331         2.6397       0.185700
      12562.50        78.0639         2.6723         2.6250       0.181200
      12563.00        75.4050         3.1127         2.6140       0.172600
      12563.50        66.5272         3.8805         2.6020       0.152100
      12564.00        57.2711         5.0684         2.6017       0.124500
      12564.50        47.4880         7.1246         2.6232       0.092100
      12565.00        39.0039         8.8245         2.6456       0.070800
      12565.50        26.2144        10.1327         2.6696       0.064600
      12566.00        22.4840        10.2950         2.7019       0.065600
      12566.50        23.7812        10.1387         2.7091       0.069000
      12567.00        26.1927         9.8439         2.6990       0.070100
      12567.50        34.4685         9.3944         2.7001       0.072700
      12568.00        41.9652         8.6533         2.6877       0.078600
      12568.50        48.5837         7.9674         2.6427       0.086900
      12569.00        49.6766         7.1283         2.5631       0.094000
      12569.50        48.7098         5.7982         2.5101       0.100100
      12570.00        45.0915         6.0749         2.4949       0.104200
      12570.50        44.8445         7.1600         2.5101       0.100100
      12571.00        46.5354         6.4961         2.5513       0.091500
      12571.50        48.5657         5.8282         2.5928       0.089500
      12572.00        50.8442         5.6382         2.6104       0.092300
      12572.50        49.8524         5.7777         2.5968       0.090700
      12573.00        48.1355         5.8243         2.6014       0.084200
      12573.50        57.0954         5.6567         2.6177       0.083000
      12574.00        68.0060         4.8283         2.6131       0.092000
      12574.50        72.8237         4.2064         2.5921       0.109400
      12575.00        73.7043         3.7878         2.5629       0.128400
      12575.50        82.5235         3.5299         2.5281       0.144400
      12576.00        86.4171         3.3512         2.5076       0.161800
      12576.50        91.1972         3.4366         2.4932       0.177800
      12577.00        81.8015         3.6370         2.4642       0.182000
      12577.50        67.9675         3.5609         2.4380       0.167200
      12578.00        65.6289         3.4448         2.4533       0.145100
      12578.50        61.8317         3.3111         2.4914       0.132300
      12579.00        59.9120         3.2053         2.5131       0.129900
      12579.50        66.0237         3.0822         2.5132       0.131700
      12580.00        73.9737         2.7421         2.5105       0.137700
      12580.50        85.4878         2.5042         2.5195       0.148200
      12581.00        92.8846         2.2803         2.5397       0.164600
      12581.50        98.2193         2.0702         2.5607       0.187400
      12582.00       103.0087         1.8100         2.5812       0.206500
      12582.50       105.3988         1.7012         2.5957       0.217400
      12583.00       103.5577         1.7884         2.6025       0.223100
      12583.50        95.0762         1.8667         2.6005       0.218600
      12584.00        84.0210         2.1595         2.5867       0.201000
      12584.50        75.1426         2.3143         2.5549       0.180100
      12585.00        63.9481         2.4000         2.5112       0.165800
      12585.50        59.7241         2.5502         2.4748       0.157500
      12586.00        59.4577         2.7377         2.4597       0.153200
      12586.50        62.9515         2.6707         2.4684       0.155200
      12587.00        73.7314         2.6375         2.4967       0.164200
      12587.50        83.6673         2.5642         2.5296       0.176000
