~Version Information Block
VERS .                  2.0:  CWLS LOG ASCII STANDARD - VERSION 2.0
WRAP .                   NO:  One line per depth step
~Well Information Block
#MNEM.UNIT        Data Type   Information
#---------- ----------------  -----------
STRT .FT            4880.50:  START DEPTH
STOP .FT           10428.00:  STOP DEPTH
STEP .FT               0.50:  STEP
NULL .              -999.25:  NULL VALUE
COMP .                     :  COMPANY
WELL .                STA-3:  WELL
FLD  .                     :  FIELD
LOC  .                     :  LOCATION
CTRY .                     :  COUNTRY
STAT .                     :  STATE
CNTY .                     :  COUNTY
SRVC .                     :  SERVICE COMPANY
DATE .                     :  DATE
API  .                     :  API NUMBER
UWI  .                     :  UNIQUE WELL ID
~Curve Information Block
#MNEM.UNIT         API CODE   Curve Description
#---------- ----------------  -----------------
DEPTH.FT                   :  DEPTH
GR   .GAPI                 :  Gamma Ray
RT   .OHMM                 :  Deep resistivity
RHOB .G/C3                 :  Bulk Density
NPHI .V/V                  :  Neutron porosity
DT   .US/F                 :  Sonic
~Parameter Information Block
#MNEM.UNIT            Value   Description
#---------- ----------------  -----------
PROJECT.            SANTAN_FE:  
~Other Information Block
# 
~A       DEPTH             GR             RT           RHOB           NPHI             DT 
# ...
       7862.00       113.8059         2.7992         2.4718       0.242600        92.0000
       7862.50       112.2437         2.6765         2.4716       0.243100        91.9000
       7863.00       112.6851         2.6525         2.4750       0.244700        92.2000
       7863.50       113.7135         2.6388         2.4694       0.253200        92.8500
       7864.00       111.4177         2.6000         2.4756       0.262300        92.3000
       7864.50       113.2260         2.6040         2.4781       0.262900        92.8000
       7865.00       113.6518         2.6315         2.4786       0.259200        93.3500
       7865.50       117.7316         2.5226         2.4807       0.265000        93.8500
       7866.00       117.7258         2.3965         2.5015       0.276700        94.7000
       7866.50       115.5736         2.3231         2.4926       0.287400        95.2000
       7867.00       109.9691         2.3077         2.5098       0.285400        95.7000
       7867.50       106.0802         2.2882         2.4859       0.289000        95.5500
       7868.00       112.4971         2.3034         2.4954       0.291500        96.3000
       7868.50       118.4068         2.2287         2.4920       0.302200        96.9000
       7869.00       127.4022         2.1914         2.4904       0.305700        97.6000
       7869.50       124.7852         2.1554         2.4877       0.302200        97.8500
       7870.00       127.1671         2.1295         2.4825       0.297000        98.4000
       7870.50       128.0273         2.0959         2.4763       0.296500        98.8500
       7871.00       127.1005         2.0865         2.4681       0.310400        98.8000
       7871.50       122.9136         2.0852         2.4695       0.308500        99.2000
       7872.00       117.6670         2.0955         2.4721       0.313300        99.2000
       7872.50       120.5368         2.1114         2.4711       0.301400        99.2500
       7873.00       118.5625         2.1069         2.4650       0.290200        99.4000
       7873.50       118.4135         2.1667         2.4782       0.279900        99.4000
       7874.00       115.5561         2.1939         2.4801       0.281200        99.1500
       7874.50       117.6152         2.1984         2.4833       0.302700        99.2000
       7875.00       121.4336         2.2044         2.4773       0.319300        99.0500
       7875.50       122.7866         2.1862         2.4624       0.326700        98.8500
       7876.00       124.3745         2.2187         2.4534       0.318800        98.6000
       7876.50       119.0181         2.3017         2.4616       0.309400        98.4000
       7877.00       117.9377         2.2541         2.4571       0.315600        98.3500
       7877.50       113.5709         2.2756         2.4570       0.312000        98.3500
       7878.00       113.5348         2.2214         2.4569       0.311300        98.4500
       7878.50       114.9710         2.2497         2.4624       0.296700        98.5000
       7879.00       120.4868         2.2395         2.4560       0.301300        98.6000
       7879.50       120.3988         2.2057         2.4479       0.309200        98.9000
       7880.00       120.2664         2.1539         2.4517       0.308300        99.0500
       7880.50       118.0149         2.1539         2.4451       0.307200        99.0000
       7881.00       120.4363         2.1930         2.4491       0.300300        99.1000
       7881.50       117.9404         2.1818         2.4455       0.293900        98.1000
       7882.00       118.8578         2.2074         2.4441       0.275500        97.8500
       7882.50       115.6026         2.3221         2.4643       0.264900        96.8000
       7883.00       112.4414         2.3811         2.4693       0.265500        95.4000
       7883.50       104.4113         2.5777         2.4780       0.271800        94.4000
       7884.00       107.2175         2.4606         2.4770       0.277700        94.2000
       7884.50       114.6609         1.8971         2.5129       0.285300        93.0000
       7885.00       120.8557         2.0295         2.5252       0.286600        92.5000
       7885.50       113.9510         2.4872         2.5089       0.267000        90.3500
       7886.00       103.0943         2.8569         2.4858       0.251800        88.0500
       7886.50        91.1412         2.9347         2.4751       0.246500        86.9000
       7887.00        85.3036         2.9919         2.4658       0.243800        86.2000
       7887.50        80.5415         3.1199         2.4722       0.225900        86.1500
       7888.00        82.7522         3.3911         2.4856       0.219600        85.9500
       7888.50        84.0796         3.4302         2.4785       0.216700        85.9500
       7889.00        86.8061         3.3669         2.4794       0.225000        86.8500
       7889.50        89.0880         3.1055         2.4849       0.233100        87.6000
       7890.00        97.5729         2.8390         2.4882       0.242300        89.0000
       7890.50       106.1732         2.6026         2.4953       0.257300        90.8500
       7891.00       113.7274         2.4304         2.4992       0.266700        92.2000
       7891.50       117.6570         2.1196         2.5170       0.269800        93.5500
       7892.00       117.8779         1.9599         2.5159       0.272700        95.8000
       7892.50       119.5088         1.6933         2.5236       0.275900        96.6000
       7893.00       118.0582         1.5972         2.5313       0.293100        96.5500
       7893.50       115.2343         1.6599         2.5508       0.292000        96.5500
       7894.00       114.3057         1.7304         2.5403       0.293300        96.4000
       7894.50       112.2347         1.7292         2.5434       0.290500        96.0000
       7895.00       115.4847         1.7101         2.5211       0.291500        95.8000
       7895.50       113.7602         1.6815         2.5323       0.299900        96.3500
       7896.00       114.5731         1.6537         2.5369       0.300700        96.6500
       7896.50       112.4645         1.6493         2.5422       0.312000        97.0000
       7897.00       113.4446         1.6602         2.5446       0.297900        97.0000
       7897.50       109.3080         1.8019         2.5532       0.302500        96.7000
       7898.00       108.9033         1.7930         2.5527       0.298400        96.9500
       7898.50       109.6418         1.7613         2.5465       0.313800        97.4000
       7899.00       118.2389         1.7008         2.5490       0.312900        98.8500
       7899.50       118.9225         1.6390         2.5457       0.313700        99.1000
       7900.00       119.5433         1.5774         2.5306       0.313800        99.1000
       7900.50       104.8230         1.5360         2.5061       0.292500        96.2500
       7901.00        91.7687         2.0751         2.4799       0.259800        92.9500
       7901.50        72.8736         3.3655         2.4566       0.215300        88.8000
       7902.00        61.2746         3.7599         2.4490       0.186800        83.9000
       7902.50        59.9299         4.5585         2.4318       0.174500        83.0500
       7903.00        62.2478         3.9938         2.4148       0.171100        83.9000
       7903.50        67.3792         3.6774         2.4071       0.176800        84.1500
       7904.00        67.1821         3.4715         2.4032       0.189200        85.9500
       7904.50        58.6899         2.8386         2.3841       0.186400        86.3000
       7905.00        59.4057         2.8864         2.3712       0.184000        85.8000
       7905.50        62.9967         3.3722         2.3903       0.186700        86.4500
       7906.00        75.8121         3.2563         2.4462       0.218600        85.4500
