~Version Information Block
VERS .                  2.0:  CWLS LOG ASCII STANDARD - VERSION 2.0
WRAP .                   NO:  One line per depth step
~Well Information Block
#MNEM.UNIT        Data Type   Information
#---------- ----------------  -----------
STRT .FT             750.00:  START DEPTH
STOP .FT            8283.50:  STOP DEPTH
STEP .FT               0.50:  STEP
NULL .              -999.25:  NULL VALUE
COMP .                     :  COMPANY
WELL .               STA-20:  WELL
FLD  .                     :  FIELD
LOC  .                     :  LOCATION
CTRY .                     :  COUNTRY
STAT .                     :  STATE
CNTY .                     :  COUNTY
SRVC .                     :  SERVICE COMPANY
DATE .                     :  DATE
API  .                     :  API NUMBER
UWI  .                     :  UNIQUE WELL ID
~Curve Information Block
#MNEM.UNIT         API CODE   Curve Description
#---------- ----------------  -----------------
DEPTH.FT                   :  DEPTH
GR   .GAPI                 :  Gamma Ray
RT   .OHMM                 :  RESDE
RHOB .G/C3                 :  Bulk Density
NPHI .V/V                  :  Thermal Neutron Porosity (Ratio Method) in Selected Lithology
~Parameter Information Block
#MNEM.UNIT            Value   Description
#---------- ----------------  -----------
PROJECT.            SANTAN_FE:  
~Other Information Block
# 
~A       DEPTH             GR             RT           RHOB           NPHI 
# ...
       5244.00        43.4114         1.2017         2.2709       0.305800
       5244.50        43.2500         1.1437         2.2395       0.325300
       5245.00        43.9896         1.1413         2.2127       0.353900
       5245.50        44.7186         1.1622         2.2002       0.363000
       5246.00        45.3771         1.1702         2.2121       0.350600
       5246.50        45.4514         1.1874         2.2140       0.336500
       5247.00        45.2900         1.2170         2.2160       0.335600
       5247.50        45.0410         1.2280         2.2138       0.339200
       5248.00        44.6310         1.1796         2.2100       0.340000
       5248.50        44.2210         1.1301         2.2105       0.335400
       5249.00        43.8171         1.1105         2.2159       0.331000
       5249.50        43.4110         1.1064         2.2135       0.330000
       5250.00        42.7520         1.1460         2.2108       0.334400
       5250.50        41.9381         1.1772         2.2166       0.343100
       5251.00        41.1220         1.2085         2.2200       0.348800
       5251.50        40.8000         1.1583         2.2190       0.345900
       5252.00        41.2980         1.1041         2.2143       0.341300
       5252.50        42.1119         1.1126         2.2181       0.340000
       5253.00        42.9280         1.1206         2.2296       0.336100
       5253.50        43.2500         1.1282         2.2440       0.327700
       5254.00        43.2500         1.1435         2.2485       0.321500
       5254.50        42.7520         1.1526         2.2429       0.323600
       5255.00        42.4300         1.1641         2.2400       0.328400
       5255.50        42.4300         1.1824         2.2400       0.333500
       5256.00        43.4216         1.2376         2.2400       0.334900
       5256.50        46.0493         1.3002         2.2380       0.335100
       5257.00        49.3132         1.2507         2.2326       0.338200
       5257.50        53.0720         1.0330         2.2256       0.346300
       5258.00        56.6592         0.8404         2.2149       0.359200
       5258.50        60.1726         0.7549         2.2100       0.379900
       5259.00        62.8510         0.6988         2.2125       0.404700
       5259.50        64.1428         0.6617         2.2152       0.423500
       5260.00        64.7094         0.6487         2.2150       0.433000
       5260.50        64.1278         0.6556         2.2235       0.422000
       5261.00        60.9186         0.7615         2.2513       0.381300
       5261.50        54.6948         1.1626         2.2949       0.348800
       5262.00        46.3572         1.6600         2.3267       0.344100
       5262.50        39.3664         2.1668         2.3519       0.297100
       5263.00        36.3817         2.7548         2.3893       0.254200
       5263.50        38.8839         2.3801         2.3655       0.258100
       5264.00        43.7859         1.5064         2.3116       0.289800
       5264.50        48.9297         1.2492         2.2363       0.340400
       5265.00        53.4863         1.2151         2.2015       0.376100
       5265.50        58.5595         1.1764         2.1930       0.388000
       5266.00        62.7826         1.1170         2.1988       0.384100
       5266.50        64.0600         1.0786         2.2062       0.373600
       5267.00        62.5670         1.0490         2.2092       0.365900
       5267.50        60.3669         1.0388         2.2100       0.368600
       5268.00        59.5700         1.0448         2.2100       0.384900
       5268.50        61.0630         1.0411         2.2106       0.414800
       5269.00        63.0133         1.0114         2.2153       0.448500
       5269.50        64.1436         0.9838         2.2226       0.476600
       5270.00        63.4667         1.0032         2.2357       0.480500
       5270.50        62.3364         1.0454         2.2433       0.447200
       5271.00        61.5203         1.0322         2.2410       0.418200
       5271.50        61.2000         0.9753         2.2351       0.410400
       5272.00        61.2000         0.9452         2.2411       0.422100
       5272.50        60.9497         0.9288         2.2552       0.438500
       5273.00        60.7900         0.9214         2.2846       0.467200
       5273.50        60.7900         0.9256         2.3132       0.480000
       5274.00        61.2905         0.9219         2.3284       0.475500
       5274.50        62.6050         0.9155         2.3413       0.458600
       5275.00        64.9858         0.9236         2.3340       0.443500
       5275.50        67.5894         0.9290         2.3100       0.440000
       5276.00        69.0405         0.9233         2.2712       0.449000
       5276.50        69.8544         0.9200         2.2550       0.453600
       5277.00        71.4153         0.9221         2.2582       0.444600
       5277.50        74.2061         0.9395         2.2600       0.427500
       5278.00        76.7253         0.9480         2.2600       0.414100
       5278.50        78.2647         0.9237         2.2508       0.418200
       5279.00        77.9953         0.8974         2.2564       0.429100
       5279.50        76.7692         0.8900         2.2740       0.432800
       5280.00        74.5485         0.8895         2.2856       0.418100
       5280.50        72.6879         0.8716         2.2961       0.396200
       5281.00        70.7180         0.8601         2.2930       0.382600
       5281.50        69.0179         0.8959         2.2814       0.389400
       5282.00        67.7940         1.2024         2.2647       0.414700
       5282.50        67.3200         1.2280         2.2545       0.458600
       5283.00        66.8186         0.9898         2.2575       0.472900
       5283.50        66.0047         0.9156         2.2626       0.449200
       5284.00        65.6900         0.9725         2.2650       0.433000
       5284.50        66.1853         1.0774         2.2514       0.432000
       5285.00        67.9981         1.1390         2.2228       0.440300
       5285.50        69.6960         1.1495         2.1908       0.448100
       5286.00        70.9221         1.0983         2.1774       0.453700
       5286.50        69.6512         1.0769         2.1978       0.454800
       5287.00        67.0480         1.0871         2.2299       0.439400
       5287.50        62.8532         1.0361         2.2648       0.409900
       5288.00        59.0455         0.9891         2.2856       0.379600
       5288.50        55.4410         0.8856         2.2986       0.363300
       5289.00        53.1066         0.7989         2.3075       0.360000
       5289.50        52.1339         0.8481         2.3100       0.360000
       5290.00        52.0650         0.9141         2.3060       0.360000
       5290.50        52.9734         0.9561         2.2898       0.355800
       5291.00        54.1973         0.9829         2.2631       0.358600
       5291.50        55.6684         1.0359         2.2373       0.365700
       5292.00        56.8022         1.1021         2.2161       0.374000
       5292.50        57.3711         1.1346         2.2068       0.381300
       5293.00        57.0277         1.1400         2.2049       0.377100
       5293.50        56.4589         1.1400         2.2083       0.370300
       5294.00        56.0550         1.1549         2.2162       0.370000
       5294.50        55.3978         1.1737         2.2169       0.378900
       5295.00        54.8289         1.1305         2.2061       0.390700
       5295.50        54.4189         1.0637         2.1913       0.410100
       5296.00        55.0142         0.9761         2.1766       0.430300
       5296.50        55.7416         0.8843         2.1617       0.438400
       5297.00        56.1454         0.7738         2.1523       0.432500
