~Version Information Block
VERS .                  2.0:  CWLS LOG ASCII STANDARD - VERSION 2.0
WRAP .                   NO:  One line per depth step
~Well Information Block
#MNEM.UNIT        Data Type   Information
#---------- ----------------  -----------
STRT .FT             350.00:  START DEPTH
STOP .FT           16021.50:  STOP DEPTH
STEP .FT               0.50:  STEP
NULL .              -999.25:  NULL VALUE
COMP .                     :  COMPANY
WELL .               STA-30:  WELL
FLD  .                     :  FIELD
LOC  .                     :  LOCATION
CTRY .                     :  COUNTRY
STAT .                     :  STATE
CNTY .                     :  COUNTY
SRVC .                     :  SERVICE COMPANY
DATE .                     :  DATE
API  .                     :  API NUMBER
UWI  .                     :  UNIQUE WELL ID
~Curve Information Block
#MNEM.UNIT         API CODE   Curve Description
#---------- ----------------  -----------------
DEPTH.FT                   :  
GR   .GAPI                 :  Merged RAW_LOG.GR_17P_1 with RAW_LOG.GR_12P_1 and RAW_LOG.GR_8P_1 and RAW_LOG.GR_6P_1 at 1127.75, 5954.49, 11516.11 F
RT   .OHMM                 :  RT_1 Depth Shifted (Shift Pairs in MATCH_RT set)
RHOB .G/C3                 :  RHOB_1 Depth Shifted (Shift Pairs in MATCH_RHOB set)
NPHI .V/V                  :  NPHI_1 Depth Shifted (Shift Pairs in MATCH_NPHI set)
~Parameter Information Block
#MNEM.UNIT            Value   Description
#---------- ----------------  -----------
PROJECT.            SANTAN_FE:  
~Other Information Block
# 
~A       DEPTH             GR             RT           RHOB           NPHI 
# ...
      11852.50        60.8104         2.3843         2.4751       0.180000
      11853.00        72.5694         2.4347         2.5280       0.185000
      11853.50        79.9241         2.5253         2.5680       0.193400
      11854.00        82.6125         2.5693         2.5917       0.200400
      11854.50        83.1055         2.6415         2.5991       0.201700
      11855.00        83.8420         2.6738         2.5943       0.202700
      11855.50        84.7096         2.6066         2.5864       0.209200
      11856.00        86.7713         2.5879         2.5824       0.221200
      11856.50        88.4562         2.5863         2.5815       0.231800
      11857.00        89.3758         2.5972         2.5828       0.235900
      11857.50        89.7788         2.6113         2.5851       0.233500
      11858.00        90.5359         2.6066         2.5865       0.227400
      11858.50        92.3524         2.5449         2.5874       0.222000
      11859.00        93.5480         2.5678         2.5852       0.222100
      11859.50        93.1590         2.6303         2.5825       0.225700
      11860.00        92.0248         2.7098         2.5800       0.227500
      11860.50        91.1441         2.8020         2.5778       0.229900
      11861.00        90.0793         2.8733         2.5748       0.234800
      11861.50        87.2631         2.9532         2.5711       0.232800
      11862.00        82.0984         3.1360         2.5675       0.216200
      11862.50        73.7226         3.4530         2.5640       0.189400
      11863.00        66.6837         3.6696         2.5595       0.165700
      11863.50        61.4046         3.8039         2.5524       0.147100
      11864.00        60.4546         3.9598         2.5433       0.136300
      11864.50        60.6648         4.0944         2.5362       0.133800
      11865.00        60.3661         4.2097         2.5359       0.133400
      11865.50        59.9520         4.3059         2.5418       0.131500
      11866.00        58.4732         4.3542         2.5472       0.128900
      11866.50        57.2193         4.4025         2.5488       0.126600
      11867.00        56.0717         4.4724         2.5509       0.126000
      11867.50        56.6666         4.4912         2.5536       0.126800
      11868.00        57.8593         4.4912         2.5542       0.126900
      11868.50        58.0183         4.4649         2.5512       0.125300
      11869.00        56.8585         4.4133         2.5474       0.123000
      11869.50        55.8648         4.3165         2.5442       0.122100
      11870.00        55.8024         4.1929         2.5414       0.123500
      11870.50        54.0640         4.0560         2.5378       0.125300
      11871.00        51.4125         3.9781         2.5310       0.124900
      11871.50        49.4908         3.8296         2.5199       0.124200
      11872.00        51.8126         3.7422         2.5075       0.128400
      11872.50        57.3570         3.4121         2.4995       0.138200
      11873.00        64.8604         3.2364         2.5008       0.149800
      11873.50        70.5470         3.0465         2.5124       0.162700
      11874.00        75.1413         2.8195         2.5287       0.177000
      11874.50        79.3684         2.7181         2.5413       0.194300
      11875.00        85.0120         2.5678         2.5459       0.214800
      11875.50        88.8356         2.4136         2.5473       0.230100
      11876.00        90.1542         2.2737         2.5520       0.237400
      11876.50        89.5423         2.1356         2.5589       0.245000
      11877.00        89.8047         2.0265         2.5627       0.252600
      11877.50        91.1167         1.9738         2.5620       0.253500
      11878.00        92.0704         1.9477         2.5612       0.251100
      11878.50        92.3077         1.9487         2.5627       0.250212
      11879.00        91.8865         1.9487         2.5655       0.246220
      11879.50        91.6297         1.9696         2.5709       0.239223
      11880.00        91.5101         1.9549         2.5786       0.240309
      11880.50        90.8863         1.9549         2.5840       0.248253
      11881.00        90.4058         1.9622         2.5831       0.253260
      11881.50        91.3100         1.9876         2.5776       0.258342
      11882.00        92.0064         1.9994         2.5719       0.263987
      11882.50        92.3421         2.0091         2.5694       0.265820
      11883.00        91.6981         2.0243         2.5701       0.262110
      11883.50        91.6850         1.9844         2.5712       0.256336
      11884.00        91.2660         2.0080         2.5723       0.253590
      11884.50        90.8676         2.0047         2.5757       0.254079
      11885.00        91.1381         1.9759         2.5805       0.255788
      11885.50        91.1747         1.9706         2.5806       0.256814
      11886.00        90.8085         1.9591         2.5749       0.256248
      11886.50        89.7215         1.9749         2.5714       0.254969
      11887.00        89.7263         1.9823         2.5737       0.253879
      11887.50        90.7707         1.9664         2.5740       0.252472
      11888.00        91.9091         1.9497         2.5653       0.249449
      11888.50        91.3045         1.9410         2.5535       0.247154
      11889.00        89.8471         1.9322         2.5484       0.249299
      11889.50        89.3275         1.9251         2.5499       0.256612
      11890.00        90.0355         1.9394         2.5518       0.265794
      11890.50        91.3448         1.9031         2.5516       0.270095
      11891.00        91.2558         1.8742         2.5514       0.265477
      11891.50        91.1505         1.8703         2.5529       0.257417
      11892.00        90.1240         1.8632         2.5552       0.253761
      11892.50        89.8879         1.8560         2.5555       0.254927
      11893.00        89.5791         1.8489         2.5524       0.257486
      11893.50        89.6146         1.8384         2.5483       0.260460
      11894.00        88.0373         1.8251         2.5478       0.263506
      11894.50        87.5034         1.8045         2.5518       0.264414
      11895.00        87.0769         1.8064         2.5563       0.263712
      11895.50        88.1029         1.7635         2.5569       0.264592
      11896.00        88.8524         1.7430         2.5539       0.266032
      11896.50        89.4467         1.7360         2.5512       0.266115
      11897.00        90.1435         1.7186         2.5494       0.265143
      11897.50        91.2738         1.7186         2.5464       0.262330
      11898.00        92.4163         1.7308         2.5424       0.260428
      11898.50        93.0350         1.7316         2.5418       0.262240
      11899.00        92.5356         1.7555         2.5474       0.262794
      11899.50        90.4334         1.8195         2.5569       0.259842
      11900.00        88.8372         1.8930         2.5644       0.258792
      11900.50        88.4065         1.9633         2.5658       0.260838
      11901.00        88.7492         2.0364         2.5617       0.260627
      11901.50        87.2702         2.1665         2.5580       0.253314
      11902.00        80.9631         2.3314         2.5620       0.240023
      11902.50        70.2676         2.5616         2.5760       0.226462
      11903.00        59.3809         3.1781         2.5916       0.211365
      11903.50        52.3058         3.2189         2.6011       0.193482
      11904.00        51.7941         3.2539         2.5984       0.188887
      11904.50        56.0723         3.3076         2.5890       0.198991
      11905.00        66.0229         3.3149         2.5773       0.218243
      11905.50        79.6213         3.1371         2.5655       0.235262
