~Version Information Block
VERS .                  2.0:  CWLS LOG ASCII STANDARD - VERSION 2.0
WRAP .                   NO:  One line per depth step
~Well Information Block
#MNEM.UNIT        Data Type   Information
#---------- ----------------  -----------
STRT .FT            3742.00:  START DEPTH
STOP .FT            8440.00:  STOP DEPTH
STEP .FT               0.50:  STEP
NULL .              -999.25:  NULL VALUE
COMP .                     :  COMPANY
WELL .                STA-2:  WELL
FLD  .                     :  FIELD
LOC  .                     :  LOCATION
CTRY .                     :  COUNTRY
STAT .                     :  STATE
CNTY .                     :  COUNTY
SRVC .                     :  SERVICE COMPANY
DATE .                     :  DATE
API  .                     :  API NUMBER
UWI  .                     :  UNIQUE WELL ID
~Curve Information Block
#MNEM.UNIT         API CODE   Curve Description
#---------- ----------------  -----------------
DEPTH.FT                   :  DEPTH
GR   .GAPI                 :  Gamma Ray
RT   .OHMM                 :  Deep resistivity
RHOB .G/C3                 :  Bulk Density
NPHI .V/V                  :  Neutron porosity
DT   .US/F                 :  Sonic
~Parameter Information Block
#MNEM.UNIT            Value   Description
#---------- ----------------  -----------
PROJECT.            SANTAN_FE:  
~Other Information Block
# 
~A       DEPTH             GR             RT           RHOB           NPHI             DT 
# ...
       8325.50        95.4900         3.6400         2.4700       0.180000        82.1500
       8326.00        97.4000         3.6600         2.4900       0.190000        82.3000
       8326.50        99.2000         3.6300         2.4900       0.190000        82.7000
       8327.00       100.7100         3.4900         2.4900       0.190000        83.1000
       8327.50       104.8400         3.4000         2.5000       0.200000        83.3000
       8328.00       109.6800         3.4800         2.5100       0.200000        83.1000
       8328.50       112.2300         3.6700         2.5200       0.200000        81.9000
       8329.00       112.9700         3.6400         2.5300       0.190000        81.6000
       8329.50       109.9200         3.7400         2.5200       0.190000        81.7500
       8330.00       106.4900         3.6600         2.5200       0.190000        82.5500
       8330.50       107.2800         3.3800         2.5200       0.210000        83.6000
       8331.00       107.2300         3.2700         2.5200       0.220000        84.4000
       8331.50       109.9100         3.2400         2.5200       0.210000        84.7000
       8332.00       106.9800         3.4800         2.5200       0.210000        84.1500
       8332.50       109.3800         3.5800         2.4800       0.210000        85.0000
       8333.00       109.1100         3.0100         2.4500       0.210000        85.4000
       8333.50       112.0900         2.6400         2.4300       0.220000        85.8000
       8334.00       111.3800         3.0100         2.4600       0.220000        86.3000
       8334.50       112.8000         2.9400         2.4900       0.220000        85.6000
       8335.00       114.4900         3.0300         2.5300       0.210000        85.1000
       8335.50       115.2700         3.1300         2.5500       0.210000        84.6500
       8336.00       115.7600         3.2400         2.5500       0.210000        83.8500
       8336.50       112.4400         3.6300         2.5300       0.190000        82.5000
       8337.00       112.9500         4.2000         2.5200       0.170000        80.6000
       8337.50       110.3500         4.1600         2.5200       0.170000        80.0500
       8338.00       112.2500         4.0300         2.5300       0.180000        80.6500
       8338.50       112.4600         3.7800         2.5300       0.180000        81.5000
       8339.00       113.5100         3.4700         2.5300       0.170000        82.5000
       8339.50       113.1800         3.4900         2.5200       0.170000        83.9500
       8340.00       111.2300         3.4000         2.4900       0.170000        84.7000
       8340.50       109.9700         3.4800         2.5000       0.170000        84.9000
       8341.00       112.2100         3.1800         2.5200       0.180000        85.2500
       8341.50       112.7000         2.9500         2.5400       0.170000        84.4000
       8342.00       117.7000         3.3900         2.5400       0.180000        84.1000
       8342.50       112.9300         3.3000         2.5300       0.180000        84.3000
       8343.00       113.6600         3.6100         2.5200       0.180000        83.5000
       8343.50       110.7300         3.4100         2.5300       0.180000        81.0000
       8344.00       114.6300         4.5200         2.5400       0.180000        79.7000
       8344.50       118.7900         6.8400         2.5500       0.180000        80.3000
       8345.00       120.6400         4.2100         2.5300       0.180000        81.1500
       8345.50       120.0200         3.5400         2.5200       0.180000        83.3000
       8346.00       117.9200         3.2200         2.5300       0.180000        84.3000
       8346.50       116.3800         3.3300         2.5300       0.180000        84.3500
       8347.00       115.7500         3.4600         2.5300       0.180000        85.5000
       8347.50       114.3700         2.7200         2.5300       0.180000        86.9500
       8348.00      -999.2500         2.2900         2.5400       0.180000        90.1500
       8348.50      -999.2500         1.8900         2.5500       0.180000        91.6000
       8349.00      -999.2500         1.8300         2.5500       0.190000        92.3000
       8349.50      -999.2500         1.9400         2.5400       0.190000        93.0500
       8350.00      -999.2500         2.1100         2.5400       0.190000        93.1500
       8350.50      -999.2500         2.0200         2.5400       0.190000        92.3000
       8351.00      -999.2500         2.2900         2.5100       0.190000        90.6000
       8351.50      -999.2500         2.3900         2.4300       0.190000        88.5000
       8352.00      -999.2500         2.0600         2.3700       0.180000        87.9500
       8352.50      -999.2500         1.8400         2.3300       0.180000        88.8500
       8353.00      -999.2500         1.6100         2.3100       0.180000        90.9000
       8353.50      -999.2500         1.3800         2.2800       0.180000        91.1000
       8354.00      -999.2500         1.3600         2.2500       0.180000        92.0000
       8354.50      -999.2500         1.3400         2.2700       0.180000        92.3500
       8355.00      -999.2500         1.5900         2.2700       0.190000        92.1500
       8355.50      -999.2500         1.4700         2.2700       0.190000        91.6500
       8356.00      -999.2500         1.9700         2.2600       0.190000        97.0500
       8356.50      -999.2500         3.4900         2.2800       0.190000        85.0000
       8357.00      -999.2500         3.7600         2.3000       0.190000        81.2500
       8357.50      -999.2500         3.7100         2.3100       0.190000        78.9500
       8358.00      -999.2500         3.5600         2.3200       0.190000        77.5000
       8358.50      -999.2500         3.8200         2.3200       0.200000        85.5000
       8359.00      -999.2500         3.2200         2.3200       0.200000        75.3500
       8359.50      -999.2500         2.2600         2.3300       0.200000        75.7000
       8360.00      -999.2500         1.8600         2.3400       0.190000        77.3500
       8360.50      -999.2500         1.6100         2.3500       0.190000        70.3500
       8361.00      -999.2500         1.3300         2.3500       0.190000        73.1000
       8361.50      -999.2500         1.6900         2.3500       0.190000        80.4000
       8362.00      -999.2500         2.3300         2.3600       0.190000        79.0500
       8362.50      -999.2500         2.5800         2.3700       0.200000        79.5000
       8363.00      -999.2500         3.4300         2.3700       0.190000        81.4000
       8363.50      -999.2500         4.0700         2.3700       0.190000        83.0000
       8364.00      -999.2500         3.1400         2.3800       0.190000        78.4000
       8364.50      -999.2500         3.0500         2.3800       0.190000        85.0500
       8365.00      -999.2500         3.1200         2.3800       0.190000        85.6800
       8365.50      -999.2500         3.0800         2.3800       0.190000        85.7000
       8366.00      -999.2500         2.9200         2.3800       0.190000        86.0000
       8366.50      -999.2500         2.8700         2.3700       0.190000        86.4000
       8367.00      -999.2500         2.9000         2.3700       0.190000        85.9000
       8367.50      -999.2500         2.8500         2.3800       0.200000        85.5500
       8368.00      -999.2500         3.2200         2.3900       0.190000        84.4700
       8368.50      -999.2500         3.2400         2.3800       0.200000        83.6500
       8369.00      -999.2500         3.1600         2.3700       0.200000        83.2500
       8369.50      -999.2500         3.1600         2.3700       0.200000        83.1500
