~Version Information Block
VERS .                  2.0:  CWLS LOG ASCII STANDARD - VERSION 2.0
WRAP .                   NO:  One line per depth step
~Well Information Block
#MNEM.UNIT        Data Type   Information
#---------- ----------------  -----------
STRT .FT            3811.50:  START DEPTH
STOP .FT            9515.50:  STOP DEPTH
STEP .FT               0.50:  STEP
NULL .              -999.25:  NULL VALUE
COMP .                     :  COMPANY
WELL .                STA-6:  WELL
FLD  .                     :  FIELD
LOC  .                     :  LOCATION
CTRY .                     :  COUNTRY
STAT .                     :  STATE
CNTY .                     :  COUNTY
SRVC .                     :  SERVICE COMPANY
DATE .                     :  DATE
API  .                     :  API NUMBER
UWI  .                     :  UNIQUE WELL ID
~Curve Information Block
#MNEM.UNIT         API CODE   Curve Description
#---------- ----------------  -----------------
DEPTH.FT                   :  DEPTH
GR   .GAPI                 :  Gamma Ray
RT   .OHMM                 :  Deep resistivity
RHOB .G/C3                 :  Bulk Density
NPHI .V/V                  :  Neutron porosity
DT   .US/F                 :  Sonic
~Parameter Information Block
#MNEM.UNIT            Value   Description
#---------- ----------------  -----------
PROJECT.            SANTAN_FE:  
~Other Information Block
# 
~A       DEPTH             GR             RT           RHOB           NPHI             DT 
# ...
       5858.50       121.7500         1.3300         2.2400       0.440000       112.7000
       5859.00       111.0300         1.4600         2.2300       0.410000       113.8000
       5859.50        95.1200         1.6100         2.2200       0.370000       114.9500
       5860.00        86.1200         1.7400         2.2100       0.360000       116.4500
       5860.50        80.1300         1.9100         2.2000       0.370000       118.0500
       5861.00        72.7700         2.3600         2.2600       0.360000       104.4000
       5861.50        60.1200         4.1700         2.4400       0.300000        77.0000
       5862.00        52.7500         6.5400         2.6200       0.210000        59.1500
       5862.50        51.0500         5.5300         2.6300       0.140000        56.2000
       5863.00        49.7300         5.8400         2.5700       0.120000         4.4500
       5863.50        52.1900         5.5300         2.4000       0.160000        46.0500
       5864.00        59.8700         7.7800         2.2300       0.230000        62.9500
       5864.50        66.3800         8.0200         2.1200       0.280000        78.7000
       5865.00        66.7200         4.0300         2.1100       0.320000       109.4000
       5865.50        67.6900         3.3800         2.1200       0.320000       126.1000
       5866.00        66.9700         2.9000         2.1100       0.330000       117.1500
       5866.50        65.6600         2.6600         2.1000       0.330000       119.4000
       5867.00        61.8900         2.5000         2.0900       0.330000       122.1000
       5867.50        63.1700         2.3600         2.0900       0.320000       122.5000
       5868.00        66.7800         2.3100         2.0900       0.330000       120.8000
       5868.50        66.5900         2.2000         2.0900       0.350000       123.9000
       5869.00        66.1700         2.2000         2.0800       0.370000       129.5500
       5869.50        62.9500         2.2900         2.0700       0.380000       131.6000
       5870.00        65.7500         2.3900         2.0700       0.350000       129.4000
       5870.50        67.7800         2.3000         2.0800       0.350000       127.8000
       5871.00        66.7000         2.2300         2.0900       0.330000       127.8500
       5871.50        62.6700         2.3300         2.1000       0.350000       126.5000
       5872.00        59.6000         2.2800         2.1100       0.350000       126.0000
       5872.50        67.4100         2.0200         2.1100       0.380000       127.6000
       5873.00        70.5900         1.9000         2.0900       0.380000       127.6000
       5873.50        71.3800         2.0500         2.1000       0.370000       128.4000
       5874.00        68.1600         2.2400         2.1000       0.360000       126.8500
       5874.50        68.0800         2.0200         2.1000       0.370000       127.1000
       5875.00        66.1300         1.9900         2.0900       0.380000       126.2000
       5875.50        63.2300         2.2500         2.0700       0.390000       130.2000
       5876.00        61.1800         2.3600         2.0400       0.380000       133.8500
       5876.50        60.4800         2.3200         2.0400       0.360000       133.0000
       5877.00        56.6600         2.4200         2.0500       0.350000       131.8000
       5877.50        54.1400         2.4200         2.0600       0.350000       129.6000
       5878.00        54.7600         2.4200         2.0800       0.370000       127.2000
       5878.50        60.2800         2.4000         2.0900       0.350000       126.0000
       5879.00        61.7800         2.3400         2.1000       0.340000       126.6000
       5879.50        63.6700         2.3500         2.1000       0.340000       127.6000
       5880.00        63.7000         2.2900         2.0800       0.340000       128.6500
       5880.50        62.2200         2.1100         2.0600       0.350000       129.4500
       5881.00        62.1800         2.1400         2.0600       0.360000       125.0000
       5881.50        64.2900         2.1300         2.1000       0.370000       122.9000
       5882.00        71.3800         2.0300         2.1500       0.370000       123.4500
       5882.50        76.4300         1.8300         2.1800       0.370000       123.9500
       5883.00        78.8900         1.7400         2.1900       0.380000       125.3500
       5883.50        77.0900         1.8400         2.1700       0.390000       129.0000
       5884.00        75.5900         1.8900         2.1300       0.390000       128.7000
       5884.50        73.6700         1.9700         2.1100       0.380000       128.1500
       5885.00        72.2100         2.0800         2.1000       0.380000       128.0000
       5885.50        70.5700         2.1200         2.1000       0.370000       127.2500
       5886.00        70.4100         2.0500         2.1200       0.370000       125.7000
       5886.50        71.0000         2.0000         2.1300       0.360000       123.6000
       5887.00        75.1100         1.8600         2.1600       0.350000       122.1000
       5887.50        76.8400         1.8100         2.1900       0.360000       122.3500
       5888.00        81.6200         1.6400         2.2200       0.360000       121.5000
       5888.50        85.3000         1.5300         2.2500       0.370000       120.6500
       5889.00        85.8600         1.5000         2.2500       0.360000       120.2000
       5889.50        90.3300         1.5900         2.2500       0.360000       119.9000
       5890.00        93.2700         1.5000         2.2500       0.360000       119.2000
       5890.50        97.7700         1.5200         2.2500       0.370000       121.6000
       5891.00        96.8400         1.5800         2.2600       0.370000       121.9000
       5891.50        91.9700         1.5500         2.2600       0.360000       121.8000
       5892.00        92.6800         1.5100         2.2700       0.360000       121.5000
       5892.50        94.2800         1.5200         2.2700       0.390000       120.6500
       5893.00        94.2800         1.5700         2.2800       0.390000       120.2000
       5893.50       100.6600         1.5500         2.2900       0.400000       119.8500
       5894.00       101.7400         1.5600         2.3000       0.380000       119.7000
       5894.50       108.4400         1.5800         2.2900       0.380000       120.6500
       5895.00       100.4200         1.5800         2.2900       0.380000       120.8500
       5895.50        97.8600         1.5900         2.2800       0.380000       121.2000
       5896.00       101.0200         1.6200         2.2800       0.400000       120.9000
       5896.50       103.7300         1.6200         2.2700       0.390000       121.0500
       5897.00       107.8900         1.5700         2.2800       0.390000       121.0000
       5897.50        99.0700         1.5800         2.2800       0.370000       121.1000
       5898.00       100.7900         1.5500         2.2800       0.360000       121.8000
       5898.50       102.7600         1.5300         2.2800       0.370000       121.9000
       5899.00       106.0500         1.5000         2.2700       0.370000       122.7500
       5899.50       108.8000         1.5500         2.2700       0.370000       122.9000
       5900.00       109.0200         1.4300         2.2600       0.390000       122.3500
       5900.50       114.2100         1.3800         2.2700       0.410000       122.1500
       5901.00       110.8700         1.4800         2.2700       0.460000       121.7000
       5901.50       107.5200         1.5100         2.2900       0.460000       121.4500
       5902.00       106.4100         1.5200         2.3000       0.440000       121.3000
       5902.50       107.8100         1.5400         2.3100       0.420000       121.0000
