~Version Information Block
VERS .                  2.0:  CWLS LOG ASCII STANDARD - VERSION 2.0
WRAP .                   NO:  One line per depth step
~Well Information Block
#MNEM.UNIT        Data Type   Information
#---------- ----------------  -----------
STRT .FT             750.00:  START DEPTH
STOP .FT            8283.50:  STOP DEPTH
STEP .FT               0.50:  STEP
NULL .              -999.25:  NULL VALUE
COMP .                     :  COMPANY
WELL .               STA-20:  WELL
FLD  .                     :  FIELD
LOC  .                     :  LOCATION
CTRY .                     :  COUNTRY
STAT .                     :  STATE
CNTY .                     :  COUNTY
SRVC .                     :  SERVICE COMPANY
DATE .                     :  DATE
API  .                     :  API NUMBER
UWI  .                     :  UNIQUE WELL ID
~Curve Information Block
#MNEM.UNIT         API CODE   Curve Description
#---------- ----------------  -----------------
DEPTH.FT                   :  DEPTH
GR   .GAPI                 :  Gamma Ray
RT   .OHMM                 :  RESDE
RHOB .G/C3                 :  Bulk Density
NPHI .V/V                  :  Thermal Neutron Porosity (Ratio Method) in Selected Lithology
~Parameter Information Block
#MNEM.UNIT            Value   Description
#---------- ----------------  -----------
PROJECT.            SANTAN_FE:  
~Other Information Block
# 
~A       DEPTH             GR             RT           RHOB           NPHI 
# ...
       1231.50        75.3725         1.2016         1.9791       0.642000
       1232.00        76.0575         1.2683         1.9748       0.647600
       1232.50        76.2825         1.2442         1.9653       0.637700
       1233.00        75.4525         1.1864         1.9546       0.621900
       1233.50        74.9450         1.2228         1.9500       0.610700
       1234.00        74.1475         1.2618         1.9550       0.606700
       1234.50        74.3200         1.2332         1.9676       0.598000
       1235.00        73.8850         1.1843         1.9771       0.577500
       1235.50        73.4225         1.2204         1.9789       0.551600
       1236.00        71.5575         1.2583         1.9742       0.543200
       1236.50        69.3525         1.2256         1.9667       0.551500
       1237.00        67.7800         1.1585         1.9603       0.566100
       1237.50        68.0950         1.2102         1.9541       0.576700
       1238.00        70.0125         1.2685         1.9453       0.584100
       1238.50        72.1325         1.2829         1.9340       0.594200
       1239.00        72.5350         1.2133         1.9214       0.606000
       1239.50        71.5350         1.1608         1.9138       0.611100
       1240.00        71.9075         1.1832         1.9175       0.603100
       1240.50        73.7400         1.2374         1.9302       0.587400
       1241.00        76.1150         1.2869         1.9440       0.582100
       1241.50        78.2025         1.2582         1.9553       0.601400
       1242.00        80.0600         1.1928         1.9640       0.621300
       1242.50        80.8900         1.2429         1.9689       0.614700
       1243.00        80.6025         1.2845         1.9700       0.591900
       1243.50        79.7125         1.3282         1.9686       0.575500
       1244.00        78.5950         1.2651         1.9647       0.573700
       1244.50        76.9925         1.1952         1.9611       0.580100
       1245.00        75.1900         1.2006         1.9615       0.592500
       1245.50        74.0475         1.2443         1.9625       0.611000
       1246.00        72.6200         1.2720         1.9625       0.624100
       1246.50        73.0200         1.2002         1.9610       0.617700
       1247.00        72.3875         1.1182         1.9584       0.594800
       1247.50        72.2425         1.1675         1.9543       0.580200
       1248.00        68.2975         1.2908         1.9493       0.646400
       1248.50        63.0425         1.3557         1.9443       0.835700
       1249.00        61.4750         1.3719         1.9458       0.898100
       1249.50        64.2400         1.4174         1.9624       0.802500
       1250.00        64.5250         1.4923         1.9919       0.647800
       1250.50        62.2450         1.6606         2.0229       0.532900
       1251.00        58.8000         1.7293         2.0463       0.484200
       1251.50        58.3875         1.7551         2.0630       0.478500
       1252.00        60.6475         1.5819         2.0799       0.475500
       1252.50        63.6200         1.6396         2.0993       0.455600
       1253.00        64.4475         1.8057         2.1104       0.432500
       1253.50        63.0750         1.9183         2.1107       0.425500
       1254.00        58.8700         1.8444         2.1044       0.427100
       1254.50        56.4675         1.7602         2.0988       0.430600
       1255.00        56.5525         1.8366         2.0918       0.428200
       1255.50        57.7250         1.8757         2.0842       0.423100
       1256.00        58.7525         1.8935         2.0747       0.421700
       1256.50        61.2400         1.7274         2.0568       0.422400
       1257.00        67.5625         1.6818         2.0347       0.420800
       1257.50        74.5725         1.6559         2.0160       0.418100
       1258.00        78.2925         1.6718         2.0024       0.421800
       1258.50        78.9775         1.5948         1.9877       0.436100
       1259.00        79.4350         1.5110         1.9643       0.451200
       1259.50        81.0350         1.4293         1.9349       0.472500
       1260.00        81.3500         1.4365         1.9089       0.490200
       1260.50        77.4875         1.5266         1.8922       0.484500
       1261.00        66.6200         1.5763         1.8792       0.459100
       1261.50        53.5225         1.4411         1.8645       0.441200
       1262.00        45.2000         1.3388         1.8515       0.437400
       1262.50        43.8250         1.2945         1.8500       0.451600
       1263.00        45.5075         1.2975         1.8547       0.479300
       1263.50        47.1375         1.3213         1.8652       0.511200
       1264.00        47.9375         1.3514         1.8765       0.526900
       1264.50        48.9650         1.4021         1.8945       0.526400
       1265.00        50.3975         1.3751         1.9208       0.508400
       1265.50        52.1750         1.3715         1.9409       0.476300
       1266.00        54.3750         1.3233         1.9506       0.444900
       1266.50        56.6300         1.2782         1.9624       0.432300
       1267.00        58.2300         1.2422         1.9829       0.445100
       1267.50        59.9200         1.2652         2.0072       0.477300
       1268.00        62.3000         1.3250         2.0187       0.514000
       1268.50        64.4175         1.3548         2.0261       0.539700
       1269.00        64.1875         1.3543         2.0231       0.548200
       1269.50        62.0450         1.3801         2.0249       0.542700
       1270.00        59.9575         1.3774         2.0036       0.527600
       1270.50        58.0675         1.3030         1.9734       0.515300
       1271.00        56.6075         1.2454         1.9639       0.517000
       1271.50        56.5500         1.2244         1.9715       0.524600
       1272.00        57.6650         1.2179         1.9783       0.528000
       1272.50        60.2375         1.1906         1.9831       0.522700
       1273.00        63.0975         1.2490         1.9879       0.508800
       1273.50        64.3050         1.2965         1.9927       0.491200
       1274.00        64.1350         1.2896         1.9975       0.485400
       1274.50        62.9025         1.2965         1.9975       0.487300
       1275.00        63.9300         1.2031         1.9928       0.502200
       1275.50        67.3600         1.2260         1.9880       0.525700
       1276.00        69.0150         1.2145         1.9875       0.549800
       1276.50        68.6150         1.2602         1.9875       0.566600
       1277.00        67.0175         1.3043         1.9915       0.571400
       1277.50        67.3050         1.3572         1.9925       0.566600
       1278.00        68.7900         1.3745         1.9925       0.552600
       1278.50        69.5900         1.3551         1.9891       0.542800
       1279.00        69.1600         1.3320         1.9826       0.541100
       1279.50        68.3875         1.3460         1.9785       0.551000
       1280.00        68.9000         1.3700         1.9789       0.572000
       1280.50        71.2975         1.3710         1.9841       0.597400
       1281.00        74.0975         1.3615         1.9888       0.613700
       1281.50        73.8125         1.3780         1.9865       0.607900
       1282.00        68.2675         1.4462         1.9739       0.566100
       1282.50        58.4025         1.5068         1.9536       0.514400
       1283.00        50.7675         1.5042         1.9337       0.480600
       1283.50        49.9675         1.4771         1.9234       0.481500
       1284.00        53.9725         1.4354         1.9355       0.500900
       1284.50        57.8050         1.3949         1.9658       0.528900
