~Version Information Block
VERS .                  2.0:  CWLS LOG ASCII STANDARD - VERSION 2.0
WRAP .                   NO:  One line per depth step
~Well Information Block
#MNEM.UNIT        Data Type   Information
#---------- ----------------  -----------
STRT .FT             728.00:  START DEPTH
STOP .FT           10480.50:  STOP DEPTH
STEP .FT               0.50:  STEP
NULL .              -999.25:  NULL VALUE
COMP .                     :  COMPANY
WELL .               STA-21:  WELL
FLD  .                     :  FIELD
LOC  .                     :  LOCATION
CTRY .                     :  COUNTRY
STAT .                     :  STATE
CNTY .                     :  COUNTY
SRVC .                     :  SERVICE COMPANY
DATE .                     :  DATE
API  .                     :  API NUMBER
UWI  .                     :  UNIQUE WELL ID
~Curve Information Block
#MNEM.UNIT         API CODE   Curve Description
#---------- ----------------  -----------------
DEPTH.FT                   :  DEPTH
GR   .GAPI                 :  Gamma Ray
RT   .OHMM                 :  RESDE
RHOB .G/C3                 :  Bulk Density
NPHI .V/V                  :  Thermal Neutron Porosity (Ratio Method) in Selected Lithology
~Parameter Information Block
#MNEM.UNIT            Value   Description
#---------- ----------------  -----------
PROJECT.            SANTAN_FE:  
~Other Information Block
# 
~A       DEPTH             GR             RT           RHOB           NPHI 
# ...
       4633.50        44.6700         1.7351         2.1796         0.4191
       4634.00        47.7800         1.6414         2.1650         0.4176
       4634.50        53.0400         1.5235         2.1660         0.4175
       4635.00        56.5100         1.4352         2.1705         0.4211
       4635.50        60.8400         1.3683         2.1762         0.4307
       4636.00        64.4500         1.3118         2.1810         0.4491
       4636.50        68.9100         1.2715         2.1780         0.4700
       4637.00        71.1800         1.2592         2.1606         0.4922
       4637.50        73.4100         1.2527         2.1301         0.5051
       4638.00        76.1500         1.2483         2.1076         0.5131
       4638.50        78.3800         1.2609         2.1075         0.5215
       4639.00        78.6600         1.2971         2.1121         0.5156
       4639.50        76.8500         1.3334         2.1241         0.4988
       4640.00        75.1700         1.3823         2.1368         0.4708
       4640.50        74.0600         1.4583         2.1495         0.4738
       4641.00        72.3600         1.5373         2.1500         0.4845
       4641.50        70.3100         1.5968         2.1451         0.4744
       4642.00        68.6700         1.6247         2.1350         0.4395
       4642.50        68.3400         1.6236         2.1430         0.4191
       4643.00        69.2700         1.6097         2.1716         0.4392
       4643.50        70.0500         1.5920         2.2186         0.4857
       4644.00        70.0300         1.5901         2.2409         0.5090
       4644.50        69.4400         1.6219         2.2554         0.5183
       4645.00        67.7700         1.6989         2.2618         0.5187
       4645.50        66.8900         1.7796         2.2811         0.5030
       4646.00        64.5700         1.8636         2.2894         0.4759
       4646.50        60.4800         2.0201         2.2816         0.4782
       4647.00        54.8300         2.2510         2.2589         0.4985
       4647.50        49.6300         2.4750         2.2492         0.4719
       4648.00        45.9100         2.5474         2.2307         0.4088
       4648.50        43.7500         2.5342         2.2215         0.3716
       4649.00        42.2300         2.4850         2.2196         0.3795
       4649.50        41.7500         2.4174         2.2275         0.4322
       4650.00        41.2700         2.2892         2.2227         0.4882
       4650.50        42.1700         2.1232         2.2069         0.5040
       4651.00        44.1600         1.9953         2.2010         0.4748
       4651.50        47.0600         1.9294         2.1872         0.4221
       4652.00        48.9600         1.9001         2.1725         0.3812
       4652.50        50.8100         1.8855         2.1472         0.3738
       4653.00        52.4300         1.8810         2.1218         0.3892
       4653.50        54.8300         1.8710         2.0929         0.4224
       4654.00        56.3000         1.8293         2.0592         0.4677
       4654.50        57.2700         1.7637         2.0409         0.4905
       4655.00        57.4200         1.7026         2.0600         0.4780
       4655.50        58.3500         1.6734         2.1016         0.4480
       4656.00        59.0800         1.6624         2.1235         0.4357
       4656.50        60.5900         1.6405         2.1207         0.4398
       4657.00        61.3700         1.6127         2.1083         0.4504
       4657.50        62.1500         1.6222         2.0942         0.4690
       4658.00        61.8300         1.6734         2.0899         0.4725
       4658.50        60.5500         1.7258         2.0925         0.4796
       4659.00        59.2800         1.7616         2.0976         0.4681
       4659.50        57.3100         1.7773         2.1051         0.4898
       4660.00        54.6400         1.7763         2.1075         0.5004
       4660.50        51.9800         1.7681         2.1006         0.4990
       4661.00        48.3300         1.7426         2.0851         0.5023
       4661.50        44.2100         1.6900         2.0659         0.5271
       4662.00        39.5600         1.6380         2.0649         0.5656
       4662.50        36.9700         1.6138         2.0868         0.5850
       4663.00        36.8500         1.6066         2.1084         0.5768
       4663.50        37.7300         1.5965         2.1006         0.5484
       4664.00        38.6100         1.5831         2.0876         0.5019
       4664.50        40.3500         1.5689         2.0984         0.4574
       4665.00        42.5900         1.5485         2.1256         0.4278
       4665.50        44.8400         1.5279         2.1350         0.4137
       4666.00        46.9400         1.5192         2.1136         0.4091
       4666.50        49.7100         1.5150         2.0904         0.4105
       4667.00        52.7000         1.5150         2.0906         0.4244
       4667.50        54.5800         1.5156         2.1191         0.4625
       4668.00        55.3500         1.5498         2.1623         0.4951
       4668.50        54.9500         1.6158         2.1932         0.4926
       4669.00        53.5900         1.6711         2.2165         0.4284
       4669.50        50.9800         1.7603         2.2379         0.3667
       4670.00        49.3100         1.8513         2.2695         0.3531
       4670.50        44.8500         2.0011         2.2457         0.3880
       4671.00        41.3900         2.1844         2.1748         0.4276
       4671.50        37.9300         2.3201         2.1302         0.4420
       4672.00        38.3000         2.3666         2.1414         0.4353
       4672.50        39.2900         2.3474         2.1767         0.4375
       4673.00        40.2800         2.2902         2.2164         0.4400
       4673.50        42.0000         2.1925         2.2546         0.4475
       4674.00        45.1600         2.0421         2.2766         0.4503
       4674.50        48.3200         1.8997         2.2730         0.4616
       4675.00        53.1800         1.8325         2.2650         0.4788
       4675.50        55.7000         1.7911         2.2650         0.4959
       4676.00        60.5200         1.7482         2.2628         0.5103
       4676.50        62.8300         1.7027         2.2441         0.5184
       4677.00        67.7500         1.6521         2.2188         0.5256
       4677.50        72.8600         1.5918         2.1952         0.5275
       4678.00        77.9700         1.5546         2.1812         0.5232
       4678.50        83.7900         1.5389         2.1703         0.5109
       4679.00        88.0500         1.5112         2.1719         0.5100
       4679.50        92.3200         1.4870         2.1728         0.5124
       4680.00        94.3200         1.4800         2.1982         0.5088
       4680.50        95.5900         1.4804         2.2155         0.5004
       4681.00        96.8600         1.4862         2.2142         0.5025
       4681.50        97.5900         1.4986         2.2005         0.5063
       4682.00        98.1000         1.5114         2.1864         0.5150
       4682.50        98.3800         1.5446         2.1843         0.5160
       4683.00        97.1600         1.5775         2.1976         0.5089
       4683.50        95.9500         1.5952         2.2123         0.4820
       4684.00        94.2700         1.6200         2.2250         0.4355
       4684.50        93.5700         1.6838         2.2300         0.3909
       4685.00        90.9700         1.7679         2.2336         0.3648
       4685.50        87.4800         1.8676         2.2385         0.3517
       4686.00        81.6500         1.9191         2.2409         0.3443
       4686.50        75.7900         1.9239         2.2381         0.3393
