~Version Information Block
VERS .                  2.0:  CWLS LOG ASCII STANDARD - VERSION 2.0
WRAP .                   NO:  One line per depth step
~Well Information Block
#MNEM.UNIT        Data Type   Information
#---------- ----------------  -----------
STRT .FT            6415.50:  START DEPTH
STOP .FT           16132.50:  STOP DEPTH
STEP .FT               0.50:  STEP
NULL .              -999.25:  NULL VALUE
COMP .                     :  COMPANY
WELL .               STA-33:  WELL
FLD  .                     :  FIELD
LOC  .                     :  LOCATION
CTRY .                     :  COUNTRY
STAT .                     :  STATE
CNTY .                     :  COUNTY
SRVC .                     :  SERVICE COMPANY
DATE .                     :  DATE
API  .                     :  API NUMBER
UWI  .                     :  UNIQUE WELL ID
~Curve Information Block
#MNEM.UNIT         API CODE   Curve Description
#---------- ----------------  -----------------
DEPTH.FT                   :  Depth
GR   .GAPI                 :  Gamma Ray
RT   .OHMM                 :  True Resistivity
RHOB .G/C3                 :  Bulk Density
NPHI .V/V                  :  Neutron Porosity
~Parameter Information Block
#MNEM.UNIT            Value   Description
#---------- ----------------  -----------
PROJECT.            SANTAN_FE:  
~Other Information Block
# 
~A       DEPTH             GR             RT           RHOB           NPHI 
# ...
      14119.50        75.3309         3.2883         2.4318       0.159600
      14120.00        72.9181         3.2585         2.4231       0.159300
      14120.50        62.7666         3.2036         2.4213       0.159200
      14121.00        58.5451         3.1963         2.4212       0.157700
      14121.50        55.8103         3.2064         2.4334       0.155800
      14122.00        51.2052         3.2058         2.4579       0.150900
      14122.50        53.3536         3.2945         2.4851       0.144800
      14123.00        57.6082         3.3857         2.5080       0.144600
      14123.50        62.5239         3.3677         2.5156       0.147300
      14124.00        62.6808         3.3332         2.5079       0.146500
      14124.50        56.2461         3.3713         2.4948       0.144800
      14125.00        60.7867         3.2929         2.4886       0.147600
      14125.50        67.4502         3.2287         2.4965       0.152800
      14126.00        74.3738         3.0160         2.5177       0.157200
      14126.50        83.1521         2.7749         2.5423       0.165100
      14127.00        88.6884         2.6227         2.5554       0.177500
      14127.50        90.3899         2.5458         2.5563       0.186800
      14128.00        89.7126         2.4532         2.5538       0.187700
      14128.50        90.5226         2.3473         2.5557       0.180700
      14129.00        86.8967         2.4433         2.5684       0.170100
      14129.50        74.7488         2.7763         2.5746       0.158200
      14130.00        61.9865         3.0795         2.5457       0.149900
      14130.50        54.6060         3.2504         2.4897       0.148400
      14131.00        58.4695         3.2430         2.4519       0.150500
      14131.50        63.7970         3.2933         2.4644       0.153900
      14132.00        70.1636         3.3771         2.4971       0.155100
      14132.50        70.1694         3.4883         2.5143       0.153100
      14133.00        66.2473         3.6361         2.5089       0.151500
      14133.50        57.7045         3.7068         2.4838       0.152800
      14134.00        56.4571         3.7400         2.4540       0.156600
      14134.50        56.2097         3.7288         2.4340       0.158000
      14135.00        59.2346         3.6151         2.4275       0.156000
      14135.50        60.1096         3.4999         2.4329       0.155500
      14136.00        63.1409         3.4408         2.4433       0.157700
      14136.50        59.2302         3.4773         2.4555       0.158000
      14137.00        60.5187         3.6183         2.4675       0.155600
      14137.50        56.9839         3.8252         2.4707       0.153200
      14138.00        48.7715         4.3176         2.4602       0.149500
      14138.50        47.1991         4.8072         2.4321       0.140600
      14139.00        43.9840         5.2221         2.4070       0.128800
      14139.50        39.7004         6.4319         2.4064       0.116200
      14140.00        33.7198         7.6872         2.4067       0.105400
      14140.50        29.7155         9.0641         2.4081       0.099200
      14141.00        25.2278        10.2654         2.4454       0.095600
      14141.50        22.6478        11.1539         2.4915       0.093400
      14142.00        24.1043        10.6098         2.5136       0.097500
      14142.50        26.6086         9.8301         2.5223       0.109500
      14143.00        26.0429         9.1901         2.5057       0.123100
      14143.50        25.8876         6.3363         2.4528       0.133300
      14144.00        25.5216         6.0378         2.3927       0.137200
      14144.50        24.5681         4.2776         2.3583       0.137000
      14145.00        27.3538         3.9932         2.3654       0.135600
      14145.50        26.5192         4.2111         2.3873       0.128200
      14146.00        29.5748         3.8093         2.4152       0.122000
      14146.50        32.2172         4.1754         2.4605       0.133200
      14147.00        39.0686         4.5661         2.4869       0.154700
      14147.50        51.2221         3.1749         2.4865       0.163900
      14148.00        64.0972         2.9752         2.5048       0.163300
      14148.50        69.6788         2.9251         2.5341       0.165300
      14149.00        73.2572         2.8795         2.5366       0.167200
      14149.50        72.5504         2.8428         2.5228       0.164500
      14150.00        69.7845         2.7690         2.5164       0.162300
      14150.50        67.8038         2.7595         2.5205       0.167300
      14151.00        68.9112         2.7124         2.5263       0.175500
      14151.50        74.7490         2.5772         2.5312       0.179300
      14152.00        78.3891         2.5490         2.5405       0.179600
      14152.50        78.4739         2.5062         2.5528       0.180000
      14153.00        79.1484         2.5044         2.5606       0.182400
      14153.50        76.3417         2.6050         2.5547       0.186400
      14154.00        76.8798         2.6644         2.5426       0.186300
      14154.50        80.6527         2.6448         2.5387       0.180500
      14155.00        76.4460         2.7309         2.5322       0.172500
      14155.50        68.3327         2.8836         2.5110       0.163600
      14156.00        62.1150         3.0198         2.4748       0.158800
      14156.50        56.1860         3.2001         2.4297       0.157800
      14157.00        47.4286         3.2551         2.3942       0.158000
      14157.50        44.1061         3.2081         2.3894       0.161900
      14158.00        50.5560         3.0475         2.4220       0.167300
      14158.50        61.0996         2.9381         2.4804       0.168300
      14159.00        68.8975         2.8602         2.5298       0.167400
      14159.50        71.7203         2.8287         2.5417       0.168200
      14160.00        70.0966         2.7981         2.5289       0.168300
      14160.50        65.8762         2.7950         2.5134       0.167500
      14161.00        64.4536         2.7632         2.5023       0.167400
      14161.50        66.2103         2.7191         2.4919       0.166300
      14162.00        65.5530         2.7259         2.4795       0.164500
      14162.50        64.7742         2.7186         2.4761       0.164600
      14163.00        64.4089         2.6999         2.4848       0.166400
      14163.50        62.3771         2.6786         2.4932       0.167000
      14164.00        57.4950         2.6263         2.4905       0.166200
      14164.50        49.6532         2.5714         2.4650       0.164500
      14165.00        46.5098         2.4660         2.4388       0.161100
      14165.50        46.5005         2.4099         2.4273       0.157800
      14166.00        44.7599         2.6327         2.4269       0.159000
      14166.50        49.4493         2.5388         2.4364       0.161400
      14167.00        52.4605         2.5593         2.4472       0.158400
      14167.50        52.5666         2.7452         2.4539       0.149300
      14168.00        49.3894         2.8767         2.4565       0.138700
      14168.50        49.8925         3.1007         2.4693       0.138600
      14169.00        52.7024         3.4063         2.4984       0.151300
      14169.50        57.8688         3.0861         2.5128       0.168400
      14170.00        64.2952         2.8308         2.5098       0.189000
      14170.50        77.2297         2.6185         2.5201       0.214400
      14171.00        90.1481         2.1332         2.5475       0.235800
      14171.50        97.0095         1.9757         2.5691       0.246400
      14172.00        98.7176         1.9530         2.5736       0.244900
      14172.50        99.3217         1.9845         2.5740       0.238700
