~Version Information Block
VERS .                  2.0:  CWLS LOG ASCII STANDARD - VERSION 2.0
WRAP .                   NO:  One line per depth step
~Well Information Block
#MNEM.UNIT        Data Type   Information
#---------- ----------------  -----------
STRT .FT            6114.50:  START DEPTH
STOP .FT           14965.50:  STOP DEPTH
STEP .FT               0.50:  STEP
NULL .              -999.25:  NULL VALUE
COMP .                     :  COMPANY
WELL .               STA-36:  WELL
FLD  .                     :  FIELD
LOC  .                     :  LOCATION
CTRY .                     :  COUNTRY
STAT .                     :  STATE
CNTY .                     :  COUNTY
SRVC .                     :  SERVICE COMPANY
DATE .                     :  DATE
API  .                     :  API NUMBER
UWI  .                     :  UNIQUE WELL ID
~Curve Information Block
#MNEM.UNIT         API CODE   Curve Description
#---------- ----------------  -----------------
DEPTH.FT                   :  Depth
GR   .GAPI                 :  Gamma Ray
RT   .OHMM                 :  True Resistivity
RHOB .G/C3                 :  Bulk Density
NPHI .V/V                  :  Neutron Porosity
~Parameter Information Block
#MNEM.UNIT            Value   Description
#---------- ----------------  -----------
PROJECT.            SANTAN_FE:  
~Other Information Block
# 
~A       DEPTH             GR             RT           RHOB           NPHI 
# ...
      10234.00        15.6274         1.0773         2.2090       0.220661
      10234.50        15.1977         1.0866         2.2074       0.223405
      10235.00        15.9681         1.0963         2.2075       0.228317
      10235.50        15.3301         1.0968         2.2095       0.231857
      10236.00        16.3192         1.0898         2.2096       0.233719
      10236.50        15.9474         1.0858         2.2086       0.233554
      10237.00        15.8274         1.0900         2.2094       0.230299
      10237.50        13.8219         1.0941         2.2093       0.225823
      10238.00        15.4454         1.0969         2.2100       0.222413
      10238.50        16.6933         1.1036         2.2149       0.222009
      10239.00        18.1716         1.1176         2.2198       0.224883
      10239.50        16.7695         1.1296         2.2197       0.227297
      10240.00        18.3178         1.1328         2.2184       0.225333
      10240.50        16.8351         1.1276         2.2173       0.220509
      10241.00        17.4984         1.1188         2.2152       0.218533
      10241.50        16.2207         1.1185         2.2134       0.220706
      10242.00        15.7423         1.1228         2.2123       0.222410
      10242.50        15.1474         1.1200         2.2098       0.221396
      10243.00        16.6243         1.1101         2.2070       0.219882
      10243.50        17.1799         1.1019         2.2064       0.220044
      10244.00        16.9340         1.0958         2.2065       0.222510
      10244.50        16.3028         1.0959         2.2058       0.224727
      10245.00        18.8224         1.0977         2.2043       0.224517
      10245.50        16.4384         1.0971         2.2034       0.222754
      10246.00        16.7074         1.0919         2.2069       0.221793
      10246.50        16.4310         1.0854         2.2130       0.222575
      10247.00        14.2165         1.0812         2.2150       0.223350
      10247.50        15.6608         1.0786         2.2113       0.224075
      10248.00        16.9419         1.0772         2.2054       0.225667
      10248.50        16.3598         1.0736         2.2020       0.226500
      10249.00        16.1430         1.0621         2.2015       0.226098
      10249.50        14.7599         1.0503         2.2009       0.225800
      10250.00        14.9872         1.0386         2.2010       0.225861
      10250.50        15.2992         1.0281         2.2004       0.224768
      10251.00        15.2919         1.0277         2.1943       0.223647
      10251.50        14.0711         1.0397         2.1896       0.226861
      10252.00        15.6842         1.0306         2.1933       0.234551
      10252.50        15.0574         1.0069         2.1974       0.242638
      10253.00        19.8645         1.0387         2.1991       0.249657
      10253.50        29.4484         1.2082         2.2140       0.256378
      10254.00        38.7512         1.5827         2.2566       0.260069
      10254.50        39.5152         1.7280         2.3033       0.255890
      10255.00        30.6601         1.3518         2.3004       0.247194
      10255.50        25.6613         1.2685         2.2559       0.243675
      10256.00        26.4492         1.3664         2.2272       0.244629
      10256.50        26.1478         1.4588         2.2287       0.243711
      10257.00        29.5795         1.3550         2.2486       0.245755
      10257.50        47.7120         1.5466         2.3042       0.251326
      10258.00        67.4988         2.0797         2.3971       0.249649
      10258.50        78.7777         2.3960         2.4844       0.235931
      10259.00        81.8376         2.5500         2.5290       0.220687
      10259.50        78.7844         2.6683         2.5438       0.215579
      10260.00        75.6541         2.7616         2.5506       0.216280
      10260.50        73.9887         2.7887         2.5511       0.214009
      10261.00        71.4201         2.7094         2.5419       0.214800
      10261.50        77.4746         2.4828         2.5308       0.224100
      10262.00        82.9656         2.1803         2.5291       0.246800
      10262.50        87.3465         2.0364         2.5392       0.268000
      10263.00        88.3602         1.9689         2.5527       0.273000
      10263.50        90.1931         1.8982         2.5609       0.276500
      10264.00        91.3419         1.8119         2.5591       0.284400
      10264.50        93.6647         1.7070         2.5491       0.295900
      10265.00        95.9297         1.7260         2.5421       0.308300
      10265.50        94.8945         1.7404         2.5462       0.310400
      10266.00        95.7762         1.7241         2.5520       0.302900
      10266.50        95.6146         1.6339         2.5527       0.305100
      10267.00        93.6283         1.6445         2.5515       0.313200
      10267.50        88.4537         1.7427         2.5551       0.305200
      10268.00        81.6408         1.9591         2.5617       0.283400
      10268.50        82.0025         2.0982         2.5614       0.269300
      10269.00        79.5144         1.9681         2.5497       0.266700
      10269.50        70.9269         2.0047         2.5243       0.259400
      10270.00        61.5204         2.4088         2.4936       0.239800
      10270.50        57.8168         2.5434         2.4702       0.219700
      10271.00        65.4881         2.4931         2.4761       0.217900
      10271.50        80.0271         2.2435         2.5088       0.236300
      10272.00        88.1061         2.1456         2.5268       0.264800
      10272.50        95.4558         2.0289         2.5330       0.291700
      10273.00       100.5825         1.9892         2.5301       0.305500
      10273.50       101.5956         2.0476         2.5226       0.308900
      10274.00        96.5351         2.0747         2.5209       0.306400
      10274.50        81.4392         2.4838         2.5220       0.292000
      10275.00        58.9924         3.4786         2.5079       0.261900
      10275.50        39.4916         4.7655         2.4587       0.221000
      10276.00        28.2157         6.0521         2.3744       0.184800
      10276.50        23.0247         7.4424         2.2707       0.153000
      10277.00        20.6395         9.3320         2.1709       0.128200
      10277.50        20.8278        10.8737         2.0979       0.111400
      10278.00        21.7624        12.5221         2.0637       0.104000
      10278.50        21.5262        13.9279         2.0581       0.100500
      10279.00        19.7924        15.3209         2.0564       0.096900
      10279.50        19.8444        16.4897         2.0507       0.094300
      10280.00        20.7723        17.2860         2.0526       0.095800
      10280.50        19.8354        17.6362         2.0613       0.100500
      10281.00        20.7199        17.9889         2.0639       0.103600
      10281.50        20.1001        18.4151         2.0614       0.102500
      10282.00        19.8767        19.1208         2.0593       0.098800
      10282.50        21.9073        19.6994         2.0559       0.095600
      10283.00        21.4795        20.0390         2.0533       0.095000
      10283.50        21.3168        19.9880         2.0558       0.097600
      10284.00        21.0591        20.1959         2.0622       0.102500
      10284.50        20.1936        19.8958         2.0748       0.106900
      10285.00        21.3342        19.3433         2.0901       0.108600
      10285.50        20.5199        19.3174         2.1019       0.108500
      10286.00        21.1739        19.0142         2.1041       0.108000
      10286.50        21.2316        17.1351         2.0985       0.107400
      10287.00        20.6914        15.7215         2.0901       0.106300
