~Version Information Block
VERS .                  2.0:  CWLS LOG ASCII STANDARD - VERSION 2.0
WRAP .                   NO:  One line per depth step
~Well Information Block
#MNEM.UNIT        Data Type   Information
#---------- ----------------  -----------
STRT .FT             728.00:  START DEPTH
STOP .FT           10480.50:  STOP DEPTH
STEP .FT               0.50:  STEP
NULL .              -999.25:  NULL VALUE
COMP .                     :  COMPANY
WELL .               STA-21:  WELL
FLD  .                     :  FIELD
LOC  .                     :  LOCATION
CTRY .                     :  COUNTRY
STAT .                     :  STATE
CNTY .                     :  COUNTY
SRVC .                     :  SERVICE COMPANY
DATE .                     :  DATE
API  .                     :  API NUMBER
UWI  .                     :  UNIQUE WELL ID
~Curve Information Block
#MNEM.UNIT         API CODE   Curve Description
#---------- ----------------  -----------------
DEPTH.FT                   :  DEPTH
GR   .GAPI                 :  Gamma Ray
RT   .OHMM                 :  RESDE
RHOB .G/C3                 :  Bulk Density
NPHI .V/V                  :  Thermal Neutron Porosity (Ratio Method) in Selected Lithology
~Parameter Information Block
#MNEM.UNIT            Value   Description
#---------- ----------------  -----------
PROJECT.            SANTAN_FE:  
~Other Information Block
# 
~A       DEPTH             GR             RT           RHOB           NPHI 
# ...
       2707.50        80.1500         1.6859         2.1509         0.5333
       2708.00        79.8400         1.6900         2.1532         0.5350
       2708.50        79.3500         1.6968         2.1416         0.5230
       2709.00        78.3000         1.7033         2.1238         0.4900
       2709.50        78.3400         1.7034         2.1202         0.4644
       2710.00        80.8700         1.6995         2.1397         0.4490
       2710.50        83.3900         1.6946         2.1699         0.4386
       2711.00        84.4100         1.6953         2.1859         0.4374
       2711.50        83.1200         1.6988         2.1904         0.4544
       2712.00        81.7300         1.7000         2.1745         0.4855
       2712.50        81.6200         1.6951         2.1700         0.4987
       2713.00        81.5100         1.6807         2.1700         0.4763
       2713.50        81.5700         1.6711         2.1694         0.4504
       2714.00        81.6300         1.6830         2.1618         0.4575
       2714.50        83.0800         1.6995         2.1527         0.5069
       2715.00        84.4600         1.6969         2.1556         0.5485
       2715.50        86.3300         1.6849         2.1651         0.5666
       2716.00        87.0500         1.6800         2.1672         0.5604
       2716.50        87.7800         1.6762         2.1597         0.5650
       2717.00        88.7100         1.6606         2.1474         0.5650
       2717.50        89.3900         1.6431         2.1399         0.5602
       2718.00        90.0700         1.6519         2.1300         0.5281
       2718.50        90.4700         1.6765         2.1226         0.4945
       2719.00        90.8600         1.6798         2.1127         0.4859
       2719.50        91.2600         1.6663         2.1149         0.4988
       2720.00        91.5600         1.6597         2.1247         0.5025
       2720.50        91.8600         1.6569         2.1250         0.4901
       2721.00        90.6900         1.6523         2.1250         0.4800
       2721.50        89.2100         1.6502         2.1156         0.4712
       2722.00        87.7300         1.6527         2.1127         0.4763
       2722.50        86.6000         1.6575         2.0941         0.5029
       2723.00        85.4800         1.6600         2.1108         0.5515
       2723.50        84.3500         1.6600         2.1261         0.5883
       2724.00        84.3800         1.6600         2.1320         0.5876
       2724.50        84.4200         1.6508         2.0882         0.5642
       2725.00        85.6200         1.6321         2.0518         0.5357
       2725.50        86.7900         1.6213         2.0323         0.5188
       2726.00        87.9600         1.6285         2.0300         0.5100
       2726.50        87.8200         1.6465         2.0406         0.5111
       2727.00        87.6800         1.6500         2.0594         0.5168
       2727.50        87.0000         1.6344         2.0687         0.5250
       2728.00        86.4600         1.6225         2.0638         0.5248
       2728.50        86.0100         1.6182         2.0482         0.5214
       2729.00        86.1100         1.6140         2.0329         0.5021
       2729.50        86.2100         1.6176         2.0200         0.4782
       2730.00        86.6800         1.6332         2.0076         0.4682
       2730.50        87.1500         1.6511         2.0011         0.4586
       2731.00        87.6800         1.6667         2.0058         0.4490
       2731.50        87.7500         1.6769         2.0342         0.4435
       2732.00        86.7000         1.6814         2.0783         0.4559
       2732.50        85.5900         1.6852         2.1049         0.4818
       2733.00        84.4900         1.6914         2.1026         0.5072
       2733.50        83.9900         1.6999         2.0800         0.5344
       2734.00        83.5000         1.7038         2.0420         0.5677
       2734.50        83.7000         1.6958         2.0034         0.5882
       2735.00        84.4000         1.6843         1.9732         0.5820
       2735.50        86.0800         1.6800         1.9685         0.5520
       2736.00        87.0800         1.6800         1.9734         0.5167
       2736.50        88.0700         1.6826         1.9969         0.4930
       2737.00        88.0800         1.6924         2.0208         0.4780
       2737.50        88.0900         1.7010         2.0357         0.4676
       2738.00        87.6600         1.6905         2.0384         0.4625
       2738.50        87.2200         1.6693         2.0407         0.4643
       2739.00        86.7700         1.6617         2.0472         0.4739
       2739.50        87.2800         1.6706         2.0578         0.4963
       2740.00        87.7900         1.6834         2.0732         0.5381
       2740.50        88.4500         1.6867         2.0830         0.6054
       2741.00        88.6000         1.6822         2.0850         0.6734
       2741.50        88.6100         1.6806         2.0850         0.6973
       2742.00        88.4700         1.6859         2.0850         0.6546
       2742.50        88.3300         1.6952         2.0907         0.5795
       2743.00        87.8000         1.6973         2.0964         0.5268
       2743.50        87.2600         1.6924         2.0947         0.5138
       2744.00        86.7900         1.6850         2.0898         0.5204
       2744.50        86.8600         1.6753         2.0888         0.5337
       2745.00        86.7700         1.6703         2.1083         0.5481
       2745.50        86.6200         1.6561         2.1340         0.5625
       2746.00        86.7700         1.6280         2.1412         0.5691
       2746.50        87.0700         1.5965         2.1276         0.5729
       2747.00        88.3000         1.5882         2.1113         0.5791
       2747.50        89.2300         1.5854         2.1015         0.5875
       2748.00        90.0900         1.5910         2.0879         0.5914
       2748.50        90.0100         1.5806         2.0788         0.5843
       2749.00        89.6700         1.5984         2.0863         0.5724
       2749.50        87.9300         1.6679         2.1025         0.5610
       2750.00        77.7100         1.7736         2.1127         0.5361
       2750.50        65.1200         1.8859         2.1175         0.4875
       2751.00        53.6400         1.9631         2.1197         0.4410
       2751.50        50.9900         2.0236         2.1287         0.4199
       2752.00        51.2400         2.0395         2.1442         0.4120
       2752.50        52.7100         2.0106         2.1600         0.4164
       2753.00        54.2400         1.9872         2.1580         0.4272
       2753.50        57.7000         1.9315         2.1440         0.4542
       2754.00        59.9800         1.8678         2.1347         0.4933
       2754.50        61.9400         1.8330         2.1302         0.5121
       2755.00        61.7900         1.7954         2.1420         0.5003
       2755.50        62.5000         1.7363         2.1287         0.4558
       2756.00        63.7800         1.6898         2.1096         0.4182
       2756.50        66.6100         1.6692         2.0840         0.4228
       2757.00        68.9300         1.6535         2.0771         0.4672
       2757.50        72.9000         1.6146         2.0770         0.5135
       2758.00        75.2300         1.5864         2.0862         0.5217
       2758.50        79.0700         1.5957         2.0933         0.5157
       2759.00        80.5800         1.6190         2.1025         0.5075
       2759.50        84.3400         1.6167         2.1066         0.4958
       2760.00        87.7500         1.5893         2.1177         0.4902
       2760.50        91.1600         1.5562         2.1324         0.4725
