~Version Information Block
VERS .                  2.0:  CWLS LOG ASCII STANDARD - VERSION 2.0
WRAP .                   NO:  One line per depth step
~Well Information Block
#MNEM.UNIT        Data Type   Information
#---------- ----------------  -----------
STRT .FT            6415.50:  START DEPTH
STOP .FT           16132.50:  STOP DEPTH
STEP .FT               0.50:  STEP
NULL .              -999.25:  NULL VALUE
COMP .                     :  COMPANY
WELL .               STA-33:  WELL
FLD  .                     :  FIELD
LOC  .                     :  LOCATION
CTRY .                     :  COUNTRY
STAT .                     :  STATE
CNTY .                     :  COUNTY
SRVC .                     :  SERVICE COMPANY
DATE .                     :  DATE
API  .                     :  API NUMBER
UWI  .                     :  UNIQUE WELL ID
~Curve Information Block
#MNEM.UNIT         API CODE   Curve Description
#---------- ----------------  -----------------
DEPTH.FT                   :  Depth
GR   .GAPI                 :  Gamma Ray
RT   .OHMM                 :  True Resistivity
RHOB .G/C3                 :  Bulk Density
NPHI .V/V                  :  Neutron Porosity
~Parameter Information Block
#MNEM.UNIT            Value   Description
#---------- ----------------  -----------
PROJECT.            SANTAN_FE:  
~Other Information Block
# 
~A       DEPTH             GR             RT           RHOB           NPHI 
# ...
      13477.50        44.4163         4.3755         2.3494       0.168793
      13478.00        50.2940         4.5374         2.3825       0.157415
      13478.50        49.6047         4.8042         2.4404       0.141495
      13479.00        47.9315         5.2271         2.5162       0.123652
      13479.50        47.5595         5.7526         2.5871       0.108653
      13480.00        50.9336         5.9472         2.6368       0.103743
      13480.50        68.4265         5.3687         2.6460       0.121519
      13481.00        90.2370         3.5367         2.6135       0.158362
      13481.50       101.0007         2.7528         2.5812       0.196346
      13482.00       104.5097         2.3669         2.5703       0.220335
      13482.50       106.0180         2.1975         2.5609       0.233467
      13483.00       104.5327         2.0342         2.5494       0.244656
      13483.50       107.1242         1.9703         2.5548       0.252464
      13484.00       103.9688         1.9156         2.5686       0.256135
      13484.50       107.3380         1.8327         2.5745       0.260330
      13485.00       105.6025         1.7748         2.5709       0.262643
      13485.50       105.2077         1.7704         2.5603       0.255837
      13486.00       103.2096         1.8666         2.5529       0.249100
      13486.50       104.5190         1.9205         2.5564       0.250900
      13487.00       104.0676         1.9185         2.5622       0.256700
      13487.50       106.7354         1.9265         2.5644       0.260300
      13488.00       107.6368         1.9156         2.5622       0.259100
      13488.50       107.3103         1.9072         2.5579       0.252800
      13489.00       105.8047         1.8889         2.5611       0.248100
      13489.50       105.3589         1.8929         2.5705       0.248300
      13490.00       106.3009         1.8950         2.5772       0.251300
      13490.50       105.5060         1.8790         2.5778       0.255100
      13491.00       107.2141         1.8791         2.5746       0.256700
      13491.50       106.6773         1.8808         2.5748       0.257100
      13492.00       107.9739         1.9260         2.5786       0.256000
      13492.50       109.3891         1.9377         2.5780       0.252500
      13493.00       107.6334         1.9913         2.5730       0.252600
      13493.50        99.8523         2.1149         2.5683       0.253100
      13494.00        85.4364         2.4760         2.5639       0.242500
      13494.50        67.5326         2.8450         2.5600       0.224900
      13495.00        60.4051         3.3130         2.5528       0.209700
      13495.50        68.6489         3.3468         2.5457       0.199500
      13496.00        83.6547         3.2115         2.5450       0.192400
      13496.50        81.4519         3.2717         2.5491       0.184600
      13497.00        76.2746         3.3750         2.5549       0.175900
      13497.50        77.0225         3.4332         2.5588       0.168900
      13498.00        73.5019         3.4755         2.5541       0.163300
      13498.50        73.8633         3.5234         2.5464       0.159900
      13499.00        70.3838         3.6011         2.5500       0.159700
      13499.50        69.9671         3.7016         2.5572       0.158400
      13500.00        63.1493         3.8301         2.5382       0.154700
      13500.50        58.4400         4.0086         2.4888       0.151200
      13501.00        52.7496         4.1959         2.4357       0.148800
      13501.50        50.3754         4.3967         2.4013       0.149600
      13502.00        51.8922         4.2089         2.3904       0.151400
      13502.50        52.6109         4.0850         2.4045       0.151100
      13503.00        49.8827         4.1373         2.4269       0.150100
      13503.50        48.3545         4.2272         2.4308       0.146000
      13504.00        49.6340         4.3024         2.4171       0.137800
      13504.50        48.0152         4.4946         2.4094       0.133700
      13505.00        52.2616         4.5649         2.4194       0.141800
      13505.50        55.9508         4.2850         2.4445       0.154700
      13506.00        61.7403         3.9446         2.4579       0.162400
      13506.50        64.7675         3.6351         2.4501       0.164400
      13507.00        67.7631         3.5273         2.4504       0.164800
      13507.50        70.1741         3.3471         2.4716       0.167200
      13508.00        76.6535         3.1595         2.4955       0.174900
      13508.50        80.1282         2.9524         2.5155       0.186500
      13509.00        88.4442         2.7636         2.5417       0.194400
      13509.50        89.6531         2.6562         2.5681       0.198400
      13510.00        91.4153         2.5674         2.5842       0.203700
      13510.50        91.9441         2.5072         2.5916       0.207700
      13511.00        93.8169         2.4530         2.5912       0.206800
      13511.50        91.5244         2.4295         2.5864       0.204800
      13512.00        90.3522         2.4030         2.5818       0.203200
      13512.50        88.8525         2.4297         2.5778       0.200800
      13513.00        92.8147         2.4620         2.5706       0.200400
      13513.50        93.6464         2.3998         2.5613       0.204600
      13514.00        97.9390         2.3622         2.5535       0.210800
      13514.50        97.0437         2.3536         2.5567       0.215700
      13515.00        95.4008         2.2610         2.5696       0.220500
      13515.50       102.0708         2.2602         2.5787       0.224700
      13516.00       102.4397         2.2419         2.5805       0.225800
      13516.50        97.8361         2.1934         2.5845       0.225700
      13517.00        98.8338         2.1564         2.5879       0.224700
      13517.50       100.0977         2.2073         2.5830       0.216100
      13518.00       100.3277         2.2963         2.5715       0.207600
      13518.50        99.0776         2.3178         2.5635       0.208900
      13519.00       100.3419         2.2532         2.5631       0.210700
      13519.50        94.5881         2.2597         2.5615       0.204800
      13520.00        92.8145         2.3565         2.5644       0.198700
      13520.50        94.0780         2.3759         2.5770       0.197000
      13521.00        93.7743         2.3729         2.5806       0.197100
      13521.50        95.7330         2.3644         2.5655       0.195000
      13522.00        96.6907         2.3792         2.5565       0.190700
      13522.50        92.0571         2.3942         2.5633       0.189000
      13523.00        93.6525         2.3895         2.5684       0.193300
      13523.50        93.4977         2.3543         2.5652       0.200400
      13524.00        93.2312         2.2665         2.5611       0.203300
      13524.50        95.6924         2.2442         2.5625       0.201700
      13525.00       103.0006         2.2043         2.5676       0.199500
      13525.50       102.5557         2.1993         2.5644       0.199900
      13526.00        97.2859         2.2409         2.5560       0.204600
      13526.50        98.1992         2.2601         2.5590       0.208100
      13527.00        95.1153         2.2453         2.5729       0.207100
      13527.50        96.0412         2.2290         2.5860       0.205700
      13528.00        96.7969         2.2114         2.5920       0.209400
      13528.50        92.3425         2.2113         2.5893       0.216400
      13529.00        95.4176         2.2133         2.5831       0.217900
      13529.50        99.5183         2.1825         2.5814       0.212000
      13530.00        93.7190         2.1604         2.5816       0.211000
      13530.50        95.2681         2.1479         2.5790       0.216300
