~Version Information Block
VERS .                  2.0:  CWLS LOG ASCII STANDARD - VERSION 2.0
WRAP .                   NO:  One line per depth step
~Well Information Block
#MNEM.UNIT        Data Type   Information
#---------- ----------------  -----------
STRT .FT            4582.50:  START DEPTH
STOP .FT           10844.50:  STOP DEPTH
STEP .FT               0.50:  STEP
NULL .              -999.25:  NULL VALUE
COMP .                     :  COMPANY
WELL .               STA-34:  WELL
FLD  .                     :  FIELD
LOC  .                     :  LOCATION
CTRY .                     :  COUNTRY
STAT .                     :  STATE
CNTY .                     :  COUNTY
SRVC .                     :  SERVICE COMPANY
DATE .                     :  DATE
API  .                     :  API NUMBER
UWI  .                     :  UNIQUE WELL ID
~Curve Information Block
#MNEM.UNIT         API CODE   Curve Description
#---------- ----------------  -----------------
DEPTH.FT                   :  Depth
GR   .GAPI                 :  Gamma Ray
RT   .OHMM                 :  True Resistivity
RHOB .G/C3                 :  Bulk Density
NPHI .V/V                  :  Neutron Porosity
~Parameter Information Block
#MNEM.UNIT            Value   Description
#---------- ----------------  -----------
PROJECT.            SANTAN_FE:  
~Other Information Block
# 
~A       DEPTH             GR             RT           RHOB           NPHI 
       4582.50        56.5299         1.2517         2.2139       0.495100
       4583.00        58.0456         1.1225         2.0807       0.456500
       4583.50        67.3016         1.0868         2.0955       0.424900
       4584.00        75.3100         1.2041         2.2112       0.430400
       4584.50        81.4933         1.1646         2.2905       0.449800
       4585.00        84.7623         1.0697         2.3167       0.457400
       4585.50        86.0694         1.0016         2.3143       0.451000
       4586.00        85.5388         0.9609         2.3030       0.442500
       4586.50        90.3000         0.9568         2.2987       0.438200
       4587.00        87.9527         0.9315         2.3037       0.433200
       4587.50        87.9762         0.9052         2.3128       0.436100
       4588.00        87.6858         0.9488         2.3312       0.455600
       4588.50        85.2122         1.0098         2.3483       0.474300
       4589.00        85.6341         0.9851         2.3406       0.472300
       4589.50        84.5578         1.0274         2.3207       0.454300
       4590.00        80.6102         1.1117         2.3275       0.433000
       4590.50        72.1822         1.2770         2.3519       0.417900
       4591.00        68.2699         1.4365         2.3326       0.416700
       4591.50        66.5295         1.4297         2.2568       0.418000
       4592.00        77.3496         1.3307         2.1989       0.415500
       4592.50        82.7265         1.2602         2.1926       0.416200
       4593.00        86.7773         1.2500         2.2010       0.417600
       4593.50        80.4449         1.2448         2.2117       0.412900
       4594.00        75.6800         1.1699         2.2366       0.409900
       4594.50        71.2659         1.0780         2.2695       0.418700
       4595.00        75.6854         1.0453         2.2907       0.424400
       4595.50        73.6581         1.0395         2.2979       0.414600
       4596.00        81.1125         1.0460         2.3026       0.403000
       4596.50        80.6054         1.0600         2.3078       0.402700
       4597.00        77.1301         1.0767         2.3094       0.405800
       4597.50        73.1485         1.1232         2.3100       0.400200
       4598.00        74.5633         1.2011         2.3131       0.390700
       4598.50        66.7247         1.3325         2.3174       0.386800
       4599.00        61.4376         1.5733         2.3226       0.382700
       4599.50        59.1691         1.8506         2.3171       0.377000
       4600.00        55.8228         2.0308         2.2874       0.375600
       4600.50        50.4375         2.0136         2.2405       0.382300
       4601.00        50.0243         1.7925         2.1956       0.395000
       4601.50        47.7771         1.5549         2.1667       0.400200
       4602.00        48.6013         1.4466         2.1555       0.397900
       4602.50        49.1530         1.4091         2.1586       0.398200
       4603.00        51.2869         1.3683         2.1693       0.398900
       4603.50        47.7929         1.3365         2.1780       0.393700
       4604.00        45.2040         1.2705         2.1781       0.387300
       4604.50        42.4378         1.2235         2.1689       0.391600
       4605.00        40.2683         1.2103         2.1538       0.391700
       4605.50        42.0580         1.2330         2.1450       0.379000
       4606.00        39.8787         1.3951         2.1617       0.370600
       4606.50        37.7236         1.3647         2.1886       0.367400
       4607.00        44.8961         1.3088         2.2002       0.364900
       4607.50        51.2838         1.3137         2.2072       0.372200
       4608.00        55.2163         1.3026         2.2270       0.384000
       4608.50        60.2736         1.3170         2.2465       0.396500
       4609.00        59.7494         1.3095         2.2515       0.413400
       4609.50        66.9968         1.2864         2.2477       0.416000
       4610.00        62.8255         1.2818         2.2490       0.404700
       4610.50        60.3723         1.2956         2.2499       0.399700
       4611.00        59.1605         1.2884         2.2458       0.396700
       4611.50        55.7505         1.2707         2.2418       0.398400
       4612.00        51.5329         1.2444         2.2368       0.415700
       4612.50        52.2154         1.2615         2.2309       0.428700
       4613.00        55.1816         1.2640         2.2290       0.423400
       4613.50        56.0894         1.2779         2.2308       0.418900
       4614.00        58.4287         1.2962         2.2348       0.418600
       4614.50        56.8555         1.2954         2.2375       0.411300
       4615.00        54.3972         1.3063         2.2376       0.399400
       4615.50        55.9713         1.3215         2.2416       0.393700
       4616.00        56.6800         1.3368         2.2494       0.392800
       4616.50        59.4449         1.3433         2.2557       0.386500
       4617.00        62.9683         1.2849         2.2588       0.386200
       4617.50        65.9088         1.2544         2.2597       0.394700
       4618.00        66.6058         1.2358         2.2614       0.400400
       4618.50        73.5134         1.1976         2.2654       0.411500
       4619.00        74.0636         1.1874         2.2695       0.428800
       4619.50        74.3907         1.1597         2.2698       0.439600
       4620.00        73.3514         1.1767         2.2644       0.439000
       4620.50        68.9094         1.2262         2.2569       0.427900
       4621.00        63.5716         1.3620         2.2577       0.405000
       4621.50        60.6067         1.5674         2.2752       0.376500
       4622.00        62.3116         1.5364         2.2998       0.367300
       4622.50        66.4591         1.4860         2.3169       0.384500
       4623.00        69.2807         1.4388         2.3232       0.400800
       4623.50        70.1590         1.3906         2.3259       0.405400
       4624.00        72.9671         1.3544         2.3281       0.405400
       4624.50        72.0051         1.3239         2.3283       0.400600
       4625.00        72.2304         1.2929         2.3261       0.397700
       4625.50        77.6800         1.2630         2.3250       0.410000
       4626.00        78.6839         1.2351         2.3239       0.427400
       4626.50        76.7397         1.2065         2.3209       0.427000
       4627.00        80.8250         1.1754         2.3194       0.422100
       4627.50        83.6393         1.1400         2.3183       0.430800
       4628.00        82.7947         1.1192         2.3171       0.437500
       4628.50        83.7104         1.1258         2.3196       0.429600
       4629.00        83.3589         1.1318         2.3221       0.422700
       4629.50        82.4300         1.1259         2.3222       0.433700
       4630.00        85.1308         1.1173         2.3263       0.448000
       4630.50        84.1588         1.1165         2.3303       0.441600
       4631.00        80.3043         1.1689         2.3284       0.408300
       4631.50        70.1891         1.3466         2.3264       0.365000
       4632.00        55.7039         1.5739         2.3253       0.324300
       4632.50        42.0424         1.7763         2.3173       0.284200
       4633.00        38.7273         2.0512         2.3302       0.259900
       4633.50        38.9461         2.3616         2.3671       0.271900
       4634.00        40.4629         2.3069         2.3682       0.309500
       4634.50        49.7280         2.0635         2.3224       0.338500
       4635.00        56.2230         1.8335         2.2927       0.353700
       4635.50        59.2952         1.6995         2.2989       0.371400
