~Version Information Block
VERS .                  2.0:  CWLS LOG ASCII STANDARD - VERSION 2.0
WRAP .                   NO:  One line per depth step
~Well Information Block
#MNEM.UNIT        Data Type   Information
#---------- ----------------  -----------
STRT .FT            6091.50:  START DEPTH
STOP .FT           14295.50:  STOP DEPTH
STEP .FT               0.50:  STEP
NULL .              -999.25:  NULL VALUE
COMP .                     :  COMPANY
WELL .               STA-35:  WELL
FLD  .                     :  FIELD
LOC  .                     :  LOCATION
CTRY .                     :  COUNTRY
STAT .                     :  STATE
CNTY .                     :  COUNTY
SRVC .                     :  SERVICE COMPANY
DATE .                     :  DATE
API  .                     :  API NUMBER
UWI  .                     :  UNIQUE WELL ID
~Curve Information Block
#MNEM.UNIT         API CODE   Curve Description
#---------- ----------------  -----------------
DEPTH.FT                   :  Depth
GR   .GAPI                 :  Gamma Ray
RT   .OHMM                 :  True Resistivity
RHOB .G/C3                 :  Bulk Density
NPHI .V/V                  :  Neutron Porosity
~Parameter Information Block
#MNEM.UNIT            Value   Description
#---------- ----------------  -----------
PROJECT.            SANTAN_FE:  
~Other Information Block
# 
~A       DEPTH             GR             RT           RHOB           NPHI 
# ...
      10960.00        79.6158         2.6663         2.5293       0.253300
      10960.50        79.1251         2.7443         2.5095       0.254700
      10961.00        87.5617         2.6713         2.4971       0.261600
      10961.50        90.9695         2.5502         2.4956       0.271200
      10962.00        94.9055         2.5807         2.4961       0.275400
      10962.50        93.2136         2.7786         2.4879       0.275000
      10963.00        93.8729         2.9191         2.4701       0.270800
      10963.50        95.5798         2.7693         2.4618       0.259200
      10964.00        94.3865         2.6942         2.4824       0.241500
      10964.50        84.6364         2.8220         2.5180       0.224700
      10965.00        80.1948         3.0822         2.5365       0.216300
      10965.50        78.5694         2.9813         2.5340       0.229500
      10966.00        89.0726         2.6592         2.5205       0.269500
      10966.50       100.7655         2.4491         2.5082       0.309700
      10967.00       107.6060         2.3489         2.4848       0.312700
      10967.50       106.6532         2.5053         2.4486       0.269800
      10968.00        94.3285         2.7725         2.4378       0.220800
      10968.50        80.7228         3.0484         2.4678       0.200700
      10969.00        72.9725         2.9982         2.5093       0.201800
      10969.50        72.2163         2.9876         2.5403       0.204600
      10970.00        73.1479         2.9898         2.5518       0.204100
      10970.50        72.5472         2.9749         2.5466       0.207400
      10971.00        73.2654         2.9411         2.5388       0.213700
      10971.50        73.3104         2.9375         2.5355       0.214300
      10972.00        72.3929         2.9531         2.5337       0.213600
      10972.50        69.9223         2.9572         2.5326       0.221600
      10973.00        70.7014         2.9125         2.5326       0.232800
      10973.50        75.2780         2.8815         2.5327       0.231500
      10974.00        76.9575         2.8392         2.5340       0.219700
      10974.50        73.6180         2.8454         2.5336       0.211400
      10975.00        73.4757         2.8820         2.5277       0.215600
      10975.50        67.7707         2.8596         2.5215       0.228000
      10976.00        70.7474         2.8119         2.5188       0.239300
      10976.50        75.4843         2.7157         2.5160       0.243100
      10977.00        75.0790         2.6637         2.5107       0.243500
      10977.50        73.2541         2.6503         2.5043       0.245100
      10978.00        70.2481         2.7000         2.5001       0.249000
      10978.50        73.2805         2.6817         2.5033       0.258700
      10979.00        77.8670         2.6563         2.5130       0.271000
      10979.50        84.5595         2.4230         2.5232       0.273800
      10980.00        85.3837         2.2749         2.5308       0.264500
      10980.50        86.0132         2.2866         2.5348       0.254700
      10981.00        86.2369         2.3734         2.5297       0.259800
      10981.50        85.2112         2.4577         2.5158       0.278900
      10982.00        90.9006         2.4387         2.5066       0.300200
      10982.50        94.7390         2.2074         2.5140       0.312700
      10983.00        92.1677         2.0312         2.5341       0.305000
      10983.50        92.2292         2.0726         2.5535       0.282500
      10984.00        90.4911         2.0882         2.5652       0.260900
      10984.50        86.1281         2.2264         2.5735       0.243600
      10985.00        84.0370         2.3710         2.5754       0.230200
      10985.50        79.2098         2.5259         2.5654       0.223200
      10986.00        79.0079         2.6041         2.5588       0.229800
      10986.50        82.3788         2.5145         2.5592       0.244600
      10987.00        85.0093         2.3231         2.5622       0.255600
      10987.50        93.0200         2.1600         2.5661       0.260900
      10988.00        90.1995         2.0876         2.5679       0.265800
      10988.50        92.3557         2.0515         2.5679       0.274300
      10989.00        94.5654         1.9425         2.5706       0.278800
      10989.50        95.2694         1.8099         2.5733       0.269000
      10990.00        90.6863         1.8389         2.5715       0.241200
      10990.50        84.6062         2.1456         2.5690       0.206000
      10991.00        70.7013         2.6618         2.5666       0.169200
      10991.50        61.5187         3.2739         2.5669       0.141600
      10992.00        54.8542         4.0397         2.5707       0.129900
      10992.50        53.8759         4.4557         2.5543       0.137700
      10993.00        52.1979         4.2464         2.5189       0.158500
      10993.50        55.7065         3.8555         2.4997       0.180900
      10994.00        60.8763         3.5941         2.5047       0.193900
      10994.50        66.6296         3.4154         2.5187       0.192700
      10995.00        68.8391         3.3739         2.5340       0.182600
      10995.50        66.7179         3.4364         2.5449       0.171900
      10996.00        65.1948         3.4908         2.5495       0.168400
      10996.50        66.5362         3.5384         2.5476       0.172100
      10997.00        66.3410         3.5656         2.5432       0.174000
      10997.50        61.7180         3.5952         2.5393       0.171100
      10998.00        59.6104         3.5960         2.5317       0.170000
      10998.50        56.5603         3.5486         2.5177       0.174600
      10999.00        54.9792         3.4593         2.5061       0.186200
      10999.50        58.3918         3.3445         2.5067       0.201000
      11000.00        66.4703         3.2740         2.5186       0.209400
      11000.50        65.2899         3.2296         2.5233       0.205800
      11001.00        69.1357         3.1955         2.5134       0.197400
      11001.50        65.8966         3.1820         2.4998       0.193400
      11002.00        63.8946         3.2297         2.4940       0.199400
      11002.50        65.8263         3.2125         2.5052       0.209200
      11003.00        70.2174         3.1358         2.5247       0.219300
      11003.50        81.3413         2.9764         2.5387       0.233200
      11004.00        83.4914         2.8827         2.5411       0.248900
      11004.50        89.1672         2.7846         2.5356       0.256700
      11005.00        92.1417         2.6853         2.5371       0.257500
      11005.50        88.8345         2.7692         2.5474       0.256000
      11006.00        88.7572         2.7801         2.5485       0.248500
      11006.50        86.9864         2.8986         2.5417       0.233000
      11007.00        83.8608         3.0844         2.5424       0.216000
      11007.50        79.1648         3.2497         2.5482       0.204500
      11008.00        75.1236         3.3033         2.5501       0.201400
      11008.50        75.3961         3.2719         2.5454       0.204400
      11009.00        77.5551         3.2475         2.5387       0.206300
      11009.50        73.4457         3.2060         2.5391       0.208900
      11010.00        75.2948         3.0451         2.5436       0.225600
      11010.50        79.9139         2.8129         2.5418       0.253500
      11011.00        90.2490         2.5855         2.5354       0.279600
      11011.50        95.7473         2.5568         2.5267       0.289200
      11012.00        91.2422         2.5992         2.5147       0.275000
      11012.50        84.7890         2.8265         2.5160       0.246100
      11013.00        79.5093         3.0341         2.5348       0.222100
