~Version Information Block
VERS .                  2.0:  CWLS LOG ASCII STANDARD - VERSION 2.0
WRAP .                   NO:  One line per depth step
~Well Information Block
#MNEM.UNIT        Data Type   Information
#---------- ----------------  -----------
STRT .FT            6114.50:  START DEPTH
STOP .FT           14965.50:  STOP DEPTH
STEP .FT               0.50:  STEP
NULL .              -999.25:  NULL VALUE
COMP .                     :  COMPANY
WELL .               STA-36:  WELL
FLD  .                     :  FIELD
LOC  .                     :  LOCATION
CTRY .                     :  COUNTRY
STAT .                     :  STATE
CNTY .                     :  COUNTY
SRVC .                     :  SERVICE COMPANY
DATE .                     :  DATE
API  .                     :  API NUMBER
UWI  .                     :  UNIQUE WELL ID
~Curve Information Block
#MNEM.UNIT         API CODE   Curve Description
#---------- ----------------  -----------------
DEPTH.FT                   :  Depth
GR   .GAPI                 :  Gamma Ray
RT   .OHMM                 :  True Resistivity
RHOB .G/C3                 :  Bulk Density
NPHI .V/V                  :  Neutron Porosity
~Parameter Information Block
#MNEM.UNIT            Value   Description
#---------- ----------------  -----------
PROJECT.            SANTAN_FE:  
~Other Information Block
# 
~A       DEPTH             GR             RT           RHOB           NPHI 
# ...
      10769.00        70.3008         3.9966         2.5653       0.178800
      10769.50        63.5456         4.2750         2.5610       0.160800
      10770.00        59.3063         4.5791         2.5608       0.146800
      10770.50        57.0222         4.7530         2.5600       0.139900
      10771.00        56.9602         4.8217         2.5606       0.139600
      10771.50        57.1889         4.6425         2.5587       0.145700
      10772.00        59.1044         4.3615         2.5459       0.156400
      10772.50        64.0149         4.2766         2.5293       0.169500
      10773.00        69.1169         4.1558         2.5182       0.184100
      10773.50        72.0035         4.0554         2.5147       0.194900
      10774.00        72.5154         3.9291         2.5187       0.199700
      10774.50        73.4453         3.9429         2.5243       0.199100
      10775.00        71.4886         4.0341         2.5229       0.190100
      10775.50        72.2064         4.0801         2.5174       0.179600
      10776.00        67.1461         4.2084         2.5175       0.173800
      10776.50        63.2035         4.2345         2.5238       0.171700
      10777.00        66.1296         4.2997         2.5259       0.172500
      10777.50        62.8120         4.3273         2.5174       0.171800
      10778.00        62.8328         4.3458         2.5070       0.166800
      10778.50        60.8290         4.3448         2.5043       0.162200
      10779.00        59.8079         4.3245         2.5062       0.164300
      10779.50        56.8547         4.2797         2.5054       0.166600
      10780.00        54.1684         4.0088         2.4962       0.166800
      10780.50        51.0992         3.8844         2.4853       0.169400
      10781.00        48.9534         3.6443         2.4768       0.175300
      10781.50        43.7927         3.3126         2.4585       0.181300
      10782.00        40.4026         2.8657         2.4241       0.188600
      10782.50        43.2096         2.6240         2.3960       0.194300
      10783.00        45.2306         2.6127         2.3854       0.194400
      10783.50        48.1927         2.6667         2.3876       0.194000
      10784.00        53.3948         2.8059         2.4008       0.195900
      10784.50        56.5275         3.0453         2.4240       0.199700
      10785.00        63.9497         3.2540         2.4545       0.213300
      10785.50        70.4779         3.3582         2.4834       0.233500
      10786.00        83.8602         3.3486         2.5019       0.241500
      10786.50        91.3138         3.3848         2.5204       0.232100
      10787.00        89.8525         3.4084         2.5390       0.216400
      10787.50        84.1264         3.6142         2.5497       0.206900
      10788.00        78.8749         3.7335         2.5526       0.206500
      10788.50        77.4948         3.7255         2.5528       0.210200
      10789.00        80.6419         3.6126         2.5507       0.210900
      10789.50        80.7934         3.5393         2.5495       0.206500
      10790.00        80.3330         3.5760         2.5532       0.199500
      10790.50        80.2643         3.5677         2.5595       0.193500
      10791.00        76.7842         3.5620         2.5629       0.191300
      10791.50        76.2295         3.6356         2.5604       0.192400
      10792.00        71.6064         3.6573         2.5568       0.195200
      10792.50        75.4282         3.6543         2.5530       0.198400
      10793.00        73.5232         3.6325         2.5473       0.201200
      10793.50        73.9921         3.6430         2.5433       0.202500
      10794.00        73.5867         3.6715         2.5437       0.200100
      10794.50        75.9092         3.5968         2.5470       0.197800
      10795.00        75.4771         3.6051         2.5527       0.198600
      10795.50        77.3805         3.6342         2.5577       0.198700
      10796.00        75.8670         3.6662         2.5608       0.198900
      10796.50        75.5680         3.6707         2.5671       0.202100
      10797.00        77.4208         3.6147         2.5724       0.208900
      10797.50        78.4970         3.4437         2.5685       0.218500
      10798.00        80.0973         3.1771         2.5605       0.227400
      10798.50        84.3616         2.8918         2.5587       0.238800
      10799.00        87.2398         2.7293         2.5615       0.252400
      10799.50        90.9786         2.6890         2.5604       0.253700
      10800.00        89.1683         2.7725         2.5570       0.239500
      10800.50        87.9556         2.9421         2.5537       0.225000
      10801.00        79.7069         3.2346         2.5478       0.216500
      10801.50        74.5801         3.3951         2.5386       0.203600
      10802.00        70.2151         3.6223         2.5288       0.184500
      10802.50        63.0121         3.8698         2.5163       0.168700
      10803.00        59.8143         4.0531         2.5093       0.161600
      10803.50        61.0879         4.2213         2.5136       0.163800
      10804.00        57.1381         4.3038         2.5187       0.172500
      10804.50        61.0494         4.2775         2.5213       0.180500
      10805.00        65.2871         4.2078         2.5250       0.185300
      10805.50        69.4050         4.1169         2.5260       0.191000
      10806.00        71.3364         4.0238         2.5252       0.195700
      10806.50        70.8035         3.9753         2.5292       0.190300
      10807.00        72.6516         3.9272         2.5370       0.175400
      10807.50        64.1425         4.0361         2.5444       0.161400
      10808.00        56.2798         4.3585         2.5527       0.153400
      10808.50        54.1247         4.6114         2.5613       0.150600
      10809.00        52.1604         4.8044         2.5640       0.153100
      10809.50        51.9865         4.8238         2.5580       0.160200
      10810.00        53.8485         4.6631         2.5481       0.166000
      10810.50        56.6873         4.4349         2.5404       0.167000
      10811.00        57.1092         4.2424         2.5339       0.166800
      10811.50        61.4253         4.0663         2.5283       0.170300
      10812.00        63.2332         3.9368         2.5256       0.177300
      10812.50        66.6290         3.6285         2.5290       0.181200
      10813.00        65.1968         3.6233         2.5405       0.179300
      10813.50        68.6872         3.7351         2.5513       0.172800
      10814.00        69.4454         3.8184         2.5514       0.165300
      10814.50        68.0896         3.9070         2.5465       0.163600
      10815.00        70.0550         3.9157         2.5450       0.168500
      10815.50        70.6381         3.8779         2.5449       0.177900
      10816.00        73.1470         3.7725         2.5431       0.189900
      10816.50        72.3097         3.6605         2.5430       0.201700
      10817.00        74.5236         3.4907         2.5453       0.207800
      10817.50        75.0162         3.4584         2.5469       0.206700
      10818.00        76.1362         3.3823         2.5442       0.207200
      10818.50        77.9604         3.1974         2.5400       0.209200
      10819.00        76.3073         3.3929         2.5374       0.204800
      10819.50        72.6408         3.5816         2.5348       0.191000
      10820.00        68.0707         3.6924         2.5354       0.176500
      10820.50        67.6886         3.7339         2.5418       0.171500
      10821.00        69.8054         3.6739         2.5476       0.179300
      10821.50        72.7852         3.5888         2.5498       0.196100
      10822.00        78.3636         3.4457         2.5503       0.215200
