~Version Information Block
VERS .                  2.0:  CWLS LOG ASCII STANDARD - VERSION 2.0
WRAP .                   NO:  One line per depth step
~Well Information Block
#MNEM.UNIT        Data Type   Information
#---------- ----------------  -----------
STRT .FT            4582.50:  START DEPTH
STOP .FT           10844.50:  STOP DEPTH
STEP .FT               0.50:  STEP
NULL .              -999.25:  NULL VALUE
COMP .                     :  COMPANY
WELL .               STA-34:  WELL
FLD  .                     :  FIELD
LOC  .                     :  LOCATION
CTRY .                     :  COUNTRY
STAT .                     :  STATE
CNTY .                     :  COUNTY
SRVC .                     :  SERVICE COMPANY
DATE .                     :  DATE
API  .                     :  API NUMBER
UWI  .                     :  UNIQUE WELL ID
~Curve Information Block
#MNEM.UNIT         API CODE   Curve Description
#---------- ----------------  -----------------
DEPTH.FT                   :  Depth
GR   .GAPI                 :  Gamma Ray
RT   .OHMM                 :  True Resistivity
RHOB .G/C3                 :  Bulk Density
NPHI .V/V                  :  Neutron Porosity
~Parameter Information Block
#MNEM.UNIT            Value   Description
#---------- ----------------  -----------
PROJECT.            SANTAN_FE:  
~Other Information Block
# 
~A       DEPTH             GR             RT           RHOB           NPHI 
# ...
       7471.50        86.1713         2.0025         2.5282       0.282000
       7472.00        83.6386         2.1979         2.5366       0.266700
       7472.50        82.4333         2.4719         2.5390       0.250700
       7473.00        76.4596         2.5722         2.5297       0.242100
       7473.50        75.7186         2.5169         2.5158       0.245900
       7474.00        78.7455         2.3871         2.5145       0.250400
       7474.50        76.8068         2.2944         2.5189       0.245600
       7475.00        78.1402         2.3157         2.5174       0.240100
       7475.50        77.7048         2.2677         2.5138       0.245200
       7476.00        78.7860         2.1949         2.5131       0.252800
       7476.50        84.7005         2.1628         2.5135       0.251800
       7477.00        85.0847         2.1581         2.5113       0.250900
       7477.50        84.2808         2.1399         2.5096       0.258500
       7478.00        85.1904         2.0839         2.5173       0.267200
       7478.50        85.8263         2.0328         2.5253       0.275500
       7479.00        83.4629         2.0397         2.5200       0.286900
       7479.50        85.2456         1.9849         2.5153       0.302600
       7480.00        90.4250         1.9188         2.5250       0.317800
       7480.50        91.5058         1.8849         2.5312       0.314800
       7481.00        90.6396         1.9594         2.5224       0.288200
       7481.50        80.6530         2.1647         2.5107       0.257400
       7482.00        68.7461         2.3156         2.4938       0.238800
       7482.50        68.8992         2.3550         2.4719       0.240500
       7483.00        75.9062         2.3076         2.4640       0.251100
       7483.50        79.1316         2.2172         2.4768       0.257700
       7484.00        82.8455         2.1312         2.4977       0.266300
       7484.50        81.4978         1.9259         2.5128       0.287500
       7485.00        94.5164         1.5421         2.5134       0.314000
       7485.50       107.2690         1.5336         2.5059       0.317500
       7486.00       105.9801         1.8370         2.5030       0.291100
       7486.50        92.3112         2.1532         2.5085       0.262900
       7487.00        81.2867         2.3395         2.5162       0.255500
       7487.50        77.2721         2.3884         2.5149       0.259700
       7488.00        76.9001         2.3889         2.5014       0.256900
       7488.50        78.5373         2.3915         2.4869       0.249900
       7489.00        81.0060         2.3660         2.4782       0.254000
       7489.50        82.0188         2.3082         2.4748       0.269600
       7490.00        86.7440         2.2383         2.4814       0.279400
       7490.50        85.5887         2.1899         2.4961       0.272900
       7491.00        81.8706         2.1648         2.5124       0.261800
       7491.50        84.2474         2.1169         2.5262       0.260000
       7492.00        89.8044         2.0422         2.5302       0.266200
       7492.50        86.4441         1.9273         2.5215       0.279200
       7493.00        93.8950         1.7841         2.5091       0.297800
       7493.50        95.4374         1.6354         2.5042       0.312100
       7494.00        97.7779         1.5929         2.5152       0.314600
       7494.50        97.4708         1.5992         2.5340       0.314800
       7495.00        94.7491         1.5767         2.5378       0.313400
       7495.50        87.4228         1.7451         2.5297       0.291100
       7496.00        68.8231         2.1109         2.5344       0.253400
       7496.50        52.6546         2.3670         2.5348       0.230000
       7497.00        49.4420         2.4248         2.5000       0.223800
       7497.50        53.0012         2.4749         2.4510       0.220900
       7498.00        56.5460         2.5403         2.4288       0.218100
       7498.50        63.4281         2.4674         2.4343       0.226100
       7499.00        74.8906         2.2153         2.4535       0.249500
       7499.50        84.2225         2.0030         2.4850       0.271100
       7500.00        87.6859         1.8747         2.5107       0.284300
       7500.50        86.1230         1.8412         2.5220       0.290300
       7501.00        84.0724         2.0154         2.5253       0.279500
       7501.50        83.5452         2.3052         2.5267       0.253700
       7502.00        80.7889         2.4164         2.5357       0.236300
       7502.50        78.4526         2.3039         2.5537       0.236900
       7503.00        84.7834         2.0784         2.5667       0.250800
       7503.50        87.5104         1.9033         2.5631       0.266700
       7504.00        88.3773         1.8275         2.5479       0.272800
       7504.50        90.0044         1.7538         2.5369       0.276100
       7505.00        87.8149         1.6402         2.5346       0.289400
       7505.50        93.2335         1.5143         2.5363       0.304400
       7506.00        90.1178         1.4515         2.5376       0.307900
       7506.50        90.2324         1.5032         2.5341       0.301600
       7507.00        90.3193         1.7614         2.5292       0.289700
       7507.50        76.8403         2.0066         2.5253       0.271100
       7508.00        72.9376         2.0129         2.5126       0.256100
       7508.50        75.2595         1.9389         2.4992       0.255100
       7509.00        72.2793         1.9137         2.4969       0.259000
       7509.50        71.6970         1.9479         2.4958       0.260500
       7510.00        75.2488         1.9311         2.4880       0.265400
       7510.50        76.3956         1.8951         2.4880       0.276600
       7511.00        67.3168         1.7987         2.4946       0.280300
       7511.50        45.3252         1.6282         2.4764       0.268900
       7512.00        30.1110         1.3911         2.4050       0.259800
       7512.50        26.3307         1.2665         2.2934       0.254900
       7513.00        26.5694         1.2620         2.2176       0.246400
       7513.50        32.7892         1.3389         2.2067       0.237100
       7514.00        37.7647         1.5230         2.2313       0.223700
       7514.50        42.0513         1.8171         2.2746       0.210900
       7515.00        45.0197         2.0509         2.3216       0.211400
       7515.50        47.2499         2.1516         2.3598       0.215600
       7516.00        49.3687         2.2215         2.3754       0.217400
       7516.50        51.2756         2.3005         2.3792       0.236200
       7517.00        54.0868         2.3993         2.3891       0.249500
       7517.50        65.1300         2.4125         2.4163       0.252900
       7518.00        73.3093         2.3162         2.4503       0.255000
       7518.50        72.6094         2.2589         2.4777       0.264000
       7519.00        68.9013         2.2603         2.4896       0.272600
       7519.50        74.4357         2.2317         2.4860       0.269700
       7520.00        82.4113         2.2356         2.4806       0.257500
       7520.50        81.2201         2.2507         2.4843       0.239100
       7521.00        78.4705         2.2225         2.4929       0.224700
       7521.50        67.9694         2.2725         2.4883       0.224300
       7522.00        65.2715         2.3341         2.4746       0.227100
       7522.50        66.1254         2.3229         2.4589       0.231200
       7523.00        63.1888         2.2363         2.4419       0.246700
       7523.50        66.9038         2.1350         2.4498       0.258900
       7524.00        81.6028         2.0893         2.4847       0.253500
       7524.50        79.0819         2.1785         2.5043       0.234500
