~Version Information Block
VERS .                  2.0:  CWLS LOG ASCII STANDARD - VERSION 2.0
WRAP .                   NO:  One line per depth step
~Well Information Block
#MNEM.UNIT        Data Type   Information
#---------- ----------------  -----------
STRT .FT            3811.50:  START DEPTH
STOP .FT            9515.50:  STOP DEPTH
STEP .FT               0.50:  STEP
NULL .              -999.25:  NULL VALUE
COMP .                     :  COMPANY
WELL .                STA-6:  WELL
FLD  .                     :  FIELD
LOC  .                     :  LOCATION
CTRY .                     :  COUNTRY
STAT .                     :  STATE
CNTY .                     :  COUNTY
SRVC .                     :  SERVICE COMPANY
DATE .                     :  DATE
API  .                     :  API NUMBER
UWI  .                     :  UNIQUE WELL ID
~Curve Information Block
#MNEM.UNIT         API CODE   Curve Description
#---------- ----------------  -----------------
DEPTH.FT                   :  DEPTH
GR   .GAPI                 :  Gamma Ray
RT   .OHMM                 :  Deep resistivity
RHOB .G/C3                 :  Bulk Density
NPHI .V/V                  :  Neutron porosity
DT   .US/F                 :  Sonic
~Parameter Information Block
#MNEM.UNIT            Value   Description
#---------- ----------------  -----------
PROJECT.            SANTAN_FE:  
~Other Information Block
# 
~A       DEPTH             GR             RT           RHOB           NPHI             DT 
# ...
       7638.50       120.1400         1.8300         2.5000       0.300000       102.3000
       7639.00       120.8300         1.7300         2.5000       0.310000       103.3000
       7639.50       120.8600         1.6200         2.5100       0.330000       104.1000
       7640.00       118.1900         1.6300         2.5100       0.320000       103.6500
       7640.50       114.0000         1.7100         2.5200       0.320000       101.7500
       7641.00       111.8700         1.7300         2.5000       0.320000       100.5000
       7641.50       109.8600         1.7300         2.4900       0.330000       102.8000
       7642.00       109.0600         1.6200         2.4900       0.320000       103.6000
       7642.50       115.0400         1.6100         2.5100       0.320000       103.5500
       7643.00       121.4000         1.5900         2.4900       0.320000       103.8500
       7643.50       125.4900         1.5500         2.4800       0.310000       105.7500
       7644.00       128.9300         1.5600         2.4900       0.320000       105.8500
       7644.50       130.9500         1.5100         2.5100       0.320000       106.3000
       7645.00       129.5900         1.5200         2.5100       0.330000       106.1500
       7645.50       123.6400         1.4600         2.4900       0.330000       105.2000
       7646.00       123.1200         1.4400         2.4700       0.330000       105.4500
       7646.50       126.1000         1.4100         2.4600       0.340000       107.4000
       7647.00       130.7300         1.3700         2.4900       0.340000       106.8500
       7647.50       132.6400         1.3700         2.4900       0.340000       106.6700
       7648.00       131.1400         1.4600         2.4800       0.340000       106.3700
       7648.50       133.4000         1.6900         2.4700       0.340000       106.6700
       7649.00       130.8200         1.6500         2.4600       0.330000       107.1000
       7649.50       132.8600         1.5400         2.4700       0.340000       107.0500
       7650.00       124.7900         1.5400         2.4700       0.350000       106.5000
       7650.50       105.6400         1.4600         2.4700       0.330000       103.3000
       7651.00        83.4200         1.6500         2.5100       0.260000        94.7500
       7651.50        67.0800         2.5700         2.5800       0.180000        86.1000
       7652.00        60.1000         4.3800         2.6100       0.140000        82.7000
       7652.50        59.5700         6.4100         2.5300       0.150000        81.0000
       7653.00        64.1400         3.4700         2.5000       0.180000        82.5500
       7653.50        75.5900         3.4300         2.5100       0.220000        86.5000
       7654.00        80.7100         2.7600         2.5600       0.230000        90.4000
       7654.50        77.4900         3.0300         2.5200       0.220000        91.1500
       7655.00        65.6000         4.0500         2.4400       0.190000        93.8000
       7655.50        61.3100         5.4900         2.3100       0.160000        97.8500
       7656.00        58.7700         9.7500         2.2000       0.150000       101.1000
       7656.50        59.5200        11.6200         2.1500       0.140000       105.5000
       7657.00        56.0800        15.9600         2.1500       0.150000       105.0000
       7657.50        52.9700        18.9000         2.1500       0.160000       104.5500
       7658.00        53.0000        17.5400         2.1200       0.160000       104.6500
       7658.50        53.6100        15.7000         2.1000       0.160000       102.7000
       7659.00        56.1700        17.3800         2.1100       0.140000       104.3500
       7659.50        57.3000        15.1500         2.1000       0.110000       104.4500
       7660.00        55.9000        19.0600         2.0500       0.090000       104.4000
       7660.50        56.1400        27.0900         2.0200       0.100000       104.6000
       7661.00        50.8400        25.0600         2.0000       0.110000       104.4000
       7661.50        50.3200        27.6600         1.9900       0.110000       105.5500
       7662.00        50.1500        28.2300         1.9800       0.100000       105.8000
       7662.50        53.0700        32.2100         1.9700       0.090000       108.6000
       7663.00        53.3000        39.1500         1.9700       0.090000       110.3000
       7663.50        49.1600        36.8200         1.9500       0.100000       110.8000
       7664.00        48.5600        30.7200         1.9400       0.100000       111.4000
       7664.50        47.5300        33.0200         1.9200       0.100000       112.4500
       7665.00        46.7600        40.2700         1.9200       0.100000       111.8000
       7665.50        42.4500        39.1500         1.9200       0.090000       110.8000
       7666.00        39.2900        48.2500         1.9300       0.080000       111.6000
       7666.50        40.0300        79.6700         1.9300       0.080000       112.2000
       7667.00        44.6400        63.5600         1.9400       0.120000       111.9500
       7667.50        46.7600        21.7800         2.0200       0.180000       111.0000
       7668.00        58.6800         6.7500         2.1800       0.250000       109.9500
       7668.50        73.3700         2.4700         2.3900       0.270000       104.9000
       7669.00        84.3400         2.0500         2.4700       0.260000        98.6000
       7669.50        78.3700         3.5700         2.4100       0.220000        96.1500
       7670.00        70.5200         3.4500         2.3700       0.220000        94.9000
       7670.50        66.3300         3.5400         2.3500       0.220000        95.5000
       7671.00        66.1700         3.3000         2.3400       0.220000        95.5500
       7671.50        65.4300         3.9200         2.3400       0.200000        96.1500
       7672.00        69.5800         3.8400         2.3700       0.210000        95.4000
       7672.50        85.7900         3.5100         2.4000       0.220000        97.0000
       7673.00        98.5400         2.8400         2.4300       0.260000        84.4000
       7673.50       112.8300         2.3300         2.4400       0.290000       103.5000
       7674.00       118.6400         2.0400         2.4400       0.320000       106.0000
       7674.50       121.3300         1.9000         2.4300       0.310000       108.6000
       7675.00       122.4900         1.8700         2.4100       0.300000       108.0000
       7675.50       118.6600         2.0500         2.4100       0.290000       105.7000
       7676.00       120.1400         2.2300         2.4300       0.300000       102.3000
       7676.50       104.3600         1.9700         2.4200       0.290000        99.5000
       7677.00        96.7800         2.7200         2.4100       0.270000        97.9000
       7677.50        89.9600         3.3000         2.4000       0.240000        96.6000
       7678.00        99.2700         3.1500         2.4400       0.230000        94.8000
       7678.50       101.8200         2.8900         2.4500       0.240000        94.9500
       7679.00       106.7200         2.8900         2.4700       0.260000        94.7000
       7679.50       110.6200         2.4400         2.4700       0.280000        94.6000
       7680.00       111.8100         2.5400         2.4700       0.280000        94.9000
       7680.50       106.3300         2.6500         2.4500       0.270000        94.1000
       7681.00       101.9400         2.7600         2.4400       0.250000        93.2000
       7681.50        97.6300         2.9100         2.4200       0.240000        92.1000
       7682.00        96.7300         3.0000         2.4100       0.230000        91.1000
       7682.50        96.4200         3.1500         2.4300       0.230000        90.7000
