~Version Information Block
VERS .                  2.0:  CWLS LOG ASCII STANDARD - VERSION 2.0
WRAP .                   NO:  One line per depth step
~Well Information Block
#MNEM.UNIT        Data Type   Information
#---------- ----------------  -----------
STRT .FT            4582.50:  START DEPTH
STOP .FT           10844.50:  STOP DEPTH
STEP .FT               0.50:  STEP
NULL .              -999.25:  NULL VALUE
COMP .                     :  COMPANY
WELL .               STA-34:  WELL
FLD  .                     :  FIELD
LOC  .                     :  LOCATION
CTRY .                     :  COUNTRY
STAT .                     :  STATE
CNTY .                     :  COUNTY
SRVC .                     :  SERVICE COMPANY
DATE .                     :  DATE
API  .                     :  API NUMBER
UWI  .                     :  UNIQUE WELL ID
~Curve Information Block
#MNEM.UNIT         API CODE   Curve Description
#---------- ----------------  -----------------
DEPTH.FT                   :  Depth
GR   .GAPI                 :  Gamma Ray
RT   .OHMM                 :  True Resistivity
RHOB .G/C3                 :  Bulk Density
NPHI .V/V                  :  Neutron Porosity
~Parameter Information Block
#MNEM.UNIT            Value   Description
#---------- ----------------  -----------
PROJECT.            SANTAN_FE:  
~Other Information Block
# 
~A       DEPTH             GR             RT           RHOB           NPHI 
# ...
       5385.00        72.2027         0.8068         2.2099       0.440400
       5385.50        70.1621         0.7939         2.2143       0.436900
       5386.00        72.8352         0.7779         2.2187       0.428800
       5386.50        77.5321         0.7723         2.2220       0.428500
       5387.00        76.6381         0.7975         2.2223       0.427700
       5387.50        77.0753         0.8582         2.2187       0.422700
       5388.00        72.4642         0.9387         2.2071       0.414000
       5388.50        70.6521         0.9931         2.1823       0.407900
       5389.00        64.7943         1.0650         2.1538       0.409200
       5389.50        65.1338         1.0825         2.1345       0.413200
       5390.00        65.7159         1.0517         2.1305       0.407100
       5390.50        69.5248         0.9880         2.1404       0.387200
       5391.00        75.9205         0.9057         2.1547       0.375500
       5391.50        81.2533         0.9006         2.1609       0.383100
       5392.00        88.3805         0.9085         2.1567       0.393200
       5392.50        95.3963         0.8545         2.1544       0.388400
       5393.00        99.4010         0.8253         2.1622       0.372600
       5393.50        98.4951         0.8309         2.1741       0.367300
       5394.00        97.0248         0.8226         2.1804       0.376000
       5394.50        96.5793         0.7636         2.1807       0.386100
       5395.00        86.4549         0.7189         2.1725       0.395100
       5395.50        76.8981         0.7227         2.1661       0.400100
       5396.00        70.0771         0.7786         2.1645       0.388600
       5396.50        60.0509         0.8884         2.1718       0.361100
       5397.00        59.4434         0.9007         2.1977       0.348500
       5397.50        62.0675         0.7209         2.2251       0.374700
       5398.00        65.6074         0.6949         2.2172       0.410900
       5398.50        68.0384         0.6937         2.1818       0.421900
       5399.00        66.7383         0.6826         2.1623       0.408400
       5399.50        62.0258         0.6713         2.1571       0.395300
       5400.00        60.7711         0.6478         2.1508       0.398600
       5400.50        62.3323         0.6408         2.1452       0.406200
       5401.00        61.3211         0.6421         2.1447       0.403500
       5401.50        58.1326         0.6390         2.1458       0.404400
       5402.00        61.3427         0.6400         2.1473       0.418400
       5402.50        61.3279         0.6391         2.1454       0.433300
       5403.00        58.5499         0.5996         2.1365       0.440900
       5403.50        63.6345         0.5674         2.1261       0.450000
       5404.00        64.1423         0.5959         2.1236       0.462400
       5404.50        67.3014         0.6131         2.1322       0.462400
       5405.00        71.0825         0.6274         2.1501       0.453400
       5405.50        73.3393         0.7229         2.1779       0.451100
       5406.00        73.2541         0.7300         2.2084       0.446100
       5406.50        73.1167         0.7609         2.2295       0.429500
       5407.00        68.8637         0.7714         2.2352       0.409600
       5407.50        62.2207         0.8149         2.2267       0.420600
       5408.00        58.1063         0.8988         2.2155       0.426900
       5408.50        59.2036         1.3598         2.2141       0.413300
       5409.00        55.2037         1.8359         2.2315       0.384300
       5409.50        47.6455         2.7001         2.3030       0.337100
       5410.00        37.4459         3.0653         2.4351       0.282300
       5410.50        37.6538         2.8653         2.4845       0.241500
       5411.00        44.6019         2.7657         2.4236       0.243500
       5411.50        51.5189         2.3561         2.3200       0.290800
       5412.00        59.7664         1.8784         2.2379       0.328800
       5412.50        63.2867         1.7408         2.1970       0.338300
       5413.00        64.6766         1.7148         2.1876       0.345100
       5413.50        68.7840         1.5891         2.1831       0.357200
       5414.00        74.4578         1.5624         2.1749       0.364300
       5414.50        75.5497         1.5308         2.1661       0.365700
       5415.00        75.8014         1.4481         2.1608       0.365200
       5415.50        75.8107         1.3207         2.1611       0.358600
       5416.00        74.4158         1.2562         2.1750       0.343300
       5416.50        75.4526         1.2311         2.1968       0.341800
       5417.00        75.8541         1.2318         2.2099       0.358200
       5417.50        75.2470         1.2383         2.2132       0.361700
       5418.00        78.6967         1.3289         2.2141       0.360100
       5418.50        78.6156         1.4371         2.2159       0.364300
       5419.00        79.3796         1.6071         2.2161       0.370900
       5419.50        75.4832         1.8032         2.2045       0.368500
       5420.00        76.1029         2.0522         2.1845       0.360400
       5420.50        83.9789         2.0174         2.1763       0.363500
       5421.00        80.6287         1.5742         2.1741       0.383800
       5421.50        80.2172         1.2644         2.1715       0.401300
       5422.00        82.0848         1.0858         2.1719       0.402600
       5422.50        85.3357         1.0848         2.1803       0.390500
       5423.00        80.6608         1.0916         2.1899       0.376700
       5423.50        90.4047         1.0781         2.1965       0.373600
       5424.00        84.0143         1.0470         2.2035       0.375600
       5424.50        80.2337         1.0406         2.2135       0.376600
       5425.00        79.1628         1.0526         2.2204       0.374900
       5425.50        80.6310         1.0903         2.2230       0.362100
       5426.00        86.6329         1.2591         2.2307       0.327900
       5426.50        91.4038         1.4402         2.2447       0.297800
       5427.00        87.4451         1.3639         2.2658       0.303800
       5427.50        82.1619         1.1383         2.2698       0.329000
       5428.00        85.6873         1.0414         2.2472       0.337800
       5428.50        87.3093         1.2322         2.2644       0.309900
       5429.00        85.1716         1.7677         2.3445       0.257500
       5429.50        82.3590         1.7047         2.3829       0.231300
       5430.00        84.8409         1.3862         2.3491       0.266600
       5430.50        77.7741         1.1578         2.2858       0.322700
       5431.00        66.5238         1.0867         2.2483       0.344800
       5431.50        59.8978         1.0682         2.2356       0.342100
       5432.00        57.3133         1.0839         2.2327       0.338700
       5432.50        58.9898         1.1393         2.2317       0.340700
       5433.00        58.9756         1.2424         2.2318       0.350100
       5433.50        60.8357         1.3539         2.2317       0.362700
       5434.00        64.4716         1.2851         2.2230       0.372200
       5434.50        65.3631         1.1609         2.2136       0.374800
       5435.00        58.9067         1.1318         2.2186       0.363900
       5435.50        55.6560         1.2224         2.2356       0.335900
       5436.00        53.7850         1.4198         2.2630       0.298100
       5436.50        55.9784         1.5103         2.3068       0.268800
       5437.00        53.5522         1.4286         2.3500       0.276600
       5437.50        50.4771         1.3098         2.3499       0.327800
       5438.00        50.6233         1.2078         2.3075       0.373500
