~Version Information Block
VERS .                  2.0:  CWLS LOG ASCII STANDARD - VERSION 2.0
WRAP .                   NO:  One line per depth step
~Well Information Block
#MNEM.UNIT        Data Type   Information
#---------- ----------------  -----------
STRT .FT            4582.50:  START DEPTH
STOP .FT           10844.50:  STOP DEPTH
STEP .FT               0.50:  STEP
NULL .              -999.25:  NULL VALUE
COMP .                     :  COMPANY
WELL .               STA-34:  WELL
FLD  .                     :  FIELD
LOC  .                     :  LOCATION
CTRY .                     :  COUNTRY
STAT .                     :  STATE
CNTY .                     :  COUNTY
SRVC .                     :  SERVICE COMPANY
DATE .                     :  DATE
API  .                     :  API NUMBER
UWI  .                     :  UNIQUE WELL ID
~Curve Information Block
#MNEM.UNIT         API CODE   Curve Description
#---------- ----------------  -----------------
DEPTH.FT                   :  Depth
GR   .GAPI                 :  Gamma Ray
RT   .OHMM                 :  True Resistivity
RHOB .G/C3                 :  Bulk Density
NPHI .V/V                  :  Neutron Porosity
~Parameter Information Block
#MNEM.UNIT            Value   Description
#---------- ----------------  -----------
PROJECT.            SANTAN_FE:  
~Other Information Block
# 
~A       DEPTH             GR             RT           RHOB           NPHI 
# ...
       5813.00        71.2543         1.3760         2.2764       0.358700
       5813.50        70.4630         1.3588         2.2773       0.362000
       5814.00        70.5951         1.3246         2.2817       0.369400
       5814.50        68.2887         1.2865         2.2930       0.373800
       5815.00        69.1973         1.2951         2.3121       0.375000
       5815.50        69.0101         1.2698         2.3231       0.379200
       5816.00        72.2856         1.1853         2.3253       0.384100
       5816.50        69.4587         1.2001         2.3143       0.390200
       5817.00        71.5115         1.2370         2.3008       0.400500
       5817.50        73.6648         1.1726         2.3087       0.401000
       5818.00        72.1380         1.1255         2.3197       0.389800
       5818.50        75.7592         1.1621         2.3239       0.387400
       5819.00        72.4298         1.2222         2.3232       0.392100
       5819.50        73.7195         1.2144         2.3279       0.392800
       5820.00        75.1375         1.1673         2.3393       0.388500
       5820.50        77.7096         1.1395         2.3489       0.384800
       5821.00        78.4863         1.1498         2.3473       0.390900
       5821.50        79.0176         1.1759         2.3388       0.397600
       5822.00        81.1297         1.1404         2.3345       0.390800
       5822.50        82.3086         1.0924         2.3353       0.388200
       5823.00        80.7076         1.1081         2.3398       0.400200
       5823.50        79.5015         1.1274         2.3455       0.405100
       5824.00        77.9262         1.1598         2.3440       0.405800
       5824.50        77.2136         1.1416         2.3424       0.408000
       5825.00        80.6894         1.1173         2.3501       0.409000
       5825.50        79.5391         1.0870         2.3600       0.408100
       5826.00        81.4635         1.0691         2.3661       0.406700
       5826.50        80.2321         1.0489         2.3697       0.408100
       5827.00        80.9488         1.0125         2.3735       0.411900
       5827.50        83.0379         0.9624         2.3797       0.418500
       5828.00        85.6414         0.9134         2.3853       0.429600
       5828.50        87.1006         0.8915         2.3862       0.438900
       5829.00        87.5531         0.8747         2.3836       0.441800
       5829.50        88.9487         0.8507         2.3813       0.440700
       5830.00        87.4437         0.8237         2.3788       0.437700
       5830.50        87.0241         0.8025         2.3754       0.436500
       5831.00        82.5451         0.8085         2.3737       0.441600
       5831.50        83.3165         0.8148         2.3715       0.444400
       5832.00        82.5866         0.8380         2.3666       0.417300
       5832.50        80.7621         0.9655         2.3571       0.369700
       5833.00        72.8387         1.0950         2.3454       0.347300
       5833.50        69.9243         1.1447         2.3429       0.354300
       5834.00        72.3775         1.1365         2.3495       0.366200
       5834.50        74.1919         1.1015         2.3613       0.383300
       5835.00        72.5278         1.0932         2.3640       0.397900
       5835.50        71.4557         1.1012         2.3562       0.397000
       5836.00        76.6528         1.0951         2.3496       0.396000
       5836.50        76.5602         1.0620         2.3503       0.405100
       5837.00        79.2162         1.0162         2.3567       0.411400
       5837.50        75.9599         0.9860         2.3587       0.411500
       5838.00        77.0024         0.9600         2.3549       0.420900
       5838.50        80.2034         0.9431         2.3526       0.431100
       5839.00        79.8936         0.9610         2.3525       0.420400
       5839.50        71.5755         1.1735         2.3562       0.405500
       5840.00        66.7940         1.2645         2.3589       0.406300
       5840.50        71.4263         0.9896         2.3520       0.419900
       5841.00        78.9867         0.8762         2.3486       0.424700
       5841.50        82.1875         0.8375         2.3521       0.410400
       5842.00        82.6624         0.9131         2.3498       0.389700
       5842.50        79.9007         1.0822         2.3472       0.371300
       5843.00        70.3081         1.2606         2.3534       0.354500
       5843.50        63.4188         1.3392         2.3558       0.342100
       5844.00        63.6656         1.2705         2.3463       0.348400
       5844.50        68.4899         1.1644         2.3416       0.375500
       5845.00        75.1510         1.1205         2.3510       0.386500
       5845.50        78.7376         1.0882         2.3620       0.368600
       5846.00        78.6963         1.0602         2.3618       0.361100
       5846.50        80.7539         1.0160         2.3541       0.384100
       5847.00        80.2907         0.9710         2.3495       0.417100
       5847.50        81.4375         0.9546         2.3531       0.436300
       5848.00        84.3643         0.9435         2.3608       0.431700
       5848.50        81.8356         0.9589         2.3621       0.416600
       5849.00        82.1694         0.9861         2.3547       0.414900
       5849.50        83.0330         1.0073         2.3478       0.430400
       5850.00        85.1392         1.0007         2.3424       0.435900
       5850.50        85.1676         0.9850         2.3300       0.429400
       5851.00        83.6966         0.9841         2.3227       0.427500
       5851.50        85.8622         0.9643         2.3351       0.419900
       5852.00        85.0565         0.9411         2.3532       0.400800
       5852.50        86.3615         0.9283         2.3574       0.390800
       5853.00        84.0250         0.9102         2.3514       0.397900
       5853.50        87.7784         0.8943         2.3495       0.408600
       5854.00        87.8361         0.8705         2.3522       0.415200
       5854.50        84.8848         0.8374         2.3548       0.422800
       5855.00        80.9620         0.8238         2.3551       0.428400
       5855.50        77.0651         0.8542         2.3488       0.426500
       5856.00        68.8778         0.9978         2.3394       0.407600
       5856.50        61.3073         1.2714         2.3323       0.369800
       5857.00        51.9807         1.6224         2.3263       0.329700
       5857.50        49.0442         2.0418         2.3236       0.301100
       5858.00        48.0301         2.1911         2.3309       0.283200
       5858.50        53.0810         2.0244         2.3395       0.280200
       5859.00        57.4177         1.7488         2.3233       0.293500
       5859.50        55.9106         1.6184         2.2856       0.314800
       5860.00        58.0804         1.5489         2.2559       0.323500
       5860.50        59.9535         1.5063         2.2457       0.323400
       5861.00        56.2257         1.4656         2.2550       0.323700
       5861.50        59.5506         1.4220         2.2743       0.326500
       5862.00        60.3394         1.3740         2.2873       0.335800
       5862.50        65.7109         1.3321         2.2975       0.346300
       5863.00        65.3498         1.2879         2.3119       0.355600
       5863.50        68.7119         1.2837         2.3201       0.357200
       5864.00        70.4180         1.2872         2.3165       0.355200
       5864.50        64.9375         1.2831         2.3072       0.358400
       5865.00        62.2696         1.2525         2.2958       0.364300
       5865.50        64.7208         1.1901         2.2862       0.367000
       5866.00        67.6830         1.1260         2.2849       0.360800
