~Version Information Block
VERS .                  2.0:  CWLS LOG ASCII STANDARD - VERSION 2.0
WRAP .                   NO:  One line per depth step
~Well Information Block
#MNEM.UNIT        Data Type   Information
#---------- ----------------  -----------
STRT .FT            6415.50:  START DEPTH
STOP .FT           16132.50:  STOP DEPTH
STEP .FT               0.50:  STEP
NULL .              -999.25:  NULL VALUE
COMP .                     :  COMPANY
WELL .               STA-33:  WELL
FLD  .                     :  FIELD
LOC  .                     :  LOCATION
CTRY .                     :  COUNTRY
STAT .                     :  STATE
CNTY .                     :  COUNTY
SRVC .                     :  SERVICE COMPANY
DATE .                     :  DATE
API  .                     :  API NUMBER
UWI  .                     :  UNIQUE WELL ID
~Curve Information Block
#MNEM.UNIT         API CODE   Curve Description
#---------- ----------------  -----------------
DEPTH.FT                   :  Depth
GR   .GAPI                 :  Gamma Ray
RT   .OHMM                 :  True Resistivity
RHOB .G/C3                 :  Bulk Density
NPHI .V/V                  :  Neutron Porosity
~Parameter Information Block
#MNEM.UNIT            Value   Description
#---------- ----------------  -----------
PROJECT.            SANTAN_FE:  
~Other Information Block
# 
~A       DEPTH             GR             RT           RHOB           NPHI 
# ...
      11551.50        68.0592         2.9263         2.5310       0.208100
      11552.00        62.9337         2.8074         2.5248       0.213200
      11552.50        64.4937         2.8093         2.5154       0.228500
      11553.00        68.3166         2.7115         2.5048       0.247600
      11553.50        74.6211         2.4738         2.5062       0.260800
      11554.00        80.9095         2.2441         2.5277       0.261000
      11554.50        88.8991         2.1233         2.5495       0.243700
      11555.00        93.7582         2.0742         2.5527       0.224500
      11555.50        85.1264         2.2492         2.5520       0.211000
      11556.00        76.7352         2.6750         2.5549       0.195800
      11556.50        68.9419         2.7981         2.5528       0.181900
      11557.00        59.5495         2.9166         2.5330       0.180300
      11557.50        54.7420         2.9265         2.5166       0.193400
      11558.00        48.8783         2.7533         2.5008       0.207400
      11558.50        48.1595         2.6476         2.4568       0.208500
      11559.00        49.4247         2.6459         2.3982       0.201900
      11559.50        49.4918         2.6240         2.3612       0.201200
      11560.00        47.0614         2.5303         2.3596       0.204300
      11560.50        48.8643         2.4427         2.3723       0.204800
      11561.00        50.8396         2.3980         2.3856       0.203500
      11561.50        51.4019         2.3879         2.3930       0.204100
      11562.00        52.0753         2.3801         2.3901       0.207300
      11562.50        51.3222         2.4006         2.3855       0.211700
      11563.00        55.4508         2.4500         2.3985       0.216600
      11563.50        56.6317         2.5397         2.4386       0.222800
      11564.00        66.0680         2.5985         2.4722       0.232800
      11564.50        76.7657         2.5283         2.4849       0.245300
      11565.00        84.6432         2.3593         2.4971       0.251400
      11565.50        84.3897         2.3309         2.5134       0.246500
      11566.00        80.6475         2.4014         2.5198       0.234700
      11566.50        78.1873         2.4752         2.5185       0.222500
      11567.00        76.6796         2.5483         2.5141       0.212600
      11567.50        74.6963         2.6303         2.4989       0.207500
      11568.00        63.7646         2.7742         2.4668       0.211500
      11568.50        55.4515         2.8696         2.4168       0.220200
      11569.00        47.7869         3.0696         2.3611       0.225200
      11569.50        46.8603         3.2169         2.3157       0.229100
      11570.00        49.0150         3.2927         2.2924       0.231100
      11570.50        51.3089         3.2925         2.3090       0.221100
      11571.00        58.6056         3.2158         2.3685       0.205900
      11571.50        60.2911         3.1004         2.4411       0.202100
      11572.00        58.2380         2.9852         2.4741       0.208500
      11572.50        54.8619         2.8802         2.4422       0.213800
      11573.00        54.7889         2.7313         2.3986       0.217000
      11573.50        54.5442         2.6146         2.3891       0.219700
      11574.00        52.0808         2.5369         2.3995       0.217600
      11574.50        53.9790         2.5174         2.4175       0.211900
      11575.00        55.7532         2.5544         2.4428       0.206700
      11575.50        55.7882         2.5820         2.4638       0.203200
      11576.00        57.2493         2.5776         2.4651       0.205300
      11576.50        55.8607         2.5234         2.4438       0.210800
      11577.00        52.8220         2.4488         2.4094       0.215100
      11577.50        53.4475         2.3942         2.3793       0.223100
      11578.00        56.7878         2.3607         2.3727       0.230100
      11578.50        57.1470         2.3336         2.3802       0.222300
      11579.00        55.2320         2.3250         2.3866       0.209700
      11579.50        55.7164         2.3447         2.3927       0.207200
      11580.00        53.3933         2.3780         2.4035       0.208300
      11580.50        54.1752         2.4220         2.4261       0.211900
      11581.00        53.3495         2.4403         2.4573       0.218600
      11581.50        52.9377         2.3915         2.4616       0.219400
      11582.00        54.2672         2.3119         2.4236       0.216100
      11582.50        53.7826         2.2874         2.3751       0.217200
      11583.00        52.0536         2.3164         2.3480       0.218300
      11583.50        51.2033         2.3719         2.3519       0.217200
      11584.00        56.4803         2.4400         2.3839       0.216600
      11584.50        62.0746         2.5166         2.4377       0.214600
      11585.00        65.9658         2.5839         2.4907       0.216700
      11585.50        77.3915         2.6687         2.5209       0.228600
      11586.00        87.2286         2.5450         2.5308       0.246100
      11586.50        89.0154         2.2872         2.5344       0.259900
      11587.00        89.0503         2.1341         2.5379       0.265700
      11587.50        94.1287         2.0182         2.5391       0.267200
      11588.00        94.2507         1.8598         2.5384       0.268200
      11588.50        95.6107         1.7519         2.5412       0.268900
      11589.00        94.9496         1.9868         2.5508       0.265500
      11589.50        93.3844         2.1017         2.5597       0.253100
      11590.00        88.3782         2.3032         2.5586       0.234200
      11590.50        79.4776         2.5572         2.5492       0.217100
      11591.00        71.1371         2.6539         2.5412       0.204200
      11591.50        64.3777         2.6717         2.5292       0.200300
      11592.00        63.2885         2.6934         2.5049       0.203000
      11592.50        65.4282         2.7067         2.4865       0.204200
      11593.00        69.6564         2.7142         2.4887       0.204900
      11593.50        73.0563         2.7121         2.4994       0.207400
      11594.00        75.3908         2.6934         2.5127       0.210200
      11594.50        76.6359         2.6536         2.5306       0.216600
      11595.00        79.7557         2.6066         2.5473       0.225200
      11595.50        79.7810         2.5696         2.5579       0.231200
      11596.00        80.4509         2.4847         2.5619       0.233000
      11596.50        83.0899         2.3872         2.5601       0.235200
      11597.00        83.3462         2.3402         2.5535       0.237200
      11597.50        84.2015         2.2704         2.5434       0.238400
      11598.00        86.7807         2.1971         2.5406       0.241500
      11598.50        92.1096         2.1263         2.5528       0.245900
      11599.00        95.6279         2.0517         2.5654       0.249100
      11599.50        90.6232         1.9726         2.5633       0.255200
      11600.00        91.9224         1.8648         2.5537       0.262000
      11600.50        94.3771         1.8129         2.5482       0.264300
      11601.00        97.7151         1.7981         2.5504       0.266200
      11601.50        95.8888         1.7707         2.5582       0.270100
      11602.00        95.6886         1.6874         2.5641       0.271600
      11602.50        97.4747         1.6931         2.5642       0.270400
      11603.00        95.2202         1.8149         2.5619       0.266300
      11603.50        91.4704         1.8925         2.5614       0.259000
      11604.00        90.0962         1.9903         2.5675       0.246400
      11604.50        82.3024         2.2980         2.5765       0.224900
