~Version Information Block
VERS .                  2.0:  CWLS LOG ASCII STANDARD - VERSION 2.0
WRAP .                   NO:  One line per depth step
~Well Information Block
#MNEM.UNIT        Data Type   Information
#---------- ----------------  -----------
STRT .FT            6091.50:  START DEPTH
STOP .FT           14295.50:  STOP DEPTH
STEP .FT               0.50:  STEP
NULL .              -999.25:  NULL VALUE
COMP .                     :  COMPANY
WELL .               STA-35:  WELL
FLD  .                     :  FIELD
LOC  .                     :  LOCATION
CTRY .                     :  COUNTRY
STAT .                     :  STATE
CNTY .                     :  COUNTY
SRVC .                     :  SERVICE COMPANY
DATE .                     :  DATE
API  .                     :  API NUMBER
UWI  .                     :  UNIQUE WELL ID
~Curve Information Block
#MNEM.UNIT         API CODE   Curve Description
#---------- ----------------  -----------------
DEPTH.FT                   :  Depth
GR   .GAPI                 :  Gamma Ray
RT   .OHMM                 :  True Resistivity
RHOB .G/C3                 :  Bulk Density
NPHI .V/V                  :  Neutron Porosity
~Parameter Information Block
#MNEM.UNIT            Value   Description
#---------- ----------------  -----------
PROJECT.            SANTAN_FE:  
~Other Information Block
# 
~A       DEPTH             GR             RT           RHOB           NPHI 
# ...
       7161.50        70.9068         1.6441         2.3155       0.403100
       7162.00        73.8468         1.5589         2.3140       0.397400
       7162.50        73.6172         1.4777         2.3139       0.410200
       7163.00        76.2608         1.4894         2.3139       0.423400
       7163.50        78.1683         1.4928         2.3192       0.416700
       7164.00        77.2158         1.4809         2.3240       0.402800
       7164.50        77.1807         1.4814         2.3254       0.398800
       7165.00        76.4958         1.4971         2.3242       0.404400
       7165.50        78.8480         1.5180         2.3254       0.419300
       7166.00        74.8127         1.5324         2.3322       0.434600
       7166.50        75.7441         1.5193         2.3363       0.431600
       7167.00        78.8365         1.5241         2.3359       0.418300
       7167.50        80.2778         1.5539         2.3357       0.409000
       7168.00        82.7339         1.5563         2.3414       0.398200
       7168.50        79.7706         1.4890         2.3514       0.394500
       7169.00        78.0040         1.4771         2.3576       0.408800
       7169.50        80.4153         1.4526         2.3577       0.427500
       7170.00        80.0350         1.3791         2.3585       0.427700
       7170.50        84.7794         1.3187         2.3584       0.417500
       7171.00        82.4749         1.2833         2.3566       0.418500
       7171.50        82.2410         1.2765         2.3584       0.420100
       7172.00        85.2187         1.2901         2.3641       0.405000
       7172.50        81.4245         1.4064         2.3725       0.383000
       7173.00        80.7909         1.6275         2.3776       0.361200
       7173.50        73.4551         1.9267         2.3698       0.337400
       7174.00        59.2799         2.1669         2.3485       0.318600
       7174.50        52.0299         2.2049         2.3172       0.312200
       7175.00        50.9492         2.3272         2.2746       0.312400
       7175.50        48.7149         2.4517         2.2326       0.314900
       7176.00        46.6139         2.5184         2.2041       0.324700
       7176.50        46.5157         2.4927         2.1890       0.331600
       7177.00        46.6525         2.4665         2.1839       0.321500
       7177.50        50.2958         2.4639         2.1873       0.310800
       7178.00        53.6613         2.4715         2.1949       0.317300
       7178.50        55.0806         2.4503         2.2019       0.332000
       7179.00        55.5896         2.4086         2.2087       0.341500
       7179.50        55.1394         2.3700         2.2157       0.345500
       7180.00        53.4406         2.3337         2.2197       0.345900
       7180.50        53.8674         2.3157         2.2230       0.340000
       7181.00        52.3770         2.2941         2.2302       0.330700
       7181.50        55.3001         2.2735         2.2327       0.327800
       7182.00        55.4286         2.2426         2.2291       0.334000
       7182.50        55.2513         2.2328         2.2292       0.337900
       7183.00        55.5260         2.2268         2.2348       0.338400
       7183.50        57.8404         2.2071         2.2397       0.352000
       7184.00        58.5036         2.2206         2.2408       0.378900
       7184.50        61.4970         2.1950         2.2383       0.389900
       7185.00        65.3003         2.1475         2.2336       0.378600
       7185.50        65.3318         2.1530         2.2312       0.372900
       7186.00        67.7855         2.1489         2.2338       0.380500
       7186.50        66.7115         2.1096         2.2355       0.385400
       7187.00        69.1413         2.0398         2.2329       0.387100
       7187.50        68.8965         1.9618         2.2298       0.403000
       7188.00        72.1438         1.9729         2.2302       0.422000
       7188.50        73.4169         1.9644         2.2351       0.428700
       7189.00        77.6649         1.8946         2.2465       0.430700
       7189.50        82.8618         1.6510         2.2692       0.435200
       7190.00        82.7721         1.4863         2.3041       0.437500
       7190.50        85.4973         1.4703         2.3403       0.430100
       7191.00        84.4164         1.4951         2.3601       0.416700
       7191.50        89.5542         1.4431         2.3603       0.414000
       7192.00        89.6552         1.4174         2.3500       0.419100
       7192.50        93.3886         1.4496         2.3420       0.423000
       7193.00        90.8686         1.4574         2.3430       0.438500
       7193.50        88.7770         1.4598         2.3484       0.458500
       7194.00        91.1522         1.4429         2.3519       0.456000
       7194.50        94.3129         1.3962         2.3553       0.433600
       7195.00        90.0683         1.4241         2.3633       0.423700
       7195.50        85.6933         1.4420         2.3734       0.422800
       7196.00        87.2260         1.4532         2.3755       0.413500
       7196.50        88.1585         1.4442         2.3691       0.406800
       7197.00        84.1321         1.4146         2.3652       0.403600
       7197.50        83.0955         1.5191         2.3694       0.394100
       7198.00        83.3476         1.6274         2.3795       0.383600
       7198.50        79.7869         1.7742         2.3912       0.371800
       7199.00        74.6381         1.9120         2.4046       0.353300
       7199.50        70.4756         2.1713         2.4247       0.342400
       7200.00        67.5275         2.3855         2.4363       0.362200
       7200.50        70.0268         2.1310         2.4177       0.400000
       7201.00        73.2964         2.0426         2.3899       0.424500
       7201.50        82.0777         1.9652         2.3768       0.416500
       7202.00        81.0537         1.9035         2.3669       0.388700
       7202.50        83.7755         1.8285         2.3588       0.378600
       7203.00        86.4729         1.7134         2.3579       0.387000
       7203.50        89.0507         1.5825         2.3606       0.397100
       7204.00        85.6083         1.5168         2.3608       0.408100
       7204.50        85.1483         1.4794         2.3580       0.408600
       7205.00        90.4219         1.4582         2.3572       0.401000
       7205.50        91.0598         1.4621         2.3604       0.406100
       7206.00        92.4404         1.4612         2.3599       0.418900
       7206.50        91.1151         1.4686         2.3542       0.428100
       7207.00        87.2075         1.4634         2.3536       0.435000
       7207.50        93.3612         1.4485         2.3587       0.432400
       7208.00        95.2015         1.5119         2.3620       0.417400
       7208.50        92.8647         1.5333         2.3628       0.403500
       7209.00        92.4314         1.5699         2.3581       0.400900
       7209.50        93.4668         1.5428         2.3455       0.396800
       7210.00        90.3895         1.5079         2.3358       0.387300
       7210.50        90.9405         1.5049         2.3368       0.392500
       7211.00        92.7211         1.4919         2.3451       0.404500
       7211.50        88.9860         1.4371         2.3512       0.409100
       7212.00        89.2445         1.3852         2.3505       0.415500
       7212.50        88.8190         1.3616         2.3489       0.421200
       7213.00        93.9251         1.3842         2.3560       0.424100
       7213.50        90.6809         1.3987         2.3648       0.429900
       7214.00        89.8495         1.4112         2.3621       0.436200
       7214.50        88.8336         1.5146         2.3543       0.429400
