~Version Information Block
VERS .                  2.0:  CWLS LOG ASCII STANDARD - VERSION 2.0
WRAP .                   NO:  One line per depth step
~Well Information Block
#MNEM.UNIT        Data Type   Information
#---------- ----------------  -----------
STRT .FT            6114.50:  START DEPTH
STOP .FT           14965.50:  STOP DEPTH
STEP .FT               0.50:  STEP
NULL .              -999.25:  NULL VALUE
COMP .                     :  COMPANY
WELL .               STA-36:  WELL
FLD  .                     :  FIELD
LOC  .                     :  LOCATION
CTRY .                     :  COUNTRY
STAT .                     :  STATE
CNTY .                     :  COUNTY
SRVC .                     :  SERVICE COMPANY
DATE .                     :  DATE
API  .                     :  API NUMBER
UWI  .                     :  UNIQUE WELL ID
~Curve Information Block
#MNEM.UNIT         API CODE   Curve Description
#---------- ----------------  -----------------
DEPTH.FT                   :  Depth
GR   .GAPI                 :  Gamma Ray
RT   .OHMM                 :  True Resistivity
RHOB .G/C3                 :  Bulk Density
NPHI .V/V                  :  Neutron Porosity
~Parameter Information Block
#MNEM.UNIT            Value   Description
#---------- ----------------  -----------
PROJECT.            SANTAN_FE:  
~Other Information Block
# 
~A       DEPTH             GR             RT           RHOB           NPHI 
# ...
      14300.00       111.8654         3.2664         2.6604       0.214900
      14300.50       108.6849         3.4715         2.6561       0.203300
      14301.00        99.8657         4.0572         2.6583       0.179100
      14301.50        87.5887         4.9468         2.6735       0.148800
      14302.00        70.7150         6.9473         2.6993       0.118300
      14302.50        58.2074         8.8061         2.7180       0.092600
      14303.00        46.0812        10.3084         2.7283       0.078400
      14303.50        40.0352        12.7423         2.7365       0.072400
      14304.00        40.3512        13.4892         2.7428       0.071700
      14304.50        41.9416        14.0122         2.7469       0.077300
      14305.00        48.2176        13.8325         2.7444       0.083700
      14305.50        56.4090        13.2185         2.7288       0.084200
      14306.00        56.7142        12.9079         2.7095       0.079800
      14306.50        55.6684        12.5203         2.6964       0.076300
      14307.00        52.4626        12.0225         2.6880       0.078300
      14307.50        50.4849        10.7334         2.6791       0.084600
      14308.00        51.2561         9.4503         2.6599       0.091600
      14308.50        52.5652         8.7016         2.6340       0.096000
      14309.00        51.7019         8.4293         2.6214       0.099300
      14309.50        52.1159         8.0799         2.6207       0.104200
      14310.00        53.4008         7.1513         2.6131       0.112400
      14310.50        62.5689         6.3941         2.6028       0.121800
      14311.00        75.5949         6.2180         2.6031       0.125200
      14311.50        75.2748         6.1963         2.6114       0.123000
      14312.00        66.9717         6.1060         2.6099       0.121700
      14312.50        60.7733         5.9754         2.6056       0.121100
      14313.00        62.2680         5.9182         2.6157       0.118400
      14313.50        60.9711         5.9436         2.6326       0.115400
      14314.00        60.2028         5.9897         2.6447       0.113400
      14314.50        59.1170         6.1172         2.6484       0.111400
      14315.00        57.7945         6.2199         2.6388       0.110900
      14315.50        57.9249         6.1966         2.6205       0.111900
      14316.00        61.9127         6.2596         2.6067       0.112400
      14316.50        58.7954         6.3415         2.6041       0.111700
      14317.00        57.5926         6.3658         2.6073       0.110500
      14317.50        55.8011         6.4368         2.6132       0.109000
      14318.00        55.4748         6.5878         2.6326       0.107900
      14318.50        61.3137         6.5550         2.6514       0.108700
      14319.00        67.7888         6.4710         2.6432       0.112100
      14319.50        68.8389         6.4055         2.6225       0.116300
      14320.00        69.2532         6.3041         2.6176       0.118400
      14320.50        70.0045         6.2304         2.6247       0.117100
      14321.00        69.7668         6.1401         2.6271       0.113800
      14321.50        67.9784         6.0511         2.6161       0.110000
      14322.00        66.7544         5.9364         2.6006       0.109400
      14322.50        65.1894         5.8409         2.5961       0.112900
      14323.00        69.1737         5.7209         2.5968       0.118600
      14323.50        74.3105         5.5864         2.6016       0.129300
      14324.00        77.1600         5.3240         2.6181       0.143700
      14324.50        85.9798         5.0212         2.6440       0.154800
      14325.00        94.9346         4.8460         2.6610       0.160000
      14325.50        97.6807         4.8191         2.6606       0.162800
      14326.00        99.1238         4.8666         2.6501       0.167800
      14326.50        97.0760         4.7859         2.6419       0.171800
      14327.00        98.1991         4.6732         2.6455       0.169300
      14327.50        97.7239         4.6407         2.6578       0.163500
      14328.00        96.9546         4.6876         2.6713       0.156300
      14328.50        95.6895         4.8803         2.6778       0.150400
      14329.00        90.3602         5.1942         2.6728       0.151500
      14329.50        91.2101         5.2238         2.6598       0.155400
      14330.00        91.0566         5.2458         2.6446       0.156900
      14330.50        90.1076         5.2798         2.6333       0.150700
      14331.00        89.4336         5.4507         2.6248       0.140700
      14331.50        83.4479         5.7330         2.6214       0.135400
      14332.00        79.6091         5.9656         2.6277       0.134100
      14332.50        77.8963         6.1394         2.6287       0.132900
      14333.00        74.3309         6.2962         2.6205       0.131700
      14333.50        74.8336         6.3675         2.6138       0.131400
      14334.00        76.0203         6.4357         2.6101       0.132200
      14334.50        77.6094         6.4344         2.6059       0.134600
      14335.00        79.8463         6.3730         2.6072       0.137400
      14335.50        81.1439         6.2910         2.6127       0.139000
      14336.00        81.0442         6.2343         2.6128       0.140800
      14336.50        84.9622         6.1815         2.6094       0.142000
      14337.00        83.9036         6.0883         2.6078       0.143100
      14337.50        83.8973         5.9787         2.6133       0.146000
      14338.00        85.1916         5.8977         2.6200       0.151200
      14338.50        88.0913         5.8257         2.6244       0.157400
      14339.00        91.7248         5.5759         2.6290       0.161600
      14339.50        92.7172         5.3953         2.6294       0.162400
      14340.00        92.7523         5.2952         2.6290       0.162900
      14340.50        95.9676         5.2052         2.6352       0.165300
      14341.00        97.2470         5.0603         2.6422       0.167200
      14341.50        98.3986         4.9108         2.6449       0.167900
      14342.00        99.2727         4.7993         2.6442       0.171200
      14342.50       101.5102         4.7596         2.6440       0.175500
      14343.00       102.7328         4.6642         2.6480       0.175400
      14343.50       100.9191         4.6062         2.6601       0.172200
      14344.00        99.9096         4.5752         2.6726       0.170000
      14344.50        99.2449         4.6463         2.6758       0.167300
      14345.00        98.8977         4.7327         2.6702       0.161700
      14345.50        96.5816         4.9267         2.6640       0.154500
      14346.00        91.6703         5.0853         2.6641       0.147100
      14346.50        90.4973         5.2796         2.6613       0.138100
      14347.00        88.5425         5.4758         2.6512       0.131300
      14347.50        88.2284         5.6622         2.6421       0.128100
      14348.00        84.7999         5.7931         2.6390       0.125900
      14348.50        83.6003         5.9892         2.6413       0.123500
      14349.00        81.5398         6.1493         2.6449       0.121300
      14349.50        76.4919         6.2353         2.6462       0.118700
      14350.00        77.5266         6.3422         2.6441       0.115500
      14350.50        77.4309         6.4216         2.6423       0.111800
      14351.00        71.4959         6.6141         2.6479       0.107000
      14351.50        66.9174         6.7913         2.6551       0.102700
      14352.00        62.9283         6.9343         2.6534       0.101600
      14352.50        62.1933         7.1003         2.6449       0.104900
      14353.00        63.0908         7.1390         2.6373       0.110600
