~Version Information Block
VERS .                  2.0:  CWLS LOG ASCII STANDARD - VERSION 2.0
WRAP .                   NO:  One line per depth step
~Well Information Block
#MNEM.UNIT        Data Type   Information
#---------- ----------------  -----------
STRT .FT            3811.50:  START DEPTH
STOP .FT            9515.50:  STOP DEPTH
STEP .FT               0.50:  STEP
NULL .              -999.25:  NULL VALUE
COMP .                     :  COMPANY
WELL .                STA-6:  WELL
FLD  .                     :  FIELD
LOC  .                     :  LOCATION
CTRY .                     :  COUNTRY
STAT .                     :  STATE
CNTY .                     :  COUNTY
SRVC .                     :  SERVICE COMPANY
DATE .                     :  DATE
API  .                     :  API NUMBER
UWI  .                     :  UNIQUE WELL ID
~Curve Information Block
#MNEM.UNIT         API CODE   Curve Description
#---------- ----------------  -----------------
DEPTH.FT                   :  DEPTH
GR   .GAPI                 :  Gamma Ray
RT   .OHMM                 :  Deep resistivity
RHOB .G/C3                 :  Bulk Density
NPHI .V/V                  :  Neutron porosity
DT   .US/F                 :  Sonic
~Parameter Information Block
#MNEM.UNIT            Value   Description
#---------- ----------------  -----------
PROJECT.            SANTAN_FE:  
~Other Information Block
# 
~A       DEPTH             GR             RT           RHOB           NPHI             DT 
# ...
       7994.50        87.1100         2.6500         2.4200       0.220000        98.1000
       7995.00        78.5900         3.7700         2.3700       0.210000        96.4000
       7995.50        78.7500         3.6200         2.3400       0.210000        95.5000
       7996.00        88.8500         4.0400         2.3500       0.220000        96.8000
       7996.50        92.7900         3.8600         2.3500       0.220000        96.7000
       7997.00       106.6000         3.6800         2.3700       0.230000        96.0500
       7997.50       122.3400         3.4000         2.3900       0.260000        96.9500
       7998.00       132.7100         3.0300         2.4000       0.290000        98.7000
       7998.50       137.9800         2.2900         2.4200       0.310000       101.8500
       7999.00       142.5500         1.8900         2.4400       0.300000       103.3500
       7999.50       147.2300         2.1300         2.4600       0.290000       102.2000
       8000.00       145.2700         2.4400         2.4500       0.280000        98.8000
       8000.50       132.2500         2.5200         2.4600       0.270000        97.3000
       8001.00       127.7200         2.3300         2.4700       0.280000        97.0000
       8001.50       127.7400         1.9800         2.4600       0.290000        98.8500
       8002.00       131.4600         2.1400         2.4200       0.310000       100.9000
       8002.50       130.4400         2.1300         2.4000       0.320000       102.1500
       8003.00       120.6500         2.1200         2.4100       0.310000       100.6000
       8003.50       112.0500         2.2800         2.4300       0.270000        94.6000
       8004.00       103.0500         2.9000         2.4300       0.240000        84.7500
       8004.50        96.5000         3.3500         2.4100       0.240000        89.7500
       8005.00        91.3100         3.2300         2.4100       0.240000        89.2500
       8005.50        83.3800         3.3200         2.4300       0.240000        89.7500
       8006.00        82.9000         3.4600         2.4400       0.220000        89.2000
       8006.50        84.6600         3.2700         2.4400       0.220000        89.6000
       8007.00        87.2100         3.3700         2.4400       0.230000        88.6000
       8007.50        85.3100         3.4800         2.4500       0.220000        88.0000
       8008.00        82.4400         3.4500         2.4700       0.220000        87.6500
       8008.50        83.6300         3.3700         2.4500       0.210000        88.3500
       8009.00        84.3400         3.2800         2.4400       0.200000        88.4000
       8009.50        84.6000         3.0800         2.4400       0.220000        89.9000
       8010.00        90.0600         2.9000         2.4500       0.240000        90.3000
       8010.50        86.4700         2.8200         2.4400       0.250000        91.1500
       8011.00        88.0000         2.9700         2.4400       0.240000        91.2000
       8011.50        82.0700         3.0000         2.4200       0.220000        90.4000
       8012.00        87.3100         3.1000         2.4100       0.220000        89.2000
       8012.50        83.2800         3.0400         2.3900       0.230000        88.4500
       8013.00        77.6500         3.1400         2.3900       0.240000        89.4000
       8013.50        69.6400         3.1700         2.3800       0.230000        89.7000
       8014.00        64.0000         3.0700         2.3600       0.220000        90.6500
       8014.50        64.5600         2.9000         2.3400       0.210000        91.9500
       8015.00        61.1300         2.6800         2.3400       0.220000        92.5000
       8015.50        62.0200         2.4200         2.3300       0.220000        93.6500
       8016.00        61.8800         2.2900         2.3500       0.240000        94.1500
       8016.50        69.9300         2.1600         2.3800       0.260000        94.6000
       8017.00        86.0000         2.1100         2.4000       0.270000        96.8000
       8017.50       104.8900         1.9200         2.4100       0.290000        99.7500
       8018.00       125.9800         1.7700         2.4300       0.280000       101.8000
       8018.50       134.5600         1.7600         2.4300       0.310000       104.1500
       8019.00       136.6400         1.9100         2.4200       0.320000       104.9000
       8019.50       132.7800         2.0400         2.4200       0.330000       103.5500
       8020.00       129.8500         2.3200         2.4300       0.340000       101.4000
       8020.50       126.5600         2.3200         2.4500       0.300000        99.2000
       8021.00       120.3300         2.1400         2.4400       0.280000        95.6000
       8021.50       112.3300         2.3300         2.4500       0.240000        92.8000
       8022.00       108.7200         2.5500         2.4500       0.240000        91.9000
       8022.50       106.3400         2.7400         2.4500       0.240000        91.9000
       8023.00       105.0300         2.5500         2.4800       0.250000        93.0000
       8023.50        99.2900         2.5700         2.4800       0.260000        94.3000
       8024.00       102.4000         2.7200         2.4800       0.250000        95.1000
       8024.50       112.3800         2.4900         2.5000       0.270000        95.2000
       8025.00       123.2200         2.5000         2.4900       0.280000        95.8000
       8025.50       126.5700         2.3400         2.4900       0.300000        97.6500
       8026.00       126.0200         2.0700         2.4800       0.310000        97.4000
       8026.50       126.6300         1.8600         2.5100       0.290000        98.7000
       8027.00       126.5500         1.8200         2.5300       0.290000       100.4500
       8027.50       122.8200         1.8200         2.5000       0.290000        98.9500
       8028.00       115.3300         1.9300         2.4700       0.290000        97.6000
       8028.50       108.5300         2.4200         2.4500       0.290000        95.3000
       8029.00        97.4800         2.3300         2.4900       0.300000        86.4000
       8029.50        75.8000         3.3200         2.5600       0.290000        76.0500
       8030.00        52.3700         8.2400         2.6700       0.230000        65.4000
       8030.50        33.3900        17.0100         2.6700       0.160000        61.6000
       8031.00        28.6300        26.5600         2.5900       0.140000        68.1000
       8031.50        30.2800        18.2800         2.5700       0.150000        62.4000
       8032.00        32.0600        14.4200         2.5600       0.150000        64.0000
       8032.50        41.0900        11.5300         2.6000       0.120000        63.7000
       8033.00        49.5300        10.8100         2.6100       0.110000        61.6000
       8033.50        58.4200        15.8400         2.5900       0.090000        62.4500
       8034.00        66.0100        17.7200         2.4600       0.100000        65.3000
       8034.50        74.5100        14.0800         2.3700       0.140000        63.6000
       8035.00        84.7700        11.2600         2.3600       0.160000        65.1000
       8035.50        85.3300        12.0600         2.5000       0.150000        70.2000
       8036.00        80.8400        12.2300         2.6100       0.120000        67.1000
       8036.50        77.4000         5.8200         2.5800       0.140000        66.7500
       8037.00        73.1100         4.9300         2.5900       0.150000        67.7500
       8037.50        63.4300         6.6100         2.5700       0.150000        69.6000
       8038.00        50.5400         9.7800         2.5800       0.140000        63.8000
       8038.50        47.9000         8.4700         2.5300       0.160000        65.8500
