~Version Information Block
VERS .                  2.0:  CWLS LOG ASCII STANDARD - VERSION 2.0
WRAP .                   NO:  One line per depth step
~Well Information Block
#MNEM.UNIT        Data Type   Information
#---------- ----------------  -----------
STRT .FT             224.00:  START DEPTH
STOP .FT            7977.50:  STOP DEPTH
STEP .FT               0.50:  STEP
NULL .              -999.25:  NULL VALUE
COMP .                     :  COMPANY
WELL .               STA-22:  WELL
FLD  .                     :  FIELD
LOC  .                     :  LOCATION
CTRY .                     :  COUNTRY
STAT .                     :  STATE
CNTY .                     :  COUNTY
SRVC .                     :  SERVICE COMPANY
DATE .                     :  DATE
API  .                     :  API NUMBER
UWI  .                     :  UNIQUE WELL ID
~Curve Information Block
#MNEM.UNIT         API CODE   Curve Description
#---------- ----------------  -----------------
DEPTH.FT                   :  DEPTH
GR   .GAPI                 :  Gamma Ray
RT   .OHMM                 :  RESDE
RHOB .G/C3                 :  Bulk Density
NPHI .V/V                  :  Thermal Neutron Porosity (Ratio Method) in Selected Lithology
~Parameter Information Block
#MNEM.UNIT            Value   Description
#---------- ----------------  -----------
PROJECT.            SANTAN_FE:  
~Other Information Block
# 
~A       DEPTH             GR             RT           RHOB           NPHI 
# ...
       4290.00        41.3400         2.5731         2.2760       0.342000
       4290.50        45.2900         2.4397         2.2959       0.361700
       4291.00        47.9200         2.2762         2.2921       0.356800
       4291.50        50.0500         1.9712         2.2900       0.351000
       4292.00        50.3500         1.8313         2.2900       0.350000
       4292.50        50.9100         1.8016         2.2822       0.379000
       4293.00        49.7900         1.8284         2.2722       0.431100
       4293.50        49.4100         1.8981         2.2778       0.467400
       4294.00        48.9200         1.8800         2.2877       0.467800
       4294.50        48.5400         1.7893         2.2746       0.445400
       4295.00        48.0600         1.7580         2.2394       0.432200
       4295.50        48.2200         1.7192         2.2148       0.424900
       4296.00        48.9800         1.7080         2.2176       0.425800
       4296.50        50.5400         1.6825         2.2351       0.443800
       4297.00        52.2500         1.6270         2.2325       0.462000
       4297.50        54.1300         1.6029         2.2300       0.469000
       4298.00        58.7000         1.5680         2.2225       0.442800
       4298.50        63.5700         1.5532         2.2348       0.407400
       4299.00        70.4500         1.5098         2.2326       0.379200
       4299.50        77.4000         1.4389         2.2373       0.384400
       4300.00        83.8100         1.3857         2.2327       0.400000
       4300.50        89.7700         1.3168         2.2300       0.401200
       4301.00        93.8000         1.2865         2.2228       0.400000
       4301.50        95.6600         1.2724         2.2056       0.430300
       4302.00        95.1500         1.2762         2.2072       0.491100
       4302.50        89.4600         1.3172         2.2314       0.502800
       4303.00        85.2600         1.3674         2.2471       0.444000
       4303.50        75.6200         1.4482         2.2712       0.392200
       4304.00        68.4000         1.6065         2.2870       0.393100
       4304.50        61.3300         1.7100         2.3319       0.429300
       4305.00        60.5800         1.6942         2.3222       0.448900
       4305.50        60.7600         1.6568         2.2961       0.423900
       4306.00        61.8700         1.5595         2.2693       0.407700
       4306.50        64.6400         1.4289         2.2463       0.404000
       4307.00        68.8500         1.4018         2.2264       0.436900
       4307.50        73.4400         1.4100         2.2200       0.461000
       4308.00        76.4400         1.4100         2.2402       0.542300
       4308.50        78.9500         1.4009         2.2567       0.548200
       4309.00        80.2100         1.4488         2.2532       0.507600
       4309.50        79.5800         1.5824         2.2363       0.453000
       4310.00        78.0200         1.7114         2.2300       0.443400
       4310.50        74.0600         1.9093         2.2440       0.440900
       4311.00        70.3500         2.0400         2.2783       0.405100
       4311.50        63.0800         2.1719         2.3257       0.361200
       4312.00        57.8900         2.4505         2.3184       0.328400
       4312.50        51.0600         2.5400         2.2736       0.346800
       4313.00        46.1800         2.5434         2.2232       0.382400
       4313.50        40.5900         2.5887         2.2100       0.402500
       4314.00        36.3800         2.8634         2.2400       0.377200
       4314.50        33.8600         2.9403         2.3031       0.343000
       4315.00        32.6700         2.8353         2.3506       0.333200
       4315.50        33.7400         2.6218         2.3523       0.348100
       4316.00        35.5600         2.5008         2.3032       0.391300
       4316.50        36.7500         2.3787         2.2743       0.414800
       4317.00        37.6800         2.2833         2.2382       0.468100
       4317.50        38.9400         2.1501         2.2380       0.519900
       4318.00        40.4300         2.1443         2.2157       0.541600
       4318.50        42.8200         1.9828         2.2182       0.497900
       4319.00        44.7500         1.8782         2.2282       0.410400
       4319.50        46.4500         1.7685         2.2134       0.389100
       4320.00        47.6800         1.7000         2.1932       0.400900
       4320.50        49.1500         1.6914         2.1731       0.457400
       4321.00        50.0600         1.6575         2.1700       0.488900
       4321.50        52.2100         1.6471         2.1872       0.516400
       4322.00        53.4500         1.6303         2.1813       0.513300
       4322.50        55.6900         1.6100         2.1888       0.496600
       4323.00        56.0900         1.6298         2.1635       0.510100
       4323.50        55.7800         1.6686         2.1956       0.522200
       4324.00        55.0300         1.6519         2.1731       0.532100
       4324.50        54.2500         1.6200         2.1519       0.493600
       4325.00        54.7700         1.5768         2.1135       0.489200
       4325.50        54.0400         1.5342         2.1008       0.482700
       4326.00        53.3900         1.5300         2.1000       0.517000
       4326.50        51.4100         1.4911         2.0720       0.491600
       4327.00        49.0000         1.4700         2.0700       0.517800
       4327.50        46.4800         1.4484         2.0890       0.519900
       4328.00        44.5300         1.4324         2.0996       0.520000
       4328.50        44.2500         1.4221         2.1000       0.502700
       4329.00        43.2300         1.4200         2.0806       0.525400
       4329.50        42.3200         1.4286         2.0800       0.546400
       4330.00        41.3900         1.4300         2.0898       0.550000
       4330.50        41.6000         1.4581         2.0404       0.534400
       4331.00        41.3100         1.5281         2.0700       0.515100
       4331.50        40.3600         1.5296         2.0694       0.509900
       4332.00        39.6600         1.4896         1.9911       0.503200
       4332.50        39.0600         1.4784         2.0700       0.506700
       4333.00        39.2300         1.4588         2.0703       0.510600
       4333.50        40.7400         1.4439         2.0807       0.522400
       4334.00        43.6200         1.4081         2.1009       0.530000
       4334.50        47.8400         1.4000         2.1210       0.528900
       4335.00        50.3800         1.4052         2.1406       0.513400
       4335.50        52.2000         1.4289         2.1507       0.500400
       4336.00        52.8200         1.4600         2.1607       0.504700
       4336.50        51.5200         1.5132         2.1732       0.502200
       4337.00        49.9900         1.5862         2.2126       0.467000
       4337.50        46.9100         1.6276         2.2410       0.424700
       4338.00        45.9400         1.6738         2.2500       0.412300
       4338.50        45.4600         1.7154         2.2489       0.408500
       4339.00        46.6900         1.7409         2.2423       0.424000
       4339.50        48.1500         1.7555         2.2588       0.430000
       4340.00        50.8700         1.7326         2.2513       0.429200
       4340.50        54.8200         1.6773         2.2572       0.424100
       4341.00        61.7600         1.6176         2.2400       0.426000
       4341.50        69.4400         1.5739         2.2385       0.460900
       4342.00        76.6400         1.5653         2.2332       0.479600
       4342.50        81.7100         1.5594         2.2500       0.476100
       4343.00        86.1400         1.4976         2.2465       0.466500
