~Version Information Block
VERS .                  2.0:  CWLS LOG ASCII STANDARD - VERSION 2.0
WRAP .                   NO:  One line per depth step
~Well Information Block
#MNEM.UNIT        Data Type   Information
#---------- ----------------  -----------
STRT .FT            5224.50:  START DEPTH
STOP .FT           13237.50:  STOP DEPTH
STEP .FT               0.50:  STEP
NULL .              -999.25:  NULL VALUE
COMP .                     :  COMPANY
WELL .               STA-32:  WELL
FLD  .                     :  FIELD
LOC  .                     :  LOCATION
CTRY .                     :  COUNTRY
STAT .                     :  STATE
CNTY .                     :  COUNTY
SRVC .                     :  SERVICE COMPANY
DATE .                     :  DATE
API  .                     :  API NUMBER
UWI  .                     :  UNIQUE WELL ID
~Curve Information Block
#MNEM.UNIT         API CODE   Curve Description
#---------- ----------------  -----------------
DEPTH.FT                   :  Depth
GR   .GAPI                 :  Gamma Ray
RT   .OHMM                 :  True Resistivity
RHOB .G/C3                 :  Bulk Density
NPHI .V/V                  :  Neutron Porosity
~Parameter Information Block
#MNEM.UNIT            Value   Description
#---------- ----------------  -----------
PROJECT.            SANTAN_FE:  
~Other Information Block
# 
~A       DEPTH             GR             RT           RHOB           NPHI 
# ...
      11591.00       106.3996         1.9387         2.5865       0.243200
      11591.50       103.5858         1.9906         2.5834       0.229000
      11592.00        97.3091         2.1616         2.5738       0.209200
      11592.50        92.2285         2.4175         2.5738       0.185400
      11593.00        83.2433         2.7548         2.5776       0.165500
      11593.50        70.2467         3.2087         2.5783       0.148100
      11594.00        68.4709         3.5196         2.5800       0.139800
      11594.50        61.3875         3.6347         2.5828       0.140100
      11595.00        56.9234         3.5811         2.5716       0.143200
      11595.50        55.6667         3.4481         2.5373       0.148300
      11596.00        57.0833         3.3890         2.4898       0.160600
      11596.50        56.4202         3.3002         2.4461       0.173600
      11597.00        55.6002         2.9721         2.4164       0.176800
      11597.50        57.7938         2.8902         2.3961       0.173800
      11598.00        55.2691         2.9422         2.3927       0.171500
      11598.50        59.5655         2.9863         2.4306       0.166900
      11599.00        70.9066         3.0158         2.4964       0.157500
      11599.50        72.7617         3.0584         2.5439       0.151300
      11600.00        81.0854         3.0554         2.5608       0.152000
      11600.50        82.6497         3.0295         2.5651       0.157200
      11601.00        85.4133         2.9680         2.5701       0.163900
      11601.50        80.1011         2.9031         2.5744       0.169000
      11602.00        82.8255         2.8185         2.5742       0.171500
      11602.50        85.8610         2.7394         2.5738       0.174100
      11603.00        85.8732         2.7099         2.5791       0.178400
      11603.50        90.6287         2.6719         2.5869       0.185900
      11604.00        91.2117         2.5856         2.5849       0.194000
      11604.50        94.5055         2.5498         2.5679       0.196600
      11605.00        93.8894         2.5241         2.5605       0.189300
      11605.50        85.9947         2.5672         2.5629       0.173100
      11606.00        72.8974         2.7100         2.5446       0.160300
      11606.50        63.9774         2.7510         2.5077       0.159500
      11607.00        71.5180         2.7296         2.4930       0.162000
      11607.50        73.0446         2.7688         2.4984       0.158100
      11608.00        55.3183         2.7470         2.4693       0.152300
      11608.50        38.2220         2.6819         2.4060       0.147700
      11609.00        34.9149         2.6390         2.3614       0.148100
      11609.50        40.2697         2.5316         2.3671       0.158900
      11610.00        55.9299         2.4725         2.4152       0.172800
      11610.50        68.2536         2.4889         2.4614       0.176800
      11611.00        66.2568         2.4668         2.4623       0.173500
      11611.50        61.6910         2.4130         2.4298       0.173100
      11612.00        67.8777         2.4488         2.4409       0.177300
      11612.50        79.0768         2.4812         2.5107       0.182300
      11613.00        85.2385         2.4704         2.5612       0.183200
      11613.50        84.3391         2.4241         2.5583       0.176100
      11614.00        78.1853         2.4792         2.5273       0.167400
      11614.50        59.1046         2.5735         2.4901       0.160600
      11615.00        57.6554         2.7637         2.4668       0.146600
      11615.50        54.3096         3.1607         2.4851       0.129500
      11616.00        45.3948         3.2581         2.5226       0.126300
      11616.50        46.6978         2.9676         2.5292       0.140400
      11617.00        52.8516         2.7655         2.5041       0.157700
      11617.50        60.7965         2.6660         2.4872       0.167800
      11618.00        68.2631         2.5469         2.5003       0.170800
      11618.50        58.3848         2.3743         2.5050       0.168500
      11619.00        37.7726         2.0168         2.4525       0.165100
      11619.50        25.6579         1.6965         2.3592       0.162600
      11620.00        23.8089         1.6440         2.3004       0.162400
      11620.50        22.6871         1.5593         2.3009       0.165300
      11621.00        24.8918         1.5135         2.3103       0.167700
      11621.50        27.5185         1.6120         2.3133       0.168000
      11622.00        35.0361         1.7408         2.3372       0.168600
      11622.50        51.2081         1.8234         2.3918       0.167200
      11623.00        63.9890         2.5103         2.4653       0.163000
      11623.50        67.7634         2.9659         2.5197       0.156900
      11624.00        61.8956         3.1808         2.5281       0.147500
      11624.50        59.1799         3.2539         2.5136       0.139000
      11625.00        53.4874         3.2348         2.5069       0.138500
      11625.50        48.0975         3.2415         2.5061       0.146600
      11626.00        49.2255         3.1258         2.5039       0.160500
      11626.50        61.0946         2.9480         2.5030       0.175600
      11627.00        71.7855         2.9082         2.5030       0.185000
      11627.50        78.6159         2.8651         2.5073       0.186100
      11628.00        81.8707         2.8931         2.5152       0.179700
      11628.50        79.7039         2.9039         2.5197       0.171700
      11629.00        80.4459         2.8635         2.5268       0.171300
      11629.50        84.0887         2.8147         2.5474       0.175700
      11630.00        86.4319         2.7551         2.5722       0.177700
      11630.50        88.5948         2.7161         2.5806       0.182900
      11631.00        89.1959         2.6230         2.5757       0.188700
      11631.50        94.2261         2.5403         2.5723       0.193600
      11632.00        95.9059         2.5129         2.5723       0.198400
      11632.50        95.8171         2.5269         2.5727       0.199900
      11633.00        93.5593         2.5627         2.5758       0.197400
      11633.50        93.1657         2.5118         2.5776       0.198300
      11634.00        96.9742         2.4372         2.5736       0.203400
      11634.50        99.6896         2.4172         2.5670       0.209900
      11635.00        98.7715         2.4336         2.5636       0.215200
      11635.50        98.6424         2.4994         2.5686       0.212800
      11636.00        95.3867         2.6725         2.5810       0.198500
      11636.50        87.6291         2.9848         2.5980       0.180400
      11637.00        79.8962         3.3127         2.6115       0.160700
      11637.50        69.5654         3.6078         2.6061       0.140800
      11638.00        61.7911         3.6474         2.5821       0.135300
      11638.50        54.8119         3.4782         2.5393       0.147400
      11639.00        54.0556         3.2199         2.4754       0.159600
      11639.50        60.5623         3.1675         2.4426       0.167500
      11640.00        67.1932         3.2470         2.4550       0.171100
      11640.50        65.0114         3.3401         2.4808       0.165200
      11641.00        59.8724         3.4683         2.5074       0.149100
      11641.50        58.0849         3.7262         2.5288       0.138000
      11642.00        59.6042         3.7984         2.5423       0.140300
      11642.50        65.4793         3.6477         2.5433       0.152000
      11643.00        75.0203         3.4089         2.5312       0.161500
      11643.50        76.8629         3.3036         2.5283       0.164300
      11644.00        80.8024         3.2948         2.5446       0.164100
