~Version Information Block
VERS .                  2.0:  CWLS LOG ASCII STANDARD - VERSION 2.0
WRAP .                   NO:  One line per depth step
~Well Information Block
#MNEM.UNIT        Data Type   Information
#---------- ----------------  -----------
STRT .FT             780.00:  START DEPTH
STOP .FT            8996.00:  STOP DEPTH
STEP .FT               0.50:  STEP
NULL .              -999.25:  NULL VALUE
COMP .                     :  COMPANY
WELL .                STA-4:  WELL
FLD  .                     :  FIELD
LOC  .                     :  LOCATION
CTRY .                     :  COUNTRY
STAT .                     :  STATE
CNTY .                     :  COUNTY
SRVC .                     :  SERVICE COMPANY
DATE .                     :  DATE
API  .                     :  API NUMBER
UWI  .                     :  UNIQUE WELL ID
~Curve Information Block
#MNEM.UNIT         API CODE   Curve Description
#---------- ----------------  -----------------
DEPTH.FT                   :  DEPTH
GR   .GAPI                 :  Gamma Ray
RT   .OHMM                 :  SEDP
RHOB .G/C3                 :  Bulk Density
NPHI .V/V                  :  Neutron porosity
~Parameter Information Block
#MNEM.UNIT            Value   Description
#---------- ----------------  -----------
PROJECT.            SANTAN_FE:  
~Other Information Block
# 
~A       DEPTH             GR             RT           RHOB           NPHI 
# ...
       4043.50        86.4900         1.6500         2.1800       0.521200
       4044.00        90.1100         1.6900         2.1800       0.529800
       4044.50        88.5300         1.8200         2.1800       0.542300
       4045.00        96.0100         1.6400         2.1900       0.568000
       4045.50       101.6800         1.5600         2.1900       0.573700
       4046.00       104.2100         1.5500         2.1900       0.567000
       4046.50        95.8600         1.5400         2.1900       0.563400
       4047.00        92.4700         1.5200         2.1900       0.563900
       4047.50        97.0500         1.5200         2.1800       0.555400
       4048.00        97.0400         1.5600         2.1800       0.541000
       4048.50        94.2800         1.6100         2.1700       0.533500
       4049.00        90.6200         1.6400         2.1700       0.525400
       4049.50        69.4200         1.6100         2.1700       0.497100
       4050.00        68.3500         1.6200         2.1700       0.479600
       4050.50        72.1000         1.6100         2.1800       0.461800
       4051.00        68.8600         1.6000         2.1800       0.427600
       4051.50        56.3500         1.6100         2.1800       0.409200
       4052.00        56.1200         1.6400         2.1800       0.396000
       4052.50        49.5000         1.5900         2.1800       0.386600
       4053.00        47.7200         1.5800         2.1700       0.373500
       4053.50        45.7000         1.5700         2.1500       0.367100
       4054.00        45.9900         1.5200         2.1600       0.364000
       4054.50        51.2400         1.4500         2.1600       0.356700
       4055.00        51.3000         1.4300         2.1500       0.337300
       4055.50        46.9200         1.3500         2.1200       0.329100
       4056.00        46.1600         1.2300         2.0800       0.332000
       4056.50        44.3300         1.2100         2.0500       0.342900
       4057.00        40.7200         1.2800         1.9800       0.372500
       4057.50        38.7700         1.3600         1.9400       0.385000
       4058.00        38.8600         1.4000         1.9500       0.391700
       4058.50        40.2600         1.3100         1.9700       0.392700
       4059.00        40.8000         1.2700         1.9900       0.386600
       4059.50        42.8100         1.2600         2.0200       0.384300
       4060.00        47.4100         1.3000         2.0500       0.384200
       4060.50        47.6000         1.3500         2.1000       0.383000
       4061.00        53.0500         1.3600         2.1300       0.387900
       4061.50        60.7100         1.3700         2.1400       0.402400
       4062.00        62.8800         1.3800         2.1500       0.413700
       4062.50        64.3600         1.4000         2.1500       0.427600
       4063.00        65.9200         1.4000         2.1500       0.446400
       4063.50        67.1500         1.4200         2.1500       0.477300
       4064.00        68.6400         1.4500         2.1500       0.491200
       4064.50        70.7900         1.4800         2.1600       0.492700
       4065.00        71.0700         1.5000         2.1700       0.493400
       4065.50        79.6700         1.5300         2.1700       0.501400
       4066.00        81.1800         1.5600         2.1700       0.511500
       4066.50        80.1300         1.5800         2.1700       0.524000
       4067.00        75.8300         1.5900         2.1800       0.539300
       4067.50        81.7500         1.5700         2.1800       0.542000
       4068.00        76.8300         1.5500         2.1800       0.533400
       4068.50        74.0000         1.5400         2.1800       0.532400
       4069.00        75.3000         1.5500         2.1800       0.537200
       4069.50        78.6200         1.5500         2.1800       0.538400
       4070.00        79.3900         1.5400         2.1700       0.527900
       4070.50        83.8400         1.5400         2.1600       0.521000
       4071.00        87.8300         1.5500         2.1600       0.523900
       4071.50        91.5200         1.5600         2.1700       0.534400
       4072.00        86.7300         1.5900         2.1700       0.542400
       4072.50        82.5000         1.6400         2.1600       0.548000
       4073.00        85.7100         1.6200         2.1700       0.547400
       4073.50        89.5300         1.5800         2.1700       0.524500
       4074.00        80.1100         1.5900         2.1700       0.507600
       4074.50        78.7900         1.6400         2.2000       0.489400
       4075.00        83.3100         1.6100         2.2000       0.463600
       4075.50        87.6200         1.5600         2.2100       0.433300
       4076.00        87.5800         1.5300         2.2100       0.420600
       4076.50        84.8800         1.5300         2.2200       0.424300
       4077.00        90.7500         1.5300         2.2300       0.433800
       4077.50        92.8500         1.5300         2.2400       0.445200
       4078.00        87.7600         1.5200         2.2400       0.468600
       4078.50        79.9000         1.5300         2.2400       0.485600
       4079.00        79.0000         1.5400         2.2400       0.500500
       4079.50        81.6300         1.5600         2.2400       0.510900
       4080.00        84.2000         1.5800         2.2300       0.511400
       4080.50        81.0700         1.5800         2.2300       0.501000
       4081.00        76.6800         1.5900         2.2200       0.480400
       4081.50        62.4400         1.6200         2.2000       0.458500
       4082.00        58.1900         1.6500         2.1800       0.445800
       4082.50        56.6000         1.6800         2.1700       0.430600
       4083.00        55.4400         1.6800         2.1600       0.425300
       4083.50        53.8000         1.6300         2.1500       0.428700
       4084.00        54.0100         1.5600         2.1500       0.437200
       4084.50        58.5200         1.5300         2.1600       0.441000
       4085.00        61.0500         1.5300         2.1600       0.442600
       4085.50        61.1600         1.5400         2.1600       0.440300
       4086.00        63.8300         1.5600         2.1600       0.441400
       4086.50        65.1500         1.5700         2.1700       0.441600
       4087.00        64.2600         1.5700         2.1600       0.441700
       4087.50        67.5000         1.6200         2.1500       0.440800
       4088.00        76.2000         1.6900         2.1900       0.437000
       4088.50        74.8900         1.6600         2.2100       0.433100
       4089.00        73.0200         1.6100         2.2100       0.434200
       4089.50        73.3800         1.6100         2.2100       0.437900
       4090.00        72.8800         1.6000         2.2200       0.441600
       4090.50        73.0100         1.5700         2.2200       0.439800
       4091.00        60.6300         1.5800         2.2200       0.433700
       4091.50        56.3100         1.5800         2.2100       0.427800
       4092.00        54.7600         1.5500         2.2000       0.427500
       4092.50        51.0200         1.5000         2.1900       0.424700
       4093.00        45.9800         1.4800         2.1900       0.421900
       4093.50        54.8800         1.4700         2.1900       0.419700
       4094.00        52.3600         1.4000         2.1800       0.416700
       4094.50        46.7100         1.3200         2.1300       0.409000
       4095.00        47.1000         1.2200         2.1200       0.406000
       4095.50        49.9500         1.1500         2.1100       0.401300
       4096.00        46.7400         1.1200         2.1000       0.396000
       4096.50        39.6700         1.1100         2.0800       0.395300
