~Version Information Block
VERS .                  2.0:  CWLS LOG ASCII STANDARD - VERSION 2.0
WRAP .                   NO:  One line per depth step
~Well Information Block
#MNEM.UNIT        Data Type   Information
#---------- ----------------  -----------
STRT .FT             750.00:  START DEPTH
STOP .FT            8283.50:  STOP DEPTH
STEP .FT               0.50:  STEP
NULL .              -999.25:  NULL VALUE
COMP .                     :  COMPANY
WELL .               STA-20:  WELL
FLD  .                     :  FIELD
LOC  .                     :  LOCATION
CTRY .                     :  COUNTRY
STAT .                     :  STATE
CNTY .                     :  COUNTY
SRVC .                     :  SERVICE COMPANY
DATE .                     :  DATE
API  .                     :  API NUMBER
UWI  .                     :  UNIQUE WELL ID
~Curve Information Block
#MNEM.UNIT         API CODE   Curve Description
#---------- ----------------  -----------------
DEPTH.FT                   :  DEPTH
GR   .GAPI                 :  Gamma Ray
RT   .OHMM                 :  RESDE
RHOB .G/C3                 :  Bulk Density
NPHI .V/V                  :  Thermal Neutron Porosity (Ratio Method) in Selected Lithology
~Parameter Information Block
#MNEM.UNIT            Value   Description
#---------- ----------------  -----------
PROJECT.            SANTAN_FE:  
~Other Information Block
# 
~A       DEPTH             GR             RT           RHOB           NPHI 
# ...
       3264.50        80.7725         0.9415         2.1876       0.474700
       3265.00        83.8075         0.9104         2.1913       0.481000
       3265.50        85.9800         0.9153         2.1972       0.490800
       3266.00        86.4650         0.9377         2.2040       0.504500
       3266.50        86.9225         0.9325         2.2094       0.520300
       3267.00        88.3550         0.9317         2.2164       0.538600
       3267.50        88.9575         0.9462         2.2171       0.554500
       3268.00        85.9825         1.0250         2.2113       0.551800
       3268.50        77.7725         1.1887         2.2052       0.530300
       3269.00        66.8150         1.3883         2.1872       0.493100
       3269.50        56.0600         1.5238         2.1689       0.450800
       3270.00        48.2250         1.5879         2.1548       0.417200
       3270.50        45.9975         1.6199         2.1475       0.401500
       3271.00        45.8550         1.6494         2.1476       0.405800
       3271.50        46.8250         1.7944         2.1526       0.434100
       3272.00        46.3650         1.9991         2.1795       0.469700
       3272.50        45.1050         2.2064         2.2252       0.484800
       3273.00        44.6725         2.4345         2.2686       0.470600
       3273.50        43.2700         2.4837         2.2959       0.437900
       3274.00        41.1175         2.3712         2.3114       0.414800
       3274.50        37.4600         2.2556         2.3248       0.397800
       3275.00        34.6925         2.2271         2.3337       0.384100
       3275.50        32.8400         2.1367         2.3392       0.372400
       3276.00        31.8950         2.1826         2.3576       0.363100
       3276.50        31.1200         2.3720         2.3938       0.360100
       3277.00        31.5775         2.8296         2.4083       0.360400
       3277.50        33.2950         2.9789         2.3953       0.363600
       3278.00        35.0975         2.7469         2.3622       0.372100
       3278.50        37.4425         2.4188         2.3289       0.384700
       3279.00        40.6725         2.2464         2.3014       0.396400
       3279.50        44.4625         2.1328         2.2739       0.398300
       3280.00        47.6975         1.9850         2.2475       0.393100
       3280.50        50.3425         1.9157         2.2289       0.392900
       3281.00        53.4150         1.8082         2.2256       0.401900
       3281.50        57.7625         1.6618         2.2303       0.418500
       3282.00        63.4275         1.5379         2.2417       0.435900
       3282.50        69.3075         1.4283         2.2481       0.442400
       3283.00        74.7550         1.3568         2.2494       0.441600
       3283.50        79.1850         1.3112         2.2464       0.438100
       3284.00        81.9725         1.2905         2.2425       0.435100
       3284.50        82.8475         1.2745         2.2425       0.435500
       3285.00        83.3775         1.2413         2.2419       0.440900
       3285.50        82.9500         1.1791         2.2383       0.447300
       3286.00        82.3775         1.1423         2.2325       0.444100
       3286.50        79.0875         1.2287         2.2351       0.432100
       3287.00        72.9525         1.3954         2.2462       0.418400
       3287.50        67.1750         1.4355         2.2550       0.408500
       3288.00        66.0750         1.3920         2.2504       0.413900
       3288.50        67.3200         1.3581         2.2385       0.428100
       3289.00        69.4375         1.3465         2.2314       0.441900
       3289.50        71.8825         1.3663         2.2312       0.450900
       3290.00        74.7700         1.4272         2.2325       0.452300
       3290.50        75.0275         1.4200         2.2325       0.451100
       3291.00        72.4225         1.4086         2.2311       0.443800
       3291.50        66.4175         1.4033         2.2315       0.425300
       3292.00        61.6425         1.5822         2.2390       0.400700
       3292.50        59.7550         1.6597         2.2442       0.386300
       3293.00        59.4675         1.6000         2.2486       0.385700
       3293.50        59.9525         1.5632         2.2406       0.388200
       3294.00        60.8950         1.5549         2.2296       0.381400
       3294.50        62.5250         1.5941         2.2234       0.376900
       3295.00        63.6425         1.5512         2.2225       0.394200
       3295.50        64.1575         1.5178         2.2225       0.422700
       3296.00        65.1000         1.4450         2.2202       0.441400
       3296.50        67.1025         1.3965         2.2200       0.449200
       3297.00        69.5900         1.3145         2.2200       0.458000
       3297.50        71.1050         1.2311         2.2227       0.468400
       3298.00        71.5050         1.2015         2.2280       0.456500
       3298.50        70.5625         1.2683         2.2360       0.408200
       3299.00        70.1350         1.3361         2.2460       0.369500
       3299.50        70.4225         1.3411         2.2534       0.365200
       3300.00        72.8400         1.3065         2.2580       0.387400
       3300.50        76.1300         1.2583         2.2588       0.434800
       3301.00        79.4050         1.1805         2.2522       0.497300
       3301.50        81.8200         1.1896         2.2442       0.548700
       3302.00        82.2775         1.2056         2.2460       0.562000
       3302.50        82.4775         1.2071         2.2583       0.534200
       3303.00        81.4050         1.2461         2.2717       0.482000
       3303.50        81.4050         1.2104         2.2775       0.440800
       3304.00        80.8600         1.1497         2.2726       0.436700
       3304.50        80.8050         1.1203         2.2609       0.461000
       3305.00        80.1775         1.1103         2.2522       0.488900
       3305.50        80.1500         1.1018         2.2500       0.498700
       3306.00        80.8075         1.0866         2.2484       0.502000
       3306.50        81.7800         1.0803         2.2442       0.506300
       3307.00        82.6375         1.1563         2.2390       0.509200
       3307.50        83.6650         1.1718         2.2338       0.510900
       3308.00        84.9650         1.1508         2.2306       0.512000
       3308.50        85.2225         1.1125         2.2320       0.511700
       3309.00        85.3375         1.0766         2.2367       0.503700
       3309.50        84.5800         1.0850         2.2397       0.489000
       3310.00        85.5375         1.0412         2.2423       0.486300
       3310.50        85.2525         0.9719         2.2472       0.506200
       3311.00        86.5825         0.9182         2.2500       0.556600
       3311.50        87.8700         0.9184         2.2500       0.591100
       3312.00        88.2125         1.0175         2.2499       0.591800
       3312.50        86.1525         1.1045         2.2468       0.538400
       3313.00        81.9350         1.0450         2.2391       0.504800
       3313.50        78.3050         1.0901         2.2317       0.497800
       3314.00        77.5750         1.2437         2.2265       0.497000
       3314.50        80.2175         1.2073         2.2213       0.480900
       3315.00        84.2775         1.0790         2.2162       0.460600
       3315.50        86.5250         1.0423         2.2118       0.451800
       3316.00        86.3250         1.0334         2.2117       0.453600
       3316.50        86.6550         0.9909         2.2196       0.465800
       3317.00        87.6825         1.0106         2.2326       0.484600
       3317.50        89.7375         1.0212         2.2400       0.496400
