~Version Information Block
VERS .                  2.0:  CWLS LOG ASCII STANDARD - VERSION 2.0
WRAP .                   NO:  One line per depth step
~Well Information Block
#MNEM.UNIT        Data Type   Information
#---------- ----------------  -----------
STRT .FT            6415.50:  START DEPTH
STOP .FT           16132.50:  STOP DEPTH
STEP .FT               0.50:  STEP
NULL .              -999.25:  NULL VALUE
COMP .                     :  COMPANY
WELL .               STA-33:  WELL
FLD  .                     :  FIELD
LOC  .                     :  LOCATION
CTRY .                     :  COUNTRY
STAT .                     :  STATE
CNTY .                     :  COUNTY
SRVC .                     :  SERVICE COMPANY
DATE .                     :  DATE
API  .                     :  API NUMBER
UWI  .                     :  UNIQUE WELL ID
~Curve Information Block
#MNEM.UNIT         API CODE   Curve Description
#---------- ----------------  -----------------
DEPTH.FT                   :  Depth
GR   .GAPI                 :  Gamma Ray
RT   .OHMM                 :  True Resistivity
RHOB .G/C3                 :  Bulk Density
NPHI .V/V                  :  Neutron Porosity
~Parameter Information Block
#MNEM.UNIT            Value   Description
#---------- ----------------  -----------
PROJECT.            SANTAN_FE:  
~Other Information Block
# 
~A       DEPTH             GR             RT           RHOB           NPHI 
       6415.50        40.5168         3.4483         2.0547       0.448800
       6416.00        44.1214         1.8759         2.1150       0.380900
       6416.50        48.9988         1.4466         2.1910       0.330500
       6417.00        50.9585         1.7101         2.2637       0.310700
       6417.50        54.7027         1.8583         2.3279       0.305400
       6418.00        55.9258         1.9259         2.3676       0.298100
       6418.50        56.6518         1.9577         2.3953       0.293800
       6419.00        59.7823         2.0024         2.4088       0.291600
       6419.50        60.3784         2.0195         2.4067       0.288100
       6420.00        60.4463         2.0173         2.4024       0.286500
       6420.50        62.2353         2.0204         2.3985       0.293400
       6421.00        63.8629         2.0254         2.3872       0.303300
       6421.50        62.5655         2.0258         2.3728       0.306200
       6422.00        58.0487         2.0313         2.3675       0.307800
       6422.50        58.5397         2.0485         2.3692       0.311300
       6423.00        57.9675         2.0609         2.3703       0.318300
       6423.50        63.2711         2.0610         2.3727       0.334100
       6424.00        65.7161         2.0547         2.3736       0.354000
       6424.50        65.6620         2.0368         2.3684       0.367000
       6425.00        67.5073         2.0151         2.3608       0.370400
       6425.50        68.3459         1.9740         2.3558       0.372500
       6426.00        70.6512         1.8970         2.3536       0.376600
       6426.50        69.1436         1.8469         2.3512       0.380000
       6427.00        70.9987         1.8125         2.3465       0.389100
       6427.50        69.4591         1.7658         2.3449       0.398500
       6428.00        70.6061         1.7156         2.3463       0.402200
       6428.50        76.9053         1.6805         2.3450       0.410200
       6429.00        77.3235         1.6678         2.3404       0.416400
       6429.50        77.0526         1.6603         2.3391       0.414100
       6430.00        78.3840         1.6376         2.3409       0.417600
       6430.50        76.4418         1.6045         2.3384       0.425000
       6431.00        77.1105         1.5868         2.3330       0.422200
       6431.50        77.7317         1.5843         2.3312       0.418300
       6432.00        76.0795         1.5886         2.3324       0.429200
       6432.50        81.2416         1.5826         2.3325       0.438500
       6433.00        79.9287         1.5780         2.3319       0.430900
       6433.50        82.6708         1.5636         2.3302       0.418800
       6434.00        88.0174         1.5595         2.3259       0.409800
       6434.50        85.4404         1.5497         2.3234       0.405400
       6435.00        82.8330         1.5596         2.3250       0.417400
       6435.50        82.7421         1.5840         2.3233       0.441900
       6436.00        81.6738         1.6281         2.3165       0.459000
       6436.50        78.1978         1.6700         2.3128       0.460900
       6437.00        81.9041         1.7045         2.3160       0.454400
       6437.50        81.1705         1.7100         2.3210       0.447300
       6438.00        84.1752         1.7305         2.3218       0.437500
       6438.50        84.5039         1.7415         2.3191       0.424700
       6439.00        87.5783         1.7317         2.3194       0.419900
       6439.50        86.0336         1.7131         2.3243       0.432500
       6440.00        85.6937         1.6969         2.3288       0.447300
       6440.50        85.5369         1.6943         2.3298       0.450600
       6441.00        85.1854         1.6817         2.3290       0.452800
       6441.50        88.3971         1.6919         2.3304       0.457900
       6442.00        86.1014         1.6918         2.3302       0.462700
       6442.50        87.7032         1.6837         2.3255       0.470100
       6443.00        84.3312         1.6619         2.3202       0.479300
       6443.50        85.9652         1.6313         2.3183       0.481200
       6444.00        81.5304         1.6063         2.3198       0.474400
       6444.50        85.5056         1.5742         2.3218       0.469100
       6445.00        84.3028         1.5644         2.3246       0.470300
       6445.50        84.3166         1.5639         2.3279       0.467900
       6446.00        83.2914         1.5717         2.3279       0.456600
       6446.50        80.4499         1.6149         2.3221       0.442400
       6447.00        74.2688         1.7467         2.3064       0.425000
       6447.50        64.4506         1.8746         2.2774       0.401000
       6448.00        55.8197         1.9109         2.2447       0.378400
       6448.50        46.0245         1.8818         2.2149       0.376400
       6449.00        37.9296         1.8426         2.1838       0.395700
       6449.50        38.8764         1.8245         2.1504       0.406700
       6450.00        35.8621         1.8340         2.1284       0.400200
       6450.50        35.1550         1.8226         2.1246       0.390400
       6451.00        38.6771         1.8179         2.1345       0.383900
       6451.50        45.0649         1.8392         2.1576       0.375600
       6452.00        45.6841         1.8764         2.1892       0.364000
       6452.50        48.6549         1.8590         2.2195       0.355900
       6453.00        54.1238         1.8504         2.2438       0.362200
       6453.50        58.1680         1.8490         2.2611       0.378100
       6454.00        63.8034         1.8520         2.2746       0.388600
       6454.50        63.5650         1.8388         2.2846       0.383900
       6455.00        65.8514         1.8303         2.2924       0.382500
       6455.50        66.7587         1.7831         2.2989       0.396100
       6456.00        70.2459         1.7680         2.3009       0.405700
       6456.50        71.5738         1.7704         2.3012       0.400200
       6457.00        75.6260         1.7565         2.3076       0.396100
       6457.50        74.9978         1.7288         2.3160       0.400900
       6458.00        76.0169         1.7076         2.3195       0.411100
       6458.50        78.7892         1.6903         2.3159       0.425600
       6459.00        82.8003         1.6728         2.3117       0.441600
       6459.50        84.9632         1.6575         2.3134       0.455200
       6460.00        81.6641         1.6273         2.3151       0.465700
       6460.50        83.4298         1.6343         2.3152       0.470600
       6461.00        84.0695         1.6524         2.3156       0.458800
       6461.50        82.1192         1.6013         2.3191       0.434400
       6462.00        83.7371         1.5617         2.3243       0.424500
       6462.50        85.8427         1.5337         2.3292       0.440500
       6463.00        85.8358         1.5144         2.3319       0.457700
       6463.50        87.9131         1.5240         2.3314       0.461500
       6464.00        86.6312         1.5278         2.3261       0.455000
       6464.50        89.9320         1.5308         2.3178       0.442200
       6465.00        88.8534         1.5638         2.3154       0.429500
       6465.50        80.1229         1.6893         2.3199       0.412200
       6466.00        73.8925         1.8253         2.3210       0.379300
       6466.50        60.1171         1.8849         2.3112       0.345400
       6467.00        50.3409         1.8722         2.2920       0.330600
       6467.50        45.6458         1.8921         2.2660       0.330700
       6468.00        44.1861         1.8681         2.2349       0.336300
       6468.50        42.5909         1.8188         2.2071       0.343400
