~Version Information Block
VERS .                  2.0:  CWLS LOG ASCII STANDARD - VERSION 2.0
WRAP .                   NO:  One line per depth step
~Well Information Block
#MNEM.UNIT        Data Type   Information
#---------- ----------------  -----------
STRT .FT            4582.50:  START DEPTH
STOP .FT           10844.50:  STOP DEPTH
STEP .FT               0.50:  STEP
NULL .              -999.25:  NULL VALUE
COMP .                     :  COMPANY
WELL .               STA-34:  WELL
FLD  .                     :  FIELD
LOC  .                     :  LOCATION
CTRY .                     :  COUNTRY
STAT .                     :  STATE
CNTY .                     :  COUNTY
SRVC .                     :  SERVICE COMPANY
DATE .                     :  DATE
API  .                     :  API NUMBER
UWI  .                     :  UNIQUE WELL ID
~Curve Information Block
#MNEM.UNIT         API CODE   Curve Description
#---------- ----------------  -----------------
DEPTH.FT                   :  Depth
GR   .GAPI                 :  Gamma Ray
RT   .OHMM                 :  True Resistivity
RHOB .G/C3                 :  Bulk Density
NPHI .V/V                  :  Neutron Porosity
~Parameter Information Block
#MNEM.UNIT            Value   Description
#---------- ----------------  -----------
PROJECT.            SANTAN_FE:  
~Other Information Block
# 
~A       DEPTH             GR             RT           RHOB           NPHI 
# ...
       9986.00        52.5860         3.3250         2.4735       0.147600
       9986.50        47.2805         2.9603         2.4693       0.138800
       9987.00        38.0583         2.6077         2.4487       0.135300
       9987.50        35.2448         2.4493         2.4266       0.137700
       9988.00        41.7785         2.3100         2.4096       0.146000
       9988.50        62.4029         2.3056         2.4081       0.158500
       9989.00        84.8581         2.5752         2.4529       0.171600
       9989.50        93.1266         2.9279         2.5259       0.180800
       9990.00        93.2585         3.0354         2.5798       0.183600
       9990.50        83.5725         3.1082         2.5981       0.180200
       9991.00        77.3835         3.3277         2.6009       0.171800
       9991.50        77.5594         3.6428         2.6011       0.159300
       9992.00        74.8356         3.8627         2.5958       0.146500
       9992.50        70.3301         3.9333         2.5843       0.140700
       9993.00        84.4091         3.6455         2.5748       0.147800
       9993.50        95.0134         3.2334         2.5812       0.168800
       9994.00        96.2782         3.0280         2.6029       0.187200
       9994.50        96.4953         3.0224         2.6239       0.190400
       9995.00        93.4696         3.0707         2.6318       0.185600
       9995.50        91.0396         3.0497         2.6284       0.186800
       9996.00        92.1827         2.9290         2.6219       0.193000
       9996.50        95.1014         2.7527         2.6211       0.200000
       9997.00        96.9876         2.6356         2.6204       0.206700
       9997.50       100.5424         2.5742         2.6228       0.212800
       9998.00       105.3926         2.4840         2.6362       0.218300
       9998.50       104.0278         2.4983         2.6493       0.221900
       9999.00       100.5437         2.5610         2.6466       0.222900
       9999.50        98.0561         2.6444         2.6340       0.218700
      10000.00        96.2219         2.6499         2.6266       0.210900
      10000.50       104.2524         2.6416         2.6306       0.209500
      10001.00       103.5332         2.7756         2.6408       0.212000
      10001.50       100.5847         3.0868         2.6410       0.208300
      10002.00        96.2901         3.3660         2.6276       0.195800
      10002.50        90.3256         3.6560         2.6165       0.180400
      10003.00        78.0818         3.8774         2.6120       0.164300
      10003.50        71.4825         3.9972         2.6094       0.150200
      10004.00        64.5486         4.0452         2.5969       0.138700
      10004.50        57.1867         4.0514         2.5768       0.131300
      10005.00        47.8343         3.8033         2.5556       0.130900
      10005.50        45.9445         3.4467         2.5305       0.138800
      10006.00        41.7830         3.3175         2.5092       0.147200
      10006.50        37.5591         2.9233         2.4925       0.153200
      10007.00        40.7846         2.8815         2.4665       0.158300
      10007.50        44.9091         3.3009         2.4416       0.160900
      10008.00        52.4944         3.4374         2.4514       0.157400
      10008.50        47.9088         3.4464         2.4967       0.148300
      10009.00        39.5658         3.4067         2.5222       0.141900
      10009.50        42.8774         3.1858         2.5162       0.146500
      10010.00        55.3354         3.0219         2.5046       0.158200
      10010.50        54.0985         2.9889         2.4984       0.162200
      10011.00        50.2007         3.0229         2.5001       0.159500
      10011.50        62.5579         3.1599         2.4989       0.160400
      10012.00        71.2067         3.3578         2.4961       0.164900
      10012.50        76.2083         3.4104         2.5113       0.168000
      10013.00        79.1746         3.3991         2.5427       0.168400
      10013.50        78.5788         3.3934         2.5659       0.166400
      10014.00        73.8544         3.3975         2.5771       0.161700
      10014.50        73.2082         3.4206         2.5724       0.156100
      10015.00        78.5439         3.4284         2.5607       0.152400
      10015.50        81.9640         3.3914         2.5614       0.153200
      10016.00        88.9335         3.3452         2.5804       0.159900
      10016.50        95.0454         3.1837         2.5976       0.169700
      10017.00        94.1541         3.0591         2.6038       0.175000
      10017.50        83.2193         3.0444         2.6121       0.168900
      10018.00        68.8471         3.2099         2.6120       0.155300
      10018.50        57.9387         3.5116         2.5807       0.142600
      10019.00        58.3115         3.6360         2.5530       0.134100
      10019.50        60.5496         3.5863         2.5560       0.133300
      10020.00        72.7105         3.3378         2.5682       0.147100
      10020.50        87.2973         3.0060         2.5769       0.171000
      10021.00        93.2696         2.9300         2.5877       0.185000
      10021.50        76.2424         3.1178         2.5971       0.174800
      10022.00        61.3588         3.3289         2.5861       0.156400
      10022.50        58.9800         3.5162         2.5598       0.142600
      10023.00        60.2274         3.6215         2.5527       0.134100
      10023.50        55.6870         3.5372         2.5597       0.131300
      10024.00        51.0053         3.4481         2.5532       0.133800
      10024.50        46.9490         3.4327         2.5361       0.137200
      10025.00        50.8360         3.5094         2.5175       0.137900
      10025.50        53.1841         3.5859         2.5100       0.136600
      10026.00        51.7941         3.6493         2.5164       0.133800
      10026.50        48.9472         3.6191         2.5136       0.130300
      10027.00        41.6772         3.3484         2.4877       0.130500
      10027.50        44.2575         3.0836         2.4654       0.135000
      10028.00        50.6707         3.0548         2.4651       0.139500
      10028.50        57.2784         3.0768         2.4799       0.141800
      10029.00        59.7786         3.0728         2.5071       0.143500
      10029.50        61.5015         3.0520         2.5280       0.145300
      10030.00        66.1501         3.0487         2.5275       0.146400
      10030.50        68.1069         3.1433         2.5298       0.146400
      10031.00        69.8425         3.2754         2.5499       0.147600
      10031.50        73.8806         3.3224         2.5634       0.155600
      10032.00        85.3584         3.2996         2.5568       0.173700
      10032.50        94.4778         3.0655         2.5444       0.193000
      10033.00        97.8951         2.8019         2.5316       0.202700
      10033.50        95.0355         2.9625         2.5144       0.202800
      10034.00        98.2367         2.7971         2.5144       0.191500
      10034.50        95.2306         2.7514         2.5587       0.170000
      10035.00        90.4233         3.3917         2.6155       0.150800
      10035.50        85.0153         3.4295         2.6425       0.139800
      10036.00        74.8252         3.5541         2.6355       0.135200
      10036.50        69.0324         3.6361         2.6063       0.136200
      10037.00        64.6432         3.6643         2.5835       0.142200
      10037.50        66.9396         3.6632         2.5806       0.151600
      10038.00        68.8235         3.6197         2.5883       0.162700
      10038.50        77.6528         3.5208         2.5963       0.167400
      10039.00        83.1008         3.4500         2.5982       0.164300
