~Version Information Block
VERS .                  2.0:  CWLS LOG ASCII STANDARD - VERSION 2.0
WRAP .                   NO:  One line per depth step
~Well Information Block
#MNEM.UNIT        Data Type   Information
#---------- ----------------  -----------
STRT .FT            5000.50:  START DEPTH
STOP .FT           14504.00:  STOP DEPTH
STEP .FT               0.50:  STEP
NULL .              -999.25:  NULL VALUE
COMP .                     :  COMPANY
WELL .               STA-18:  WELL
FLD  .                     :  FIELD
LOC  .                     :  LOCATION
CTRY .                     :  COUNTRY
STAT .                     :  STATE
CNTY .                     :  COUNTY
SRVC .                     :  SERVICE COMPANY
DATE .                     :  DATE
API  .                     :  API NUMBER
UWI  .                     :  UNIQUE WELL ID
~Curve Information Block
#MNEM.UNIT         API CODE   Curve Description
#---------- ----------------  -----------------
DEPTH.FT                   :  DEPTH
GR   .GAPI                 :  Gamma Ray
RT   .OHMM                 :  SEDP
RHOB .G/C3                 :  Bulk Density
NPHI .V/V                  :  Neutron porosity
~Parameter Information Block
#MNEM.UNIT            Value   Description
#---------- ----------------  -----------
PROJECT.            SANTAN_FE:  
~Other Information Block
# 
~A       DEPTH             GR             RT           RHOB           NPHI 
# ...
       8799.00       101.3100         3.3200         2.4544       0.257200
       8799.50        94.3200         3.3500         2.4556       0.225500
       8800.00        91.1300         3.2500         2.4544       0.207600
       8800.50        91.8900         3.3000         2.4444       0.216600
       8801.00        79.2400         3.4700         2.4456       0.211600
       8801.50        72.9100         3.6200         2.4556       0.239300
       8802.00        71.3700         3.7600         2.4600       0.224500
       8802.50        70.0300         3.9000         2.4488       0.206600
       8803.00        68.5200         4.0100         2.4177       0.193100
       8803.50        60.7400         4.1700         2.3944       0.200400
       8804.00        60.6800         4.3500         2.3844       0.203700
       8804.50        57.0700         4.4800         2.3688       0.190800
       8805.00        61.8400         4.5900         2.3321       0.178300
       8805.50        57.4900         4.7500         2.2988       0.169100
       8806.00        56.5000         4.9800         2.2956       0.183700
       8806.50        62.5300         5.2400         2.3056       0.176600
       8807.00        62.6000         5.5500         2.3100       0.170600
       8807.50        65.4900         5.9200         2.3044       0.172600
       8808.00        57.5600         6.0600         2.3000       0.195300
       8808.50        57.7100         6.1900         2.3000       0.187000
       8809.00        56.7400         6.4600         2.2888       0.168600
       8809.50        54.6700         6.8200         2.2577       0.165500
       8810.00        55.0900         7.1100         2.2288       0.171200
       8810.50        58.6800         7.2900         2.2088       0.158200
       8811.00        56.2100         7.5600         2.1888       0.137500
       8811.50        51.9700         7.6600         2.1688       0.151300
       8812.00        54.1200         7.6600         2.1488       0.154300
       8812.50        55.1800         7.8900         2.1344       0.152800
       8813.00        57.7900         8.0900         2.1356       0.147800
       8813.50        70.7500         8.1300         2.1400       0.174100
       8814.00        70.7300         7.9300         2.1456       0.176500
       8814.50        64.6500         7.8200         2.1612       0.168000
       8815.00        62.1100         8.0000         2.1756       0.169500
       8815.50        65.4200         8.1400         2.1856       0.181300
       8816.00        61.0400         7.8900         2.1844       0.173400
       8816.50        57.9000         7.8900         2.1800       0.170400
       8817.00        56.3700         8.0600         2.1856       0.171600
       8817.50        59.1700         7.7600         2.1900       0.171900
       8818.00        57.9000         7.8400         2.1788       0.169300
       8818.50        62.3900         7.7700         2.1588       0.163400
       8819.00        59.8000         7.7500         2.1500       0.159600
       8819.50        63.1600         7.8800         2.1556       0.153300
       8820.00        60.0200         7.9600         2.1600       0.152200
       8820.50        56.4500         7.6700         2.1544       0.150100
       8821.00        56.5400         7.4200         2.1556       0.147600
       8821.50        56.1800         7.3700         2.1656       0.143100
       8822.00        55.3800         7.9300         2.1532       0.137700
       8822.50        54.5300         8.7400         2.1344       0.128700
       8823.00        53.2900         9.1200         2.1244       0.129300
       8823.50        51.9400         9.6000         2.1144       0.127900
       8824.00        49.6400        10.2600         2.1100       0.123300
       8824.50        50.2300        11.0600         2.1044       0.136700
       8825.00        48.3100        11.9600         2.0944       0.125000
       8825.50        42.9900        12.8200         2.0844       0.111100
       8826.00        45.3800        12.9800         2.0856       0.109800
       8826.50        41.8300        12.8700         2.0788       0.107200
       8827.00        36.7000        12.3900         2.0533       0.112800
       8827.50        37.3500        12.0000         2.0344       0.114900
       8828.00        36.9000        11.8800         2.0188       0.113600
       8828.50        33.9600        11.8200         2.0100       0.120700
       8829.00        36.2700        11.5200         2.0156       0.124700
       8829.50        39.2000        11.0600         2.0312       0.139600
       8830.00        44.4300        10.0600         2.0456       0.131200
       8830.50        52.5100         9.5800         2.0668       0.121800
       8831.00        47.8600        10.1900         2.0800       0.113800
       8831.50        44.4900        12.2000         2.0688       0.107000
       8832.00        45.7200        13.3600         2.0433       0.132400
       8832.50        56.4800        10.8600         2.0244       0.158600
       8833.00        67.9300         6.5100         2.0535       0.202900
       8833.50        77.2300         4.1400         2.1302       0.238700
       8834.00        89.4400         3.4100         2.2426       0.268900
       8834.50        98.5600         3.2600         2.3836       0.272100
       8835.00        97.3000         3.6400         2.4779       0.242100
       8835.50        81.6300         4.2500         2.5000       0.237600
       8836.00        76.5500         4.5900         2.4777       0.225000
       8836.50        70.3700         4.4400         2.4321       0.229000
       8837.00        69.6500         3.7600         2.4044       0.224600
       8837.50        67.5200         3.3600         2.4111       0.232400
       8838.00        67.3800         3.2800         2.4256       0.230400
       8838.50        69.5500         3.2600         2.4300       0.227300
       8839.00        70.3500         3.2500         2.4244       0.221900
       8839.50        75.4900         3.2400         2.4256       0.218100
       8840.00        78.1400         3.1900         2.4411       0.203100
       8840.50        85.5400         3.1400         2.4444       0.211400
       8841.00        83.0700         3.0900         2.4400       0.206900
       8841.50        82.7700         3.0600         2.4400       0.200900
       8842.00        85.5400         3.0300         2.4344       0.230800
       8842.50        86.8500         3.0000         2.4244       0.251000
       8843.00        79.7500         2.9600         2.4311       0.247300
       8843.50        88.6400         2.9000         2.4456       0.245800
       8844.00        87.6500         2.8300         2.4500       0.258500
       8844.50        90.0100         2.7300         2.4556       0.259700
       8845.00        92.2900         2.6100         2.4656       0.278700
       8845.50        97.8600         2.5500         2.4811       0.278500
       8846.00        98.7500         2.5500         2.5011       0.285100
       8846.50       101.2800         2.6500         2.5044       0.281100
       8847.00        99.7700         2.7300         2.5056       0.290800
       8847.50        99.4500         2.5300         2.5156       0.282600
       8848.00        99.7300         2.3900         2.5144       0.297600
       8848.50       104.4600         2.2600         2.5100       0.301500
       8849.00       104.1900         2.1000         2.5156       0.316100
       8849.50       106.7200         1.9900         2.5089       0.301900
       8850.00       107.4000         1.9900         2.5000       0.291800
       8850.50       100.6100         2.1100         2.4944       0.255400
       8851.00        93.1100         2.3500         2.4678       0.239500
       8851.50        84.4900         2.6400         2.4222       0.228900
       8852.00        70.0100         2.8500         2.3777       0.237100
