~Version Information Block
VERS .                  2.0:  CWLS LOG ASCII STANDARD - VERSION 2.0
WRAP .                   NO:  One line per depth step
~Well Information Block
#MNEM.UNIT        Data Type   Information
#---------- ----------------  -----------
STRT .FT             780.00:  START DEPTH
STOP .FT            8996.00:  STOP DEPTH
STEP .FT               0.50:  STEP
NULL .              -999.25:  NULL VALUE
COMP .                     :  COMPANY
WELL .                STA-4:  WELL
FLD  .                     :  FIELD
LOC  .                     :  LOCATION
CTRY .                     :  COUNTRY
STAT .                     :  STATE
CNTY .                     :  COUNTY
SRVC .                     :  SERVICE COMPANY
DATE .                     :  DATE
API  .                     :  API NUMBER
UWI  .                     :  UNIQUE WELL ID
~Curve Information Block
#MNEM.UNIT         API CODE   Curve Description
#---------- ----------------  -----------------
DEPTH.FT                   :  DEPTH
GR   .GAPI                 :  Gamma Ray
RT   .OHMM                 :  SEDP
RHOB .G/C3                 :  Bulk Density
NPHI .V/V                  :  Neutron porosity
~Parameter Information Block
#MNEM.UNIT            Value   Description
#---------- ----------------  -----------
PROJECT.            SANTAN_FE:  
~Other Information Block
# 
~A       DEPTH             GR             RT           RHOB           NPHI 
# ...
       7842.00        92.8500         1.1100         2.4138       0.416300
       7842.50        91.9600         1.1100         2.4100       0.426300
       7843.00        91.6100         1.1100         2.4225       0.435500
       7843.50        93.2500         1.1300         2.4362       0.438000
       7844.00        90.3800         1.1300         2.4400       0.438100
       7844.50        96.4800         1.1300         2.4650       0.440100
       7845.00        94.2100         1.1400         2.5301       0.440000
       7845.50        93.1700         1.1400         2.5412       0.436900
       7846.00        93.4900         1.1300         2.4861       0.435200
       7846.50        97.1300         1.1200         2.4537       0.437500
       7847.00        95.5600         1.1100         2.4563       0.443900
       7847.50        96.8600         1.1000         2.4537       0.449900
       7848.00        96.0000         1.0900         2.4437       0.450900
       7848.50       100.1800         1.0500         2.4463       0.447200
       7849.00       100.5400         1.0200         2.4563       0.442700
       7849.50        99.8300         1.0000         2.4600       0.441900
       7850.00       102.4500         1.0000         2.4537       0.444000
       7850.50       101.1200         0.9900         2.4437       0.440300
       7851.00        98.9400         1.0000         2.4464       0.429200
       7851.50        92.0800         1.0200         2.4500       0.418900
       7852.00        94.3300         1.0500         2.4436       0.408000
       7852.50        90.1000         1.1000         2.4400       0.394200
       7853.00        83.6200         1.1900         2.4400       0.376400
       7853.50        79.3100         1.3200         2.4272       0.351200
       7854.00        72.2700         1.4500         2.3944       0.325100
       7854.50        68.0100         1.5600         2.3608       0.310800
       7855.00        65.8100         1.6800         2.3564       0.313800
       7855.50        63.5100         1.7600         2.3857       0.329600
       7856.00        60.4700         1.8200         2.3807       0.345900
       7856.50        64.8500         1.8400         2.3378       0.360300
       7857.00        69.5400         1.7400         2.2942       0.370600
       7857.50        71.9000         1.5700         2.2736       0.375000
       7858.00        76.5500         1.4900         2.2700       0.375400
       7858.50        77.1400         1.4200         2.2700       0.378000
       7859.00        78.1500         1.3600         2.2700       0.381200
       7859.50        79.4000         1.3100         2.2765       0.374800
       7860.00        78.8100         1.2800         2.2800       0.361100
       7860.50        75.6500         1.2700         2.2930       0.353500
       7861.00        76.1500         1.2600         2.3000       0.355400
       7861.50        74.7000         1.2400         2.2870       0.360800
       7862.00        71.6600         1.2400         2.2735       0.364400
       7862.50        69.5000         1.2500         2.2635       0.369200
       7863.00        70.9200         1.2500         2.2600       0.376800
       7863.50        74.3900         1.2300         2.2665       0.381400
       7864.00        75.7900         1.2100         2.2766       0.385300
       7864.50        74.2500         1.1800         2.2931       0.390400
       7865.00        74.7000         1.1500         2.3131       0.395500
       7865.50        76.1000         1.1100         2.3266       0.401500
       7866.00        77.7900         1.0600         2.3234       0.413100
       7866.50        75.3200         1.0200         2.3068       0.425700
       7867.00        73.5700         1.0000         2.3000       0.434600
       7867.50        72.8800         0.9800         2.2934       0.437800
       7868.00        76.0000         0.9500         2.2834       0.431900
       7868.50        77.9500         0.9200         2.2734       0.421000
       7869.00        73.6700         0.9000         2.2634       0.416200
       7869.50        78.1500         0.8800         2.2534       0.416700
       7870.00        78.8300         0.8700         2.2434       0.415500
       7870.50        82.2800         0.8700         2.2334       0.409600
       7871.00        85.8400         0.8800         2.2366       0.402300
       7871.50        85.1300         0.8900         2.2333       0.400900
       7872.00        93.6100         0.9000         2.2233       0.402600
       7872.50        94.9900         0.9000         2.2267       0.403800
       7873.00        95.7200         0.9100         2.2367       0.405000
       7873.50        95.1800         0.9200         2.2467       0.403800
       7874.00        93.1500         0.9100         2.2500       0.395200
       7874.50        85.6500         0.8700         2.2500       0.382000
       7875.00        85.6600         0.8300         2.2500       0.376000
       7875.50        80.6800         0.8000         2.2500       0.381600
       7876.00        80.8700         0.7700         2.2500       0.392700
       7876.50        74.1500         0.7400         2.2433       0.399100
       7877.00        72.1600         0.7200         2.2400       0.400500
       7877.50        71.4400         0.7200         2.2400       0.400300
       7878.00        71.1200         0.7400         2.2400       0.397900
       7878.50        74.6100         0.7600         2.2468       0.389400
       7879.00        77.3100         0.7900         2.2500       0.377500
       7879.50        70.9400         0.8100         2.2500       0.370700
       7880.00        69.7800         0.8200         2.2500       0.369400
       7880.50        73.0500         0.8500         2.2500       0.374100
       7881.00        69.2100         0.8900         2.2568       0.383800
       7881.50        65.7300         0.8900         2.2668       0.386600
       7882.00        61.5000         0.8600         2.2700       0.381700
       7882.50        56.2100         0.8400         2.2632       0.378700
       7883.00        58.2000         0.8200         2.2668       0.380500
       7883.50        53.9200         0.8000         2.2700       0.381600
       7884.00        51.5600         0.8000         2.2700       0.383300
       7884.50        55.3000         0.7900         2.2631       0.394500
       7885.00        55.4900         0.7900         2.2463       0.406000
       7885.50        55.2800         0.7800         2.2262       0.409200
       7886.00        58.6500         0.7800         2.2131       0.409200
       7886.50        59.7800         0.7800         2.2100       0.407900
       7887.00        58.6100         0.7800         2.2031       0.401200
       7887.50        62.1900         0.7900         2.2000       0.388700
       7888.00        67.8300         0.8000         2.2000       0.382100
       7888.50        62.4100         0.8200         2.2000       0.381900
       7889.00        55.0500         0.8300         2.1931       0.382500
       7889.50        56.0600         0.8400         2.1900       0.379000
       7890.00        58.5500         0.8400         2.1831       0.368100
       7890.50        55.1600         0.8400         2.1870       0.359100
       7891.00        52.2900         0.8600         2.1970       0.352200
       7891.50        58.2700         0.8700         2.2209       0.344700
       7892.00        67.9700         0.8900         2.2439       0.338800
       7892.50        55.9600         0.9400         2.2709       0.339800
       7893.00        49.6500         0.9400         2.2940       0.347400
       7893.50        54.0700         0.8600         2.3000       0.354100
       7894.00        54.1100         0.8300         2.2790       0.360700
       7894.50        49.2900         0.8300         2.2630       0.369900
       7895.00        49.8600         0.8400         2.2460       0.382600
