~Version Information Block
VERS .                  2.0:  CWLS LOG ASCII STANDARD - VERSION 2.0
WRAP .                   NO:  One line per depth step
~Well Information Block
#MNEM.UNIT        Data Type   Information
#---------- ----------------  -----------
STRT .FT            4582.50:  START DEPTH
STOP .FT           10844.50:  STOP DEPTH
STEP .FT               0.50:  STEP
NULL .              -999.25:  NULL VALUE
COMP .                     :  COMPANY
WELL .               STA-34:  WELL
FLD  .                     :  FIELD
LOC  .                     :  LOCATION
CTRY .                     :  COUNTRY
STAT .                     :  STATE
CNTY .                     :  COUNTY
SRVC .                     :  SERVICE COMPANY
DATE .                     :  DATE
API  .                     :  API NUMBER
UWI  .                     :  UNIQUE WELL ID
~Curve Information Block
#MNEM.UNIT         API CODE   Curve Description
#---------- ----------------  -----------------
DEPTH.FT                   :  Depth
GR   .GAPI                 :  Gamma Ray
RT   .OHMM                 :  True Resistivity
RHOB .G/C3                 :  Bulk Density
NPHI .V/V                  :  Neutron Porosity
~Parameter Information Block
#MNEM.UNIT            Value   Description
#---------- ----------------  -----------
PROJECT.            SANTAN_FE:  
~Other Information Block
# 
~A       DEPTH             GR             RT           RHOB           NPHI 
# ...
       9558.00       111.7808         2.2877         2.5845       0.217700
       9558.50       100.4490         2.4640         2.5853       0.211300
       9559.00        93.4394         2.6276         2.5925       0.194900
       9559.50        92.9048         2.6156         2.6075       0.182800
       9560.00        95.4098         2.5835         2.6202       0.181700
       9560.50        94.1419         2.5550         2.6238       0.185600
       9561.00        87.6086         2.6107         2.6161       0.187800
       9561.50        87.6966         2.6120         2.6027       0.185000
       9562.00        89.6896         2.6124         2.6048       0.181800
       9562.50        92.0119         2.5982         2.6161       0.185800
       9563.00        89.8018         2.4408         2.6181       0.190600
       9563.50        75.4893         2.4631         2.6003       0.186400
       9564.00        53.9513         2.4891         2.5484       0.175900
       9564.50        50.7871         2.5440         2.4752       0.166600
       9565.00        53.1123         2.6730         2.4279       0.159400
       9565.50        56.6519         2.9194         2.4327       0.149700
       9566.00        51.2859         3.2841         2.4709       0.135000
       9566.50        43.1118         3.6905         2.5107       0.116100
       9567.00        38.9287         4.1545         2.5301       0.099400
       9567.50        35.2909         4.3234         2.5511       0.095200
       9568.00        34.0662         4.1451         2.5901       0.105900
       9568.50        32.0420         3.5275         2.5918       0.126400
       9569.00        36.8039         2.8303         2.5327       0.150500
       9569.50        36.9794         2.5009         2.4466       0.168200
       9570.00        37.9263         2.3636         2.3844       0.171700
       9570.50        41.5918         2.4342         2.3748       0.165900
       9571.00        45.4227         2.6304         2.4185       0.161200
       9571.50        44.0640         2.6432         2.4598       0.161600
       9572.00        52.5759         2.5877         2.4557       0.165600
       9572.50        68.2378         2.7138         2.4460       0.167100
       9573.00        75.9190         2.9806         2.4803       0.163400
       9573.50        80.3586         3.2460         2.5457       0.159900
       9574.00        77.6529         3.3495         2.5858       0.158600
       9574.50        68.4164         3.3430         2.5898       0.157800
       9575.00        59.9257         3.3138         2.5645       0.155600
       9575.50        62.6957         3.3328         2.5296       0.153700
       9576.00        66.9818         3.4138         2.5149       0.152900
       9576.50        71.4700         3.5037         2.5326       0.151300
       9577.00        74.1370         3.5624         2.5638       0.150100
       9577.50        62.7409         3.5236         2.5839       0.151200
       9578.00        57.7650         3.4711         2.5701       0.149300
       9578.50        63.9827         3.5196         2.5339       0.146700
       9579.00        66.2249         3.5286         2.5317       0.156500
       9579.50        67.7131         3.4207         2.5617       0.179500
       9580.00        75.1097         3.1735         2.5771       0.198800
       9580.50        84.1628         2.7984         2.5820       0.210000
       9581.00        88.8361         2.5480         2.5869       0.218300
       9581.50        92.9212         2.4530         2.5919       0.224700
       9582.00        96.4288         2.3945         2.6005       0.224300
       9582.50        93.7581         2.4881         2.6028       0.209300
       9583.00        75.5541         2.7373         2.5769       0.190900
       9583.50        57.2099         2.9096         2.5194       0.179800
       9584.00        52.6334         2.9558         2.4803       0.171000
       9584.50        57.8686         3.0165         2.4784       0.162400
       9585.00        60.4634         3.1758         2.4932       0.157200
       9585.50        67.8876         3.2993         2.5193       0.157100
       9586.00        73.9088         3.3735         2.5501       0.160800
       9586.50        77.1717         3.3773         2.5685       0.166800
       9587.00        77.1926         3.2389         2.5738       0.176800
       9587.50        83.0255         3.0976         2.5866       0.188900
       9588.00        93.0465         2.9455         2.5958       0.191900
       9588.50        95.2292         2.8144         2.5802       0.186100
       9589.00        89.5716         2.8960         2.5512       0.179700
       9589.50        83.2722         3.0741         2.5443       0.172500
       9590.00        84.6711         3.0984         2.5511       0.167600
       9590.50        76.0058         3.1783         2.5471       0.171400
       9591.00        67.7587         3.2015         2.5256       0.178200
       9591.50        69.5207         3.1717         2.5257       0.182900
       9592.00        79.8912         3.1784         2.5558       0.183800
       9592.50        85.8625         3.3070         2.5729       0.179700
       9593.00        77.5411         3.4844         2.5674       0.169300
       9593.50        63.5765         3.5450         2.5607       0.156700
       9594.00        59.3838         3.5389         2.5601       0.149800
       9594.50        60.2956         3.4980         2.5699       0.148700
       9595.00        66.1177         3.4504         2.5849       0.152100
       9595.50        73.3854         3.3484         2.5874       0.160600
       9596.00        83.0468         3.1784         2.5869       0.171100
       9596.50        92.0013         3.0300         2.6016       0.180600
       9597.00        97.5610         2.8901         2.6165       0.191000
       9597.50       106.7720         2.6465         2.6205       0.203000
       9598.00       107.0276         2.4071         2.6256       0.208600
       9598.50       103.5764         2.4123         2.6282       0.197900
       9599.00        93.4981         2.6158         2.6181       0.180000
       9599.50        85.0357         2.9650         2.6020       0.168700
       9600.00        82.7288         3.2692         2.5905       0.165400
       9600.50        86.4430         3.2916         2.5878       0.168600
       9601.00        87.2931         3.1915         2.5902       0.176500
       9601.50        88.5993         3.0035         2.5956       0.190100
       9602.00        95.4167         2.7930         2.6049       0.216300
       9602.50       107.3284         2.3692         2.6075       0.247400
       9603.00       113.1850         2.1818         2.5972       0.258700
       9603.50       113.6711         2.1173         2.5992       0.252800
       9604.00       112.9979         2.0814         2.6171       0.248800
       9604.50       114.0286         2.0826         2.6234       0.246800
       9605.00       114.0556         2.1257         2.6182       0.244400
       9605.50       111.4179         2.0550         2.6107       0.244800
       9606.00       114.5290         1.9817         2.6045       0.247700
       9606.50       114.5106         1.9342         2.6084       0.252700
       9607.00       107.0492         1.9801         2.6219       0.252300
       9607.50       100.8686         2.1654         2.6358       0.225000
       9608.00        79.5170         2.8480         2.6472       0.187800
       9608.50        62.4230         3.8086         2.6668       0.160900
       9609.00        63.4847         4.0601         2.6920       0.153800
       9609.50        73.4300         3.6987         2.6997       0.163900
       9610.00        80.2687         3.3679         2.6860       0.182100
       9610.50        82.2404         3.1518         2.6699       0.196800
       9611.00        85.6898         3.1781         2.6689       0.195000
