~Version Information Block
VERS .                  2.0:  CWLS LOG ASCII STANDARD - VERSION 2.0
WRAP .                   NO:  One line per depth step
~Well Information Block
#MNEM.UNIT        Data Type   Information
#---------- ----------------  -----------
STRT .FT            6415.50:  START DEPTH
STOP .FT           16132.50:  STOP DEPTH
STEP .FT               0.50:  STEP
NULL .              -999.25:  NULL VALUE
COMP .                     :  COMPANY
WELL .               STA-33:  WELL
FLD  .                     :  FIELD
LOC  .                     :  LOCATION
CTRY .                     :  COUNTRY
STAT .                     :  STATE
CNTY .                     :  COUNTY
SRVC .                     :  SERVICE COMPANY
DATE .                     :  DATE
API  .                     :  API NUMBER
UWI  .                     :  UNIQUE WELL ID
~Curve Information Block
#MNEM.UNIT         API CODE   Curve Description
#---------- ----------------  -----------------
DEPTH.FT                   :  Depth
GR   .GAPI                 :  Gamma Ray
RT   .OHMM                 :  True Resistivity
RHOB .G/C3                 :  Bulk Density
NPHI .V/V                  :  Neutron Porosity
~Parameter Information Block
#MNEM.UNIT            Value   Description
#---------- ----------------  -----------
PROJECT.            SANTAN_FE:  
~Other Information Block
# 
~A       DEPTH             GR             RT           RHOB           NPHI 
# ...
       7057.50        76.6029         1.7694         2.3657       0.401100
       7058.00        78.0830         1.7381         2.3664       0.408600
       7058.50        81.5955         1.7163         2.3656       0.408900
       7059.00        80.6698         1.7233         2.3647       0.414900
       7059.50        82.1967         1.6995         2.3623       0.422900
       7060.00        82.2231         1.6975         2.3591       0.421700
       7060.50        83.8430         1.6771         2.3599       0.412200
       7061.00        85.7208         1.6812         2.3641       0.404000
       7061.50        87.1015         1.6968         2.3657       0.408300
       7062.00        84.0454         1.6971         2.3634       0.419500
       7062.50        87.0441         1.6559         2.3622       0.415800
       7063.00        88.5045         1.6035         2.3629       0.409700
       7063.50        86.7369         1.5955         2.3605       0.413000
       7064.00        87.6679         1.5914         2.3531       0.409100
       7064.50        89.1509         1.6046         2.3479       0.402400
       7065.00        88.7320         1.6347         2.3492       0.407400
       7065.50        87.4772         1.6342         2.3524       0.412700
       7066.00        89.7162         1.6381         2.3542       0.409400
       7066.50        89.8708         1.6601         2.3571       0.410100
       7067.00        89.5557         1.6838         2.3616       0.416600
       7067.50        87.1039         1.7121         2.3659       0.427300
       7068.00        86.9974         1.6910         2.3698       0.438500
       7068.50        87.0023         1.6967         2.3709       0.435000
       7069.00        90.0877         1.6803         2.3663       0.423400
       7069.50        86.8224         1.6167         2.3589       0.422500
       7070.00        87.7653         1.6120         2.3550       0.423300
       7070.50        87.0140         1.6464         2.3572       0.418400
       7071.00        85.4837         1.6236         2.3652       0.420800
       7071.50        85.3565         1.6515         2.3746       0.423500
       7072.00        84.0607         1.6665         2.3762       0.420500
       7072.50        86.9577         1.6920         2.3693       0.418300
       7073.00        88.8544         1.6953         2.3642       0.416200
       7073.50        87.8596         1.7022         2.3658       0.422100
       7074.00        88.6535         1.7425         2.3681       0.432200
       7074.50        89.9052         1.7813         2.3647       0.433800
       7075.00        85.4790         1.7541         2.3555       0.429300
       7075.50        86.6124         1.7421         2.3497       0.418400
       7076.00        90.1870         1.7274         2.3522       0.412400
       7076.50        90.5808         1.7468         2.3572       0.423400
       7077.00        88.3379         1.7460         2.3593       0.430900
       7077.50        89.7195         1.7139         2.3600       0.431100
       7078.00        91.2991         1.6969         2.3606       0.441200
       7078.50        89.6988         1.7002         2.3586       0.448700
       7079.00        88.3001         1.7027         2.3549       0.434100
       7079.50        85.7118         1.6820         2.3535       0.415800
       7080.00        87.1585         1.6806         2.3552       0.409300
       7080.50        91.0118         1.6882         2.3577       0.415400
       7081.00        89.3693         1.6849         2.3611       0.425200
       7081.50        91.9240         1.7011         2.3643       0.429200
       7082.00        87.4041         1.7318         2.3654       0.435000
       7082.50        85.3158         1.7895         2.3649       0.441200
       7083.00        84.0185         1.8474         2.3618       0.433700
       7083.50        81.0192         1.7531         2.3577       0.413100
       7084.00        78.8058         1.7291         2.3564       0.391200
       7084.50        81.3335         1.8017         2.3559       0.375700
       7085.00        77.6354         1.7598         2.3566       0.381800
       7085.50        75.9089         1.7672         2.3626       0.407700
       7086.00        75.3416         1.8353         2.3711       0.415100
       7086.50        76.0415         1.9193         2.3726       0.381500
       7087.00        70.8961         2.0421         2.3647       0.339400
       7087.50        73.1143         2.1039         2.3548       0.326400
       7088.00        73.5250         2.1981         2.3465       0.330100
       7088.50        69.9251         2.2406         2.3406       0.339100
       7089.00        67.5834         2.2712         2.3395       0.352100
       7089.50        68.0061         2.2643         2.3391       0.358700
       7090.00        71.0143         2.2682         2.3375       0.350700
       7090.50        67.8341         2.2608         2.3397       0.336300
       7091.00        69.0223         2.2406         2.3478       0.336700
       7091.50        71.6891         2.2329         2.3565       0.355300
       7092.00        73.9220         2.2270         2.3609       0.378700
       7092.50        77.2218         2.1431         2.3603       0.397700
       7093.00        78.9327         2.0165         2.3567       0.404900
       7093.50        79.5102         1.9263         2.3547       0.403500
       7094.00        80.2417         1.8343         2.3543       0.401800
       7094.50        81.1524         1.7547         2.3502       0.401100
       7095.00        82.5519         1.6931         2.3414       0.405400
       7095.50        84.7419         1.6787         2.3331       0.416800
       7096.00        83.5827         1.6627         2.3337       0.429400
       7096.50        85.0872         1.6382         2.3424       0.434400
       7097.00        86.2483         1.6252         2.3472       0.423200
       7097.50        84.3934         1.5889         2.3422       0.409000
       7098.00        85.6135         1.5711         2.3347       0.406400
       7098.50        78.1737         1.5594         2.3340       0.417800
       7099.00        82.6422         1.6038         2.3373       0.437300
       7099.50        82.2793         1.6520         2.3364       0.446500
       7100.00        82.7692         1.6976         2.3326       0.437800
       7100.50        80.2051         1.7110         2.3345       0.419500
       7101.00        75.5499         1.7119         2.3430       0.393200
       7101.50        72.4021         1.8450         2.3522       0.364300
       7102.00        65.1887         2.0352         2.3563       0.343400
       7102.50        65.8096         2.1224         2.3534       0.331900
       7103.00        69.8343         2.1104         2.3447       0.335300
       7103.50        73.2180         2.0006         2.3324       0.359500
       7104.00        77.2088         1.8458         2.3196       0.385000
       7104.50        83.4009         1.7681         2.3091       0.394700
       7105.00        86.4587         1.7091         2.3018       0.396200
       7105.50        86.9889         1.6499         2.2991       0.394700
       7106.00        86.5273         1.6088         2.3024       0.379900
       7106.50        84.0313         1.6272         2.3100       0.359200
       7107.00        80.9698         1.6941         2.3156       0.351400
       7107.50        73.6002         1.7470         2.3162       0.351000
       7108.00        75.4145         1.7586         2.3151       0.350500
       7108.50        70.1551         1.7686         2.3119       0.351400
       7109.00        69.2192         1.7801         2.3063       0.351300
       7109.50        70.5507         1.7992         2.3046       0.358800
       7110.00        67.9826         1.8116         2.3068       0.370300
       7110.50        68.3099         1.8199         2.3058       0.370300
