~Version Information Block
VERS .                  2.0:  CWLS LOG ASCII STANDARD - VERSION 2.0
WRAP .                   NO:  One line per depth step
~Well Information Block
#MNEM.UNIT        Data Type   Information
#---------- ----------------  -----------
STRT .FT             224.00:  START DEPTH
STOP .FT            7977.50:  STOP DEPTH
STEP .FT               0.50:  STEP
NULL .              -999.25:  NULL VALUE
COMP .                     :  COMPANY
WELL .               STA-22:  WELL
FLD  .                     :  FIELD
LOC  .                     :  LOCATION
CTRY .                     :  COUNTRY
STAT .                     :  STATE
CNTY .                     :  COUNTY
SRVC .                     :  SERVICE COMPANY
DATE .                     :  DATE
API  .                     :  API NUMBER
UWI  .                     :  UNIQUE WELL ID
~Curve Information Block
#MNEM.UNIT         API CODE   Curve Description
#---------- ----------------  -----------------
DEPTH.FT                   :  DEPTH
GR   .GAPI                 :  Gamma Ray
RT   .OHMM                 :  RESDE
RHOB .G/C3                 :  Bulk Density
NPHI .V/V                  :  Thermal Neutron Porosity (Ratio Method) in Selected Lithology
~Parameter Information Block
#MNEM.UNIT            Value   Description
#---------- ----------------  -----------
PROJECT.            SANTAN_FE:  
~Other Information Block
# 
~A       DEPTH             GR             RT           RHOB           NPHI 
# ...
       1775.50        79.8700         1.1700         1.8294       0.516800
       1776.00        80.9200         1.1746         1.8194       0.510000
       1776.50        81.8000         1.1900         1.8112       0.510500
       1777.00        76.2300         1.2357         1.8312       0.517100
       1777.50        66.7800         1.3900         1.8513       0.513000
       1778.00        49.0500         1.4609         1.8700       0.515500
       1778.50        35.4600         1.7046         1.8693       0.489400
       1779.00        24.0500         1.7200         1.8600       0.455000
       1779.50        20.0200         1.6995         1.8607       0.400300
       1780.00        18.3900         1.6117         1.8707       0.387100
       1780.50        17.3300         1.5317         1.8793       0.393300
       1781.00        18.2200         1.4632         1.8700       0.439200
       1781.50        20.4200         1.4400         1.8693       0.467800
       1782.00        22.7300         1.4537         1.8600       0.483200
       1782.50        24.7400         1.5480         1.8622       0.484700
       1783.00        26.1700         1.7443         1.8915       0.500000
       1783.50        28.6200         1.8897         1.9100       0.510000
       1784.00        30.3100         2.0220         1.9062       0.506600
       1784.50        32.3200         2.1300         1.8592       0.463300
       1785.00        33.4500         2.1574         1.8508       0.418900
       1785.50        34.8200         2.2569         1.8631       0.385100
       1786.00        35.0700         2.2800         1.9071       0.378200
       1786.50        36.7600         2.2891         1.9948       0.404800
       1787.00        40.1400         2.3200         2.0549       0.420900
       1787.50        43.6600         2.2630         2.1133       0.432100
       1788.00        46.5300         2.0609         2.1517       0.440500
       1788.50        46.0400         2.0072         2.1692       0.445000
       1789.00        44.6000         1.9095         2.1481       0.438700
       1789.50        41.2100         1.8081         2.0140       0.437700
       1790.00        38.6400         1.7023         1.9509       0.462400
       1790.50        36.5700         1.7328         1.9661       0.473400
       1791.00        35.3100         1.8168         2.0353       0.457900
       1791.50        34.0500         1.8491         2.0900       0.438500
       1792.00        32.9800         1.8846         2.0891       0.424500
       1792.50        31.8700         1.8977         2.0791       0.419600
       1793.00        30.5500         1.8832         2.0691       0.418300
       1793.50        29.3700         1.8646         2.0581       0.450700
       1794.00        28.6000         1.8800         2.0381       0.473500
       1794.50        28.4800         1.8777         2.0200       0.448900
       1795.00        28.4300         1.8654         2.0238       0.428100
       1795.50        28.7500         1.8477         2.0600       0.400800
       1796.00        29.5600         1.8400         2.0590       0.389700
       1796.50        32.3800         1.8149         2.0451       0.397600
       1797.00        35.5200         1.7186         2.0010       0.421500
       1797.50        38.9600         1.6709         2.0140       0.439900
       1798.00        39.0100         1.6377         2.0551       0.441000
       1798.50        39.5800         1.6346         2.1000       0.445200
       1799.00        39.5200         1.6500         2.0979       0.451000
       1799.50        41.1000         1.6477         2.0821       0.445700
       1800.00        42.4700         1.6354         2.1042       0.419500
       1800.50        45.2200         1.6359         2.1432       0.395500
       1801.00        47.9000         1.6877         2.1689       0.379300
       1801.50        49.3500         1.6754         2.1567       0.399100
       1802.00        49.3000         1.6577         2.1245       0.427800
       1802.50        48.6000         1.6409         2.0756       0.466200
       1803.00        45.7800         1.6077         2.0356       0.477600
       1803.50        42.8300         1.6091         1.9944       0.453200
       1804.00        39.5000         1.6468         1.9511       0.412200
       1804.50        39.4300         1.6859         1.9589       0.411000
       1805.00        39.8800         1.7650         1.9541       0.444300
       1805.50        41.9600         1.8523         1.9956       0.473200
       1806.00        43.4100         1.8486         2.0525       0.464600
       1806.50        44.4100         1.7986         2.0815       0.478000
       1807.00        43.8400         1.7577         2.1012       0.495000
       1807.50        41.1600         1.7477         2.1195       0.455100
       1808.00        38.5200         1.7400         2.1096       0.423500
       1808.50        36.3200         1.7400         2.1000       0.429300
       1809.00        36.4400         1.7355         2.1006       0.438700
       1809.50        37.1900         1.7155         2.1300       0.383500
       1810.00        38.0000         1.6932         2.1300       0.389500
       1810.50        39.7600         1.6586         2.1102       0.409200
       1811.00        40.1400         1.6155         2.1002       0.487200
       1811.50        40.8900         1.5977         2.0903       0.422700
       1812.00        39.3900         1.5900         2.0900       0.410500
       1812.50        38.1500         1.6128         2.0900       0.413700
       1813.00        37.9000         1.7264         2.0900       0.480900
       1813.50        38.8400         1.8750         2.0900       0.432200
       1814.00        42.0400         1.9668         2.1542       0.400600
       1814.50        44.5400         1.9991         2.1600       0.378600
       1815.00        45.5400         2.0414         2.2228       0.348000
       1815.50        44.4600         2.0914         2.1945       0.308700
       1816.00        42.4700         2.1391         2.2689       0.278900
       1816.50        40.8500         2.1768         2.2800       0.304700
       1817.00        39.5900         2.1953         2.2714       0.356300
       1817.50        40.0800         2.1930         2.2615       0.397800
       1818.00        41.6400         2.2214         2.2433       0.345100
       1818.50        44.3500         2.2000         2.2400       0.285300
       1819.00        45.8600         2.1931         2.1911       0.276300
       1819.50        47.7900         2.1317         2.1478       0.337400
       1820.00        47.8500         2.0780         2.0844       0.408800
       1820.50        46.9800         2.1628         2.0778       0.400900
       1821.00        43.4900         2.2291         2.0877       0.359400
       1821.50        40.3500         2.2255         2.1129       0.329200
       1822.00        35.9500         2.1895         2.1125       0.344800
       1822.50        33.5600         2.1322         2.1026       0.408100
       1823.00        31.6800         2.0773         2.1000       0.454200
       1823.50        31.6800         2.0481         2.0711       0.464700
       1824.00        32.6800         2.0338         2.0458       0.421100
       1824.50        33.9400         2.0365         2.0260       0.408300
       1825.00        34.6300         2.0604         2.0476       0.417200
       1825.50        33.7500         2.1691         2.0464       0.417300
       1826.00        33.8000         2.2615         2.0300       0.392000
       1826.50        34.8800         2.2112         2.0379       0.372600
       1827.00        36.8300         1.9206         2.0350       0.357200
       1827.50        37.5300         1.7187         2.0256       0.356500
       1828.00        36.3200         1.8173         2.0202       0.372200
       1828.50        33.7500         2.0854         2.0069       0.403400
