~Version Information Block
VERS .                  2.0:  CWLS LOG ASCII STANDARD - VERSION 2.0
WRAP .                   NO:  One line per depth step
~Well Information Block
#MNEM.UNIT        Data Type   Information
#---------- ----------------  -----------
STRT .FT            6114.50:  START DEPTH
STOP .FT           14965.50:  STOP DEPTH
STEP .FT               0.50:  STEP
NULL .              -999.25:  NULL VALUE
COMP .                     :  COMPANY
WELL .               STA-36:  WELL
FLD  .                     :  FIELD
LOC  .                     :  LOCATION
CTRY .                     :  COUNTRY
STAT .                     :  STATE
CNTY .                     :  COUNTY
SRVC .                     :  SERVICE COMPANY
DATE .                     :  DATE
API  .                     :  API NUMBER
UWI  .                     :  UNIQUE WELL ID
~Curve Information Block
#MNEM.UNIT         API CODE   Curve Description
#---------- ----------------  -----------------
DEPTH.FT                   :  Depth
GR   .GAPI                 :  Gamma Ray
RT   .OHMM                 :  True Resistivity
RHOB .G/C3                 :  Bulk Density
NPHI .V/V                  :  Neutron Porosity
~Parameter Information Block
#MNEM.UNIT            Value   Description
#---------- ----------------  -----------
PROJECT.            SANTAN_FE:  
~Other Information Block
# 
~A       DEPTH             GR             RT           RHOB           NPHI 
# ...
      13711.50        47.7790         3.7506         2.4880       0.138300
      13712.00        49.2032         4.0061         2.5029       0.137100
      13712.50        53.0330         4.0874         2.5282       0.135500
      13713.00        55.2346         4.2671         2.5383       0.134900
      13713.50        57.2536         4.4771         2.5293       0.133500
      13714.00        57.2483         5.0158         2.5268       0.128400
      13714.50        57.7840         5.5176         2.5455       0.117800
      13715.00        55.7265         5.9144         2.5712       0.104200
      13715.50        50.9636         5.9230         2.5827       0.095800
      13716.00        49.3504         5.6185         2.5799       0.097100
      13716.50        50.7224         5.0723         2.5682       0.106500
      13717.00        54.2933         4.5205         2.5463       0.119900
      13717.50        54.3090         4.1913         2.5245       0.130100
      13718.00        54.4421         4.1021         2.5081       0.133500
      13718.50        52.8883         4.0525         2.4956       0.133300
      13719.00        56.0966         4.0025         2.4939       0.132700
      13719.50        64.3716         3.9428         2.5090       0.132700
      13720.00        70.0983         3.8942         2.5436       0.134500
      13720.50        78.8586         3.9015         2.5788       0.139600
      13721.00        83.6546         3.8822         2.5950       0.145200
      13721.50        87.9638         3.8571         2.6061       0.151300
      13722.00        92.3037         3.7679         2.6149       0.158100
      13722.50        91.1981         3.6445         2.6153       0.157900
      13723.00        87.2695         3.5016         2.6099       0.147100
      13723.50        79.1622         3.3790         2.5887       0.137300
      13724.00        63.7185         3.2959         2.5580       0.133200
      13724.50        41.3538         3.0419         2.5217       0.133400
      13725.00        30.3867         2.8337         2.4653       0.136800
      13725.50        30.6681         2.7310         2.4221       0.141000
      13726.00        30.6680         2.6625         2.4129       0.146700
      13726.50        33.3849         2.6744         2.4121       0.153600
      13727.00        40.7284         2.7558         2.4119       0.156100
      13727.50        43.7918         2.8709         2.4273       0.150400
      13728.00        46.2829         3.0599         2.4642       0.139200
      13728.50        47.1716         3.2340         2.5069       0.120400
      13729.00        43.4820         3.3764         2.5397       0.112000
      13729.50        42.2269         3.6070         2.5530       0.114300
      13730.00        41.1229         3.6014         2.5442       0.120900
      13730.50        43.8679         3.4740         2.5320       0.131100
      13731.00        46.0773         3.3529         2.5111       0.140900
      13731.50        48.3307         3.3912         2.4822       0.145100
      13732.00        52.8615         3.4430         2.4809       0.148000
      13732.50        57.2183         3.4831         2.4959       0.149600
      13733.00        57.3846         3.4552         2.4958       0.151100
      13733.50        52.0961         3.4052         2.4743       0.153500
      13734.00        52.1743         3.4434         2.4636       0.154000
      13734.50        52.2471         3.4982         2.4764       0.150200
      13735.00        52.9262         3.5677         2.4964       0.143800
      13735.50        56.8358         3.6154         2.5061       0.137700
      13736.00        60.0560         3.6385         2.5009       0.135000
      13736.50        61.9010         3.7284         2.4948       0.135600
      13737.00        66.4824         3.8131         2.5064       0.134500
      13737.50        65.2365         3.9160         2.5327       0.130700
      13738.00        67.1237         3.9973         2.5463       0.128300
      13738.50        65.2193         4.0197         2.5521       0.126900
      13739.00        62.4442         4.0388         2.5552       0.125100
      13739.50        61.2019         4.0426         2.5525       0.125200
      13740.00        63.0801         3.9857         2.5461       0.129000
      13740.50        66.2831         3.9297         2.5471       0.132100
      13741.00        74.0031         3.9027         2.5535       0.133100
      13741.50        76.1316         3.8990         2.5666       0.133800
      13742.00        74.8499         3.8958         2.5824       0.135000
      13742.50        77.9460         3.8824         2.5912       0.136100
      13743.00        73.7130         3.8567         2.5813       0.137500
      13743.50        74.0933         3.8368         2.5655       0.139700
      13744.00        69.3487         3.8692         2.5657       0.140600
      13744.50        65.7795         3.9350         2.5721       0.140400
      13745.00        59.1560         3.9456         2.5662       0.140200
      13745.50        55.9880         3.8168         2.5544       0.139300
      13746.00        57.2407         3.7308         2.5431       0.136800
      13746.50        61.3771         3.6788         2.5312       0.135100
      13747.00        64.1555         3.6499         2.5237       0.134300
      13747.50        56.6647         3.6856         2.5235       0.134300
      13748.00        54.6991         3.8342         2.5266       0.137100
      13748.50        51.6531         3.7112         2.5292       0.141900
      13749.00        48.6396         3.6199         2.5127       0.146200
      13749.50        51.4741         3.6200         2.4751       0.150100
      13750.00        59.0728         3.6292         2.4562       0.152300
      13750.50        64.1550         3.5924         2.4821       0.151000
      13751.00        65.4919         3.5430         2.5227       0.148100
      13751.50        69.9705         3.5160         2.5453       0.144900
      13752.00        69.3528         3.5133         2.5538       0.141900
      13752.50        68.1089         3.5121         2.5561       0.141000
      13753.00        65.9872         3.4944         2.5484       0.141300
      13753.50        61.3208         3.4520         2.5313       0.143200
      13754.00        53.8815         3.3584         2.5006       0.146800
      13754.50        47.9561         3.2503         2.4522       0.148200
      13755.00        42.3093         3.1640         2.4204       0.148500
      13755.50        44.6196         3.1151         2.4172       0.149200
      13756.00        53.1830         3.1027         2.4285       0.147800
      13756.50        59.8600         3.1603         2.4614       0.145300
      13757.00        67.0062         3.2327         2.5029       0.149300
      13757.50        71.5762         3.2541         2.5268       0.159600
      13758.00        74.1237         3.2153         2.5413       0.167900
      13758.50        82.5513         3.0985         2.5681       0.171300
      13759.00        85.4692         2.9957         2.5869       0.173300
      13759.50        90.0690         2.8878         2.5828       0.178100
      13760.00        93.6076         2.7876         2.5785       0.185600
      13760.50        96.9178         2.6879         2.5775       0.190200
      13761.00        93.0427         2.6898         2.5698       0.188700
      13761.50        95.0837         2.7377         2.5641       0.183000
      13762.00        93.8553         2.8318         2.5652       0.172300
      13762.50        88.4136         2.9234         2.5542       0.161300
      13763.00        76.3157         3.2065         2.5273       0.155300
      13763.50        66.6715         3.2671         2.5032       0.156000
      13764.00        66.1661         3.2901         2.4887       0.160700
      13764.50        69.3158         3.2597         2.4903       0.161500
