~Version Information Block
VERS .                  2.0:  CWLS LOG ASCII STANDARD - VERSION 2.0
WRAP .                   NO:  One line per depth step
~Well Information Block
#MNEM.UNIT        Data Type   Information
#---------- ----------------  -----------
STRT .FT            6114.50:  START DEPTH
STOP .FT           14965.50:  STOP DEPTH
STEP .FT               0.50:  STEP
NULL .              -999.25:  NULL VALUE
COMP .                     :  COMPANY
WELL .               STA-36:  WELL
FLD  .                     :  FIELD
LOC  .                     :  LOCATION
CTRY .                     :  COUNTRY
STAT .                     :  STATE
CNTY .                     :  COUNTY
SRVC .                     :  SERVICE COMPANY
DATE .                     :  DATE
API  .                     :  API NUMBER
UWI  .                     :  UNIQUE WELL ID
~Curve Information Block
#MNEM.UNIT         API CODE   Curve Description
#---------- ----------------  -----------------
DEPTH.FT                   :  Depth
GR   .GAPI                 :  Gamma Ray
RT   .OHMM                 :  True Resistivity
RHOB .G/C3                 :  Bulk Density
NPHI .V/V                  :  Neutron Porosity
~Parameter Information Block
#MNEM.UNIT            Value   Description
#---------- ----------------  -----------
PROJECT.            SANTAN_FE:  
~Other Information Block
# 
~A       DEPTH             GR             RT           RHOB           NPHI 
# ...
      11357.50        57.1952         4.8014         2.6088       0.112900
      11358.00        58.5847         4.7206         2.6128       0.114700
      11358.50        60.5198         4.5824         2.6118       0.118900
      11359.00        63.0262         4.3576         2.6086       0.127200
      11359.50        70.7461         3.8427         2.6059       0.139800
      11360.00        75.0822         3.4444         2.6054       0.156100
      11360.50        81.0948         3.0502         2.6061       0.177900
      11361.00        89.4608         2.6419         2.6059       0.196700
      11361.50        93.1485         2.4774         2.6104       0.206000
      11362.00        94.4959         2.4820         2.6193       0.208400
      11362.50        95.8405         2.5090         2.6183       0.199600
      11363.00        93.1160         2.8448         2.6086       0.182400
      11363.50        87.3414         3.7328         2.6033       0.155900
      11364.00        70.5302         5.1895         2.6079       0.120700
      11364.50        51.9835         5.7293         2.6211       0.112000
      11365.00        49.8399         5.0362         2.6304       0.131800
      11365.50        60.9302         4.3152         2.6176       0.153700
      11366.00        69.7351         3.8780         2.5927       0.169300
      11366.50        81.3128         3.5890         2.5745       0.175300
      11367.00        84.5726         3.3068         2.5685       0.170800
      11367.50        88.0248         3.2356         2.5706       0.158800
      11368.00        80.4175         3.3294         2.5741       0.145600
      11368.50        71.7342         3.3231         2.5713       0.140500
      11369.00        70.8405         3.2570         2.5705       0.153000
      11369.50        78.0078         2.7338         2.5801       0.175500
      11370.00        90.0096         2.3702         2.5865       0.193600
      11370.50        93.4620         2.2473         2.5857       0.205300
      11371.00        95.3493         2.2439         2.5841       0.210000
      11371.50        92.7771         2.3097         2.5803       0.204800
      11372.00        88.2766         2.4325         2.5759       0.191800
      11372.50        81.5271         2.5325         2.5744       0.177800
      11373.00        81.9979         2.5736         2.5777       0.177000
      11373.50        86.9968         2.3381         2.5810       0.188200
      11374.00        89.3633         2.1755         2.5864       0.199800
      11374.50        91.0219         2.1681         2.5910       0.205000
      11375.00        89.0993         2.2201         2.5852       0.199300
      11375.50        91.9249         2.3249         2.5743       0.189200
      11376.00        86.8975         2.5403         2.5665       0.179400
      11376.50        84.9907         2.6921         2.5641       0.167900
      11377.00        80.4218         2.8459         2.5710       0.152500
      11377.50        73.7852         3.2909         2.5837       0.149800
      11378.00        68.3786         3.8053         2.5812       0.153900
      11378.50        64.6849         3.8797         2.5603       0.156200
      11379.00        62.3505         3.8109         2.5319       0.155900
      11379.50        61.3509         3.7502         2.5012       0.154700
      11380.00        58.8428         3.7387         2.4825       0.155400
      11380.50        57.7579         3.8103         2.4861       0.159600
      11381.00        58.5333         3.8431         2.5030       0.166700
      11381.50        61.8557         3.6107         2.5222       0.176500
      11382.00        65.0729         3.2047         2.5300       0.186100
      11382.50        73.8733         2.8627         2.5301       0.193100
      11383.00        80.2373         2.6666         2.5348       0.201600
      11383.50        83.5487         2.5551         2.5451       0.214800
      11384.00        85.5241         2.5234         2.5592       0.224800
      11384.50        92.3911         2.3503         2.5741       0.226100
      11385.00       100.2005         2.0185         2.5837       0.224500
      11385.50        99.5343         1.9652         2.5832       0.222100
      11386.00       102.6071         1.8653         2.5792       0.218000
      11386.50       106.2464         1.8646         2.5851       0.216700
      11387.00       104.4195         1.8182         2.5929       0.219300
      11387.50       101.2986         1.7733         2.6020       0.224200
      11388.00       100.2419         1.7878         2.6041       0.232400
      11388.50        99.8890         1.7777         2.5985       0.244000
      11389.00        99.8904         1.7724         2.5977       0.252600
      11389.50       100.7802         1.7732         2.6027       0.255900
      11390.00       103.9497         1.6574         2.6019       0.260000
      11390.50       105.9888         1.6325         2.5989       0.265100
      11391.00       109.2466         1.7307         2.6027       0.259100
      11391.50       107.8029         1.7814         2.6049       0.233400
      11392.00       104.9386         1.9237         2.5972       0.193900
      11392.50        96.2456         2.2064         2.5838       0.157000
      11393.00        78.2005         2.8223         2.5746       0.134300
      11393.50        62.8283         3.4838         2.5644       0.127600
      11394.00        52.5936         3.7870         2.5275       0.132800
      11394.50        47.1986         3.9569         2.4771       0.139900
      11395.00        46.3388         3.9857         2.4596       0.142400
      11395.50        47.4709         3.9682         2.4656       0.141300
      11396.00        48.2521         3.9775         2.4741       0.139400
      11396.50        50.3191         3.9779         2.4834       0.138000
      11397.00        51.2186         3.9743         2.4875       0.137200
      11397.50        55.1154         3.9468         2.4909       0.137500
      11398.00        60.8982         3.9081         2.5082       0.139500
      11398.50        64.4457         3.8674         2.5314       0.143000
      11399.00        66.7748         3.8108         2.5413       0.146100
      11399.50        68.7821         3.7490         2.5440       0.148700
      11400.00        69.4507         3.7232         2.5491       0.150900
      11400.50        75.5655         3.6449         2.5442       0.152400
      11401.00        71.5886         3.6032         2.5346       0.153500
      11401.50        71.8466         3.5695         2.5415       0.154100
      11402.00        73.0978         3.5112         2.5573       0.152700
      11402.50        74.7305         3.5392         2.5651       0.149000
      11403.00        74.5421         3.5432         2.5687       0.147100
      11403.50        74.2419         3.5728         2.5775       0.151800
      11404.00        72.2557         3.5483         2.5927       0.155600
      11404.50        75.9009         3.3360         2.6049       0.154800
      11405.00        77.3876         3.3127         2.6061       0.153100
      11405.50        76.7731         3.2102         2.5982       0.157100
      11406.00        77.1312         3.0475         2.5853       0.167600
      11406.50        81.0924         2.9352         2.5757       0.178500
      11407.00        83.3138         2.8991         2.5754       0.181500
      11407.50        83.0783         2.9031         2.5727       0.169400
      11408.00        79.7827         2.9964         2.5583       0.146200
      11408.50        71.9621         3.1668         2.5497       0.126200
      11409.00        59.3828         3.7451         2.5588       0.121000
      11409.50        53.1337         4.2310         2.5703       0.133300
      11410.00        49.4692         4.0544         2.5567       0.153300
      11410.50        45.6355         3.6987         2.5009       0.164600
