~Version Information Block
VERS .                  2.0:  CWLS LOG ASCII STANDARD - VERSION 2.0
WRAP .                   NO:  One line per depth step
~Well Information Block
#MNEM.UNIT        Data Type   Information
#---------- ----------------  -----------
STRT .FT             224.00:  START DEPTH
STOP .FT            7977.50:  STOP DEPTH
STEP .FT               0.50:  STEP
NULL .              -999.25:  NULL VALUE
COMP .                     :  COMPANY
WELL .               STA-22:  WELL
FLD  .                     :  FIELD
LOC  .                     :  LOCATION
CTRY .                     :  COUNTRY
STAT .                     :  STATE
CNTY .                     :  COUNTY
SRVC .                     :  SERVICE COMPANY
DATE .                     :  DATE
API  .                     :  API NUMBER
UWI  .                     :  UNIQUE WELL ID
~Curve Information Block
#MNEM.UNIT         API CODE   Curve Description
#---------- ----------------  -----------------
DEPTH.FT                   :  DEPTH
GR   .GAPI                 :  Gamma Ray
RT   .OHMM                 :  RESDE
RHOB .G/C3                 :  Bulk Density
NPHI .V/V                  :  Thermal Neutron Porosity (Ratio Method) in Selected Lithology
~Parameter Information Block
#MNEM.UNIT            Value   Description
#---------- ----------------  -----------
PROJECT.            SANTAN_FE:  
~Other Information Block
# 
~A       DEPTH             GR             RT           RHOB           NPHI 
# ...
       7928.00        49.6200         3.7912         2.3500       0.222400
       7928.50        48.7000         3.9827         2.3590       0.218200
       7929.00        51.0200         4.0328         2.3600       0.220800
       7929.50        53.3300         3.9840         2.3678       0.225700
       7930.00        54.7300         3.8520         2.3700       0.231400
       7930.50        57.9700         3.6337         2.3832       0.238800
       7931.00        64.4700         3.2934         2.4020       0.251100
       7931.50        71.4200         2.8596         2.4263       0.268900
       7932.00        75.1300         2.5639         2.4400       0.290300
       7932.50        73.7400         2.5019         2.4400       0.306100
       7933.00        70.5500         2.5869         2.4400       0.307100
       7933.50        71.5500         2.5344         2.4431       0.298900
       7934.00        78.5100         2.2896         2.4550       0.293200
       7934.50        89.1200         1.9779         2.4757       0.294300
       7935.00        92.2900         1.8064         2.4987       0.303200
       7935.50        89.5100         1.9088         2.4900       0.315300
       7936.00        85.6300         2.2105         2.4899       0.323900
       7936.50        87.4900         2.3234         2.4801       0.322800
       7937.00        89.8000         2.3733         2.4893       0.315600
       7937.50        90.4700         2.4266         2.4400       0.317700
       7938.00        89.5500         2.4202         2.4399       0.325100
       7938.50        88.6200         2.3833         2.4300       0.330800
       7939.00        86.7300         2.3900         2.4300       0.333800
       7939.50        83.4800         2.4192         2.4296       0.340900
       7940.00        80.2300         2.4994         2.4001       0.347200
       7940.50        78.3800         2.5818         2.4099       0.343300
       7941.00        76.9900         2.7498         2.4000       0.330300
       7941.50        74.9400         2.9929         2.4000       0.315400
       7942.00        70.2400         3.2257         2.4001       0.302200
       7942.50        63.1400         3.4842         2.4106    -999.250000
       7943.00        56.2400         3.7742         2.4592    -999.250000
       7943.50        51.2000         4.0344         2.3991    -999.250000
       7944.00        50.2200         4.2401         2.3291    -999.250000
       7944.50        51.2800         4.3147         2.2603    -999.250000
       7945.00        53.6100         4.2313         2.2805    -999.250000
       7945.50        54.2700         4.0776         2.3200    -999.250000
       7946.00        55.2000         3.9348      -999.2500    -999.250000
       7946.50        56.2300         3.7701      -999.2500    -999.250000
       7947.00        60.4000         3.5705      -999.2500    -999.250000
       7947.50        68.7500         3.3204      -999.2500    -999.250000
       7948.00        83.0200         2.9188      -999.2500    -999.250000
       7948.50        98.3200         2.5449      -999.2500    -999.250000
       7949.00       109.9500         2.4309      -999.2500    -999.250000
       7949.50       112.3300         2.3658      -999.2500    -999.250000
       7950.00       105.7700         2.5751      -999.2500    -999.250000
       7950.50        89.1600         3.0771      -999.2500    -999.250000
       7951.00        66.8400         3.2874      -999.2500    -999.250000
       7951.50        45.5800         4.1720      -999.2500    -999.250000
       7952.00        31.5400         5.8007      -999.2500    -999.250000
       7952.50        25.9700         7.4949      -999.2500    -999.250000
       7953.00        25.0400         8.9740      -999.2500    -999.250000
       7953.50        24.5800         9.1569      -999.2500    -999.250000
       7954.00        23.1900         8.9082      -999.2500    -999.250000
       7954.50        21.8000         8.4241      -999.2500    -999.250000
       7955.00        23.1900         7.2361      -999.2500    -999.250000
       7955.50        28.3600         5.5328      -999.2500    -999.250000
       7956.00        35.3100         3.9829      -999.2500    -999.250000
       7956.50        38.8900         2.7227      -999.2500    -999.250000
       7957.00        36.9600         2.2482      -999.2500    -999.250000
       7957.50        34.6700         1.9822      -999.2500    -999.250000
       7958.00        37.1300         1.9962      -999.2500    -999.250000
       7958.50        43.9600         2.1539      -999.2500    -999.250000
       7959.00        46.2500         2.3304      -999.2500    -999.250000
       7959.50        39.7600         2.3697      -999.2500    -999.250000
       7960.00        28.7500         2.2748      -999.2500    -999.250000
       7960.50        21.0800         2.0901      -999.2500    -999.250000
       7961.00        18.7600         1.8053      -999.2500    -999.250000
       7961.50        18.5900         1.6503      -999.2500    -999.250000
       7962.00        17.6000         1.5876      -999.2500    -999.250000
       7962.50        16.9600         1.5849      -999.2500    -999.250000
       7963.00        16.6700         1.6000      -999.2500    -999.250000
       7963.50        17.4500         1.5976      -999.2500    -999.250000
       7964.00        17.1600         1.5948      -999.2500    -999.250000
       7964.50        18.2900         1.6218      -999.2500    -999.250000
       7965.00        20.1500         1.7021      -999.2500    -999.250000
       7965.50        21.5300         1.8377      -999.2500    -999.250000
       7966.00        21.9300         1.8069      -999.2500    -999.250000
       7966.50        23.7900         1.7666      -999.2500    -999.250000
       7967.00        31.6800         1.9489      -999.2500    -999.250000
       7967.50        45.1100         2.1995      -999.2500    -999.250000
       7968.00        61.0800         2.3432      -999.2500    -999.250000
       7968.50        73.3500         2.2124      -999.2500    -999.250000
       7969.00        78.3300         2.0734      -999.2500    -999.250000
       7969.50        73.9500         2.1024      -999.2500    -999.250000
       7970.00        63.4600         2.3570      -999.2500    -999.250000
       7970.50        52.6200         2.5893      -999.2500    -999.250000
       7971.00      -999.2500         2.5692      -999.2500    -999.250000
       7971.50      -999.2500         2.5830      -999.2500    -999.250000
       7972.00      -999.2500         2.3136      -999.2500    -999.250000
       7972.50      -999.2500         2.0669      -999.2500    -999.250000
       7973.00      -999.2500         1.9030      -999.2500    -999.250000
       7973.50      -999.2500         1.7539      -999.2500    -999.250000
       7974.00      -999.2500         1.7401      -999.2500    -999.250000
       7974.50      -999.2500         1.7960      -999.2500    -999.250000
       7975.00      -999.2500         1.8878      -999.2500    -999.250000
       7975.50      -999.2500         2.0923      -999.2500    -999.250000
       7976.00      -999.2500         2.5945      -999.2500    -999.250000
       7976.50      -999.2500         3.4271      -999.2500    -999.250000
       7977.00      -999.2500         4.6008      -999.2500    -999.250000
       7977.50      -999.2500         3.8753      -999.2500    -999.250000
