~Version Information Block
VERS .                  2.0:  CWLS LOG ASCII STANDARD - VERSION 2.0
WRAP .                   NO:  One line per depth step
~Well Information Block
#MNEM.UNIT        Data Type   Information
#---------- ----------------  -----------
STRT .FT            4880.50:  START DEPTH
STOP .FT           10428.00:  STOP DEPTH
STEP .FT               0.50:  STEP
NULL .              -999.25:  NULL VALUE
COMP .                     :  COMPANY
WELL .                STA-3:  WELL
FLD  .                     :  FIELD
LOC  .                     :  LOCATION
CTRY .                     :  COUNTRY
STAT .                     :  STATE
CNTY .                     :  COUNTY
SRVC .                     :  SERVICE COMPANY
DATE .                     :  DATE
API  .                     :  API NUMBER
UWI  .                     :  UNIQUE WELL ID
~Curve Information Block
#MNEM.UNIT         API CODE   Curve Description
#---------- ----------------  -----------------
DEPTH.FT                   :  DEPTH
GR   .GAPI                 :  Gamma Ray
RT   .OHMM                 :  Deep resistivity
RHOB .G/C3                 :  Bulk Density
NPHI .V/V                  :  Neutron porosity
DT   .US/F                 :  Sonic
~Parameter Information Block
#MNEM.UNIT            Value   Description
#---------- ----------------  -----------
PROJECT.            SANTAN_FE:  
~Other Information Block
# 
~A       DEPTH             GR             RT           RHOB           NPHI             DT 
# ...
       8930.00        84.3031         4.6729         2.5965       0.180700        78.7000
       8930.50        81.6101         4.0800         2.5905       0.182200        78.8500
       8931.00        87.8454         4.0064         2.5690       0.195800        79.3500
       8931.50        89.8806         3.5552         2.5646       0.196300        79.6000
       8932.00        92.8267         3.8263         2.5907       0.193900        79.2000
       8932.50        90.2287         4.1896         2.6000       0.190800        79.2000
       8933.00        94.8269         4.0590         2.5982       0.202700        79.4000
       8933.50        97.4190         3.6306         2.5793       0.221900        80.2500
       8934.00       104.9255         3.3546         2.5901       0.231500        81.8500
       8934.50       104.8544         3.2923         2.5955       0.243300        82.5500
       8935.00       102.9573         3.3063         2.5811       0.235900        82.9000
       8935.50       100.3828         3.2147         2.5648       0.235100        82.9000
       8936.00        99.1893         3.1744         2.5619       0.228700        82.9500
       8936.50       103.5114         3.2564         2.5539       0.232100        83.2500
       8937.00       104.3543         3.2060         2.5461       0.239400        83.6000
       8937.50       108.0259         2.9549         2.5438       0.235200        84.8000
       8938.00       110.7002         2.7123         2.5455       0.238100        85.4000
       8938.50       113.9122         2.6131         2.5652       0.238200        86.5000
       8939.00       113.2890         2.5442         2.5750       0.240800        86.5500
       8939.50       110.4467         2.4960         2.5776       0.233100        86.6500
       8940.00       114.1562         2.5321         2.5570       0.235100        86.8000
       8940.50       117.6025         2.5124         2.5641       0.238200        86.8000
       8941.00       121.4305         2.5136         2.5665       0.249600        87.8000
       8941.50       117.3710         2.5367         2.5674       0.255100        87.6500
       8942.00       118.8658         2.5053         2.5561       0.255800        88.3500
       8942.50       115.6753         2.5132         2.5500       0.258300        88.3500
       8943.00       117.5278         2.6288         2.5492       0.263000        88.2000
       8943.50       112.6102         2.8222         2.5382       0.267300        88.3000
       8944.00       114.4249         2.5206         2.5489       0.276800        88.3000
       8944.50       117.5808         2.3920         2.5569       0.273700        88.7000
       8945.00       122.3102         2.5314         2.5544       0.273800        89.1500
       8945.50       120.2886         2.6545         2.5670       0.266300        89.4000
       8946.00       118.0390         2.5843         2.5725       0.268400        88.8000
       8946.50       112.4604         2.6267         2.5745       0.279700        89.3000
       8947.00       116.3462         2.7394         2.5449       0.280600        88.6000
       8947.50       109.7700         2.6818         2.5216       0.262300        87.4500
       8948.00        97.1179         2.7561         2.4910       0.241500        85.8500
       8948.50        73.2946         3.3922         2.4539       0.221800        83.6000
       8949.00        54.6961         3.9149         2.4506       0.206800        78.5500
       8949.50        47.9857         3.9652         2.4889       0.172500        74.9000
       8950.00        46.0450         7.3716         2.5408       0.144800        70.8000
       8950.50        44.3893         7.0769         2.5835       0.114500        68.1500
       8951.00        43.4810        11.9348         2.6091       0.097100        66.6500
       8951.50        40.8385        12.7611         2.6219       0.087400        65.5000
       8952.00        41.0080        15.5620         2.6166       0.088800        64.3500
       8952.50        39.1015        13.7683         2.6033       0.104200        64.4000
       8953.00        41.1929        13.9005         2.5452       0.124300        67.6000
       8953.50        46.2951         5.5219         2.4708       0.154700        73.0000
       8954.00        48.4288         4.4817         2.4017       0.174600        80.2000
       8954.50        53.8962         3.8091         2.3608       0.200900        83.4000
       8955.00        48.1988         3.6583         2.3358       0.220100        84.0500
       8955.50        50.4832         3.7834         2.3505       0.230800        85.9500
       8956.00        49.8185         3.7227         2.3942       0.217300        85.9000
       8956.50        62.6235         3.8469         2.4392       0.204400        85.5000
       8957.00        76.5089         3.6161         2.4981       0.197700        84.4000
       8957.50        87.2010         3.5951         2.5420       0.204200        83.0000
       8958.00        89.8148         3.7496         2.5404       0.201300        82.1500
       8958.50        90.4784         3.7972         2.5445       0.207900        82.3500
       8959.00        91.9687         3.5022         2.5494       0.208200        83.5000
       8959.50       100.0985         2.8823         2.5601       0.227000        84.2000
       8960.00       104.7628         2.6767         2.5685       0.240900        85.0500
       8960.50       108.6912         2.5904         2.5745       0.256100        85.6000
       8961.00       113.0528         2.8021         2.5595       0.262200        87.0000
       8961.50       112.7127         2.6017         2.5519       0.262900        87.3500
       8962.00       108.1160         2.2703         2.5571       0.257200        85.6500
       8962.50        94.0190         2.5243         2.5546       0.238200        83.0000
       8963.00        79.3194         3.9567         2.5699       0.204400        78.8000
       8963.50        69.8679         4.8396         2.5654       0.183600        74.1000
       8964.00        63.6464         5.3743         2.5934       0.155900        70.2000
       8964.50        58.0690         7.3685         2.5945       0.128000        68.0000
       8965.00        53.9692        12.6611         2.5858       0.100100        66.5000
       8965.50        53.5609        11.0625         2.5680       0.106100        68.3000
       8966.00        62.0052         6.5965         2.5557       0.127400        71.4000
       8966.50        73.1123         5.4231         2.5395       0.153300        74.5000
       8967.00        78.8409         4.2498         2.5475       0.168500        76.1500
       8967.50        76.3492         4.3673         2.5530       0.173200        76.8500
       8968.00        71.1508         4.8566         2.5354       0.164000        76.4500
       8968.50        68.7737         4.7591         2.5331       0.151700        75.6000
       8969.00        73.0776         6.0528         2.5371       0.139200        74.9500
       8969.50        75.8421         6.2593         2.5501       0.138700        74.9000
       8970.00        80.5357         6.4941         2.5588       0.148300        74.8000
       8970.50        83.3253         4.9421         2.5607       0.182500        75.3500
       8971.00        86.6448         4.3835         2.5525       0.212200        77.1500
       8971.50        87.4977         4.1191         2.5379       0.237400        77.8000
       8972.00        85.6609         3.2278         2.5556       0.212100        75.1500
       8972.50        82.4997         4.9634         2.5996       0.179300        76.0000
       8973.00        89.8434         6.4279         2.6076       0.167800        75.9000
       8973.50        99.6118         4.3165         2.6005       0.174800        75.1000
       8974.00       107.5344        10.1805         2.5918       0.179500        76.6000
