~Version Information Block
VERS .                  2.0:  CWLS LOG ASCII STANDARD - VERSION 2.0
WRAP .                   NO:  One line per depth step
~Well Information Block
#MNEM.UNIT        Data Type   Information
#---------- ----------------  -----------
STRT .FT            3811.50:  START DEPTH
STOP .FT            9515.50:  STOP DEPTH
STEP .FT               0.50:  STEP
NULL .              -999.25:  NULL VALUE
COMP .                     :  COMPANY
WELL .                STA-6:  WELL
FLD  .                     :  FIELD
LOC  .                     :  LOCATION
CTRY .                     :  COUNTRY
STAT .                     :  STATE
CNTY .                     :  COUNTY
SRVC .                     :  SERVICE COMPANY
DATE .                     :  DATE
API  .                     :  API NUMBER
UWI  .                     :  UNIQUE WELL ID
~Curve Information Block
#MNEM.UNIT         API CODE   Curve Description
#---------- ----------------  -----------------
DEPTH.FT                   :  DEPTH
GR   .GAPI                 :  Gamma Ray
RT   .OHMM                 :  Deep resistivity
RHOB .G/C3                 :  Bulk Density
NPHI .V/V                  :  Neutron porosity
DT   .US/F                 :  Sonic
~Parameter Information Block
#MNEM.UNIT            Value   Description
#---------- ----------------  -----------
PROJECT.            SANTAN_FE:  
~Other Information Block
# 
~A       DEPTH             GR             RT           RHOB           NPHI             DT 
# ...
       8706.50       114.9800         2.2400         2.5300       0.230000        89.3500
       8707.00       118.2100         2.0800         2.5300       0.240000        90.3500
       8707.50       123.8800         2.0300         2.5300       0.250000        90.4000
       8708.00       120.9500         1.9500         2.5300       0.260000        91.1500
       8708.50       117.4100         1.9000         2.5300       0.260000        91.2000
       8709.00       118.4800         1.9900         2.5200       0.260000        90.6500
       8709.50       120.6500         2.1200         2.5100       0.260000        88.6000
       8710.00       115.6600         2.3700         2.5400       0.250000        82.9000
       8710.50       101.0100         3.1500         2.5900       0.210000        75.6500
       8711.00        84.7600         3.3100         2.5900       0.190000        72.5000
       8711.50        82.4400         2.8800         2.5000       0.180000        73.0000
       8712.00        84.6400         2.7300         2.4500       0.200000        79.2000
       8712.50        98.5300         2.6000         2.4500       0.200000        87.6500
       8713.00       107.0200         2.5700         2.4700       0.230000        90.3000
       8713.50       123.2800         2.6600         2.4500       0.240000        91.7000
       8714.00       139.3800         2.6600         2.4300       0.260000        94.7000
       8714.50       146.0900         2.3200         2.4400       0.260000        96.1000
       8715.00       143.7100         1.9000         2.4600       0.260000        94.3000
       8715.50       132.9900         1.9700         2.4800       0.250000        92.3500
       8716.00       133.4100         2.0600         2.5000       0.250000        90.2000
       8716.50       128.6000         2.5100         2.5100       0.230000        88.2500
       8717.00       122.0500         2.7900         2.5100       0.220000        87.0000
       8717.50       120.4400         2.7100         2.5200       0.220000        86.5000
       8718.00       119.0300         2.5200         2.5200       0.230000        87.6000
       8718.50       116.5100         2.3100         2.5300       0.240000        89.0000
       8719.00       108.9300         2.1200         2.5400       0.250000        89.9000
       8719.50       107.1900         2.2100         2.5400       0.240000        89.9000
       8720.00       111.7200         2.4700         2.5400       0.250000        89.4000
       8720.50       113.4800         2.3400         2.5400       0.230000        87.2000
       8721.00       107.5300         2.6600         2.5400       0.230000        85.9000
       8721.50       104.3000         2.9200         2.5100       0.220000        86.1500
       8722.00       108.9000         2.1900         2.5200       0.230000        88.4500
       8722.50       118.9400         1.7200         2.5100       0.250000        92.5000
       8723.00       125.1000         1.7700         2.5100       0.270000        94.8000
       8723.50       126.3900         1.7600         2.5000       0.290000        95.6000
       8724.00       126.8600         1.8300         2.5000       0.300000        94.5000
       8724.50       126.3200         1.8100         2.5200       0.290000        93.8000
       8725.00       123.0200         1.8200         2.5400       0.280000        93.1500
       8725.50       130.7700         1.8700         2.5500       0.260000        92.1000
       8726.00       133.0400         1.9700         2.5300       0.270000        92.2000
       8726.50       138.3400         1.9400         2.5200       0.270000        92.8000
       8727.00       126.3800         1.8800         2.5200       0.270000        92.5500
       8727.50       119.8000         1.8900         2.5100       0.260000        93.1500
       8728.00       114.4400         1.8700         2.5200       0.260000        93.3500
       8728.50       124.0900         1.7200         2.5000       0.260000        92.5000
       8729.00       128.3400         1.7200         2.5300       0.270000        91.8000
       8729.50       126.7500         1.8200         2.5400       0.270000        94.3000
       8730.00       118.8300         1.7500         2.5400       0.270000        94.9500
       8730.50       121.1100         1.6700         2.5300       0.270000        95.6000
       8731.00       118.5500         1.6800         2.5300       0.280000        96.6500
       8731.50       124.9600         1.6400         2.5300       0.280000        95.4000
       8732.00       122.1600         1.6200         2.5200       0.300000        95.6000
       8732.50       128.8500         1.5400         2.5200       0.290000        95.8000
       8733.00       126.8300         1.4900         2.5000       0.300000        96.2000
       8733.50       129.0200         1.4600         2.5100       0.290000        97.8000
       8734.00       129.2800         1.5100         2.5200       0.290000        98.6000
       8734.50       130.1900         1.4900         2.5400       0.290000        98.6000
       8735.00       131.3300         1.4800         2.5200       0.300000        98.3500
       8735.50       127.9500         1.4900         2.5200       0.300000        99.4000
       8736.00       127.9000         1.4100         2.5100       0.300000        99.6000
       8736.50       128.6600         1.3800         2.5200       0.310000        99.8000
       8737.00       127.7100         1.4400         2.5100       0.300000        99.7000
       8737.50       125.3800         1.4200         2.5300       0.300000        99.9000
       8738.00       127.6200         1.4000         2.5300       0.290000       100.6000
       8738.50       126.0600         1.3800         2.5300       0.280000       101.5000
       8739.00       128.3100         1.3700         2.5300       0.290000       101.5000
       8739.50       124.8900         1.3300         2.5300       0.290000       101.5500
       8740.00       129.8800         1.3500         2.5300       0.300000       100.9500
       8740.50       131.3700         1.3500         2.5400       0.320000       100.9000
       8741.00       134.7900         1.3200         2.5400       0.320000       101.0000
       8741.50       129.6400         1.3400         2.5300       0.320000        99.6000
       8742.00       128.8700         1.3600         2.5300       0.300000       101.1500
       8742.50       126.4900         1.3300         2.5400       0.320000       101.0000
       8743.00       134.5500         1.3400         2.5300       0.320000       100.9000
       8743.50       136.6900         1.4200         2.5300       0.310000       100.2000
       8744.00       136.7300         1.4400         2.5400       0.300000        97.9000
       8744.50       131.1800         1.5200         2.5600       0.290000        94.2000
       8745.00       115.3800         1.7800         2.5900       0.260000        87.0000
       8745.50        92.5200         3.2300         2.5900       0.200000        81.7500
       8746.00        70.3600         4.7200         2.5100       0.170000        78.5000
       8746.50        58.9400         3.4400         2.4100       0.180000        79.8000
       8747.00        59.4800         2.6600         2.3600       0.200000        84.7000
       8747.50        62.4500         2.4000         2.3700       0.200000        86.1500
       8748.00        64.9400         2.6100         2.3800       0.210000        87.4500
       8748.50        66.3000         2.9100         2.4100       0.200000        87.7000
       8749.00        74.5900         3.0300         2.4300       0.200000        86.9000
       8749.50        78.7600         2.9400         2.4600       0.200000        86.1000
       8750.00        92.6300         2.9000         2.4800       0.200000        86.3000
       8750.50        96.3800         2.7800         2.4900       0.200000        86.9000
