~Version Information Block
VERS .                  2.0:  CWLS LOG ASCII STANDARD - VERSION 2.0
WRAP .                   NO:  One line per depth step
~Well Information Block
#MNEM.UNIT        Data Type   Information
#---------- ----------------  -----------
STRT .FT            3811.50:  START DEPTH
STOP .FT            9515.50:  STOP DEPTH
STEP .FT               0.50:  STEP
NULL .              -999.25:  NULL VALUE
COMP .                     :  COMPANY
WELL .                STA-6:  WELL
FLD  .                     :  FIELD
LOC  .                     :  LOCATION
CTRY .                     :  COUNTRY
STAT .                     :  STATE
CNTY .                     :  COUNTY
SRVC .                     :  SERVICE COMPANY
DATE .                     :  DATE
API  .                     :  API NUMBER
UWI  .                     :  UNIQUE WELL ID
~Curve Information Block
#MNEM.UNIT         API CODE   Curve Description
#---------- ----------------  -----------------
DEPTH.FT                   :  DEPTH
GR   .GAPI                 :  Gamma Ray
RT   .OHMM                 :  Deep resistivity
RHOB .G/C3                 :  Bulk Density
NPHI .V/V                  :  Neutron porosity
DT   .US/F                 :  Sonic
~Parameter Information Block
#MNEM.UNIT            Value   Description
#---------- ----------------  -----------
PROJECT.            SANTAN_FE:  
~Other Information Block
# 
~A       DEPTH             GR             RT           RHOB           NPHI             DT 
# ...
       6570.50        87.1600         1.4200         2.2900       0.400000       106.7000
       6571.00        95.6200         1.3500         2.3000       0.390000       117.3500
       6571.50        99.0700         1.2500         2.3200       0.370000       119.0500
       6572.00        96.2500         1.2300         2.2900       0.350000       118.6500
       6572.50        88.0400         1.3000         2.2900       0.340000       117.1500
       6573.00        84.4400         1.4200         2.2700       0.340000       114.5500
       6573.50        82.0600         1.5600         2.2600       0.340000       112.4500
       6574.00        83.4300         1.6500         2.2600       0.350000       110.9000
       6574.50        85.9300         1.6500         2.2700       0.350000       111.3500
       6575.00        87.5300         1.5900         2.2600       0.350000       113.9000
       6575.50        86.6400         1.5100         2.2400       0.360000       115.4500
       6576.00        87.7500         1.4400         2.2200       0.360000       116.2000
       6576.50        93.9100         1.3400         2.2200       0.350000       116.8000
       6577.00        98.9300         1.2800         2.2300       0.360000       115.3000
       6577.50       100.1500         1.2500         2.2400       0.370000       114.4000
       6578.00        98.0700         1.2400         2.2400       0.370000       113.8000
       6578.50        97.5400         1.2700         2.2400       0.350000       113.6000
       6579.00        96.7300         1.2800         2.2400       0.340000       113.8500
       6579.50        95.2400         1.2900         2.2400       0.340000       114.3000
       6580.00        93.7500         1.3200         2.2400       0.360000       114.9000
       6580.50        94.9400         1.3300         2.2400       0.400000       117.0500
       6581.00        97.6200         1.3300         2.2200       0.410000       116.8000
       6581.50       101.9400         1.3300         2.2300       0.400000       116.4000
       6582.00       103.5800         1.2800         2.2600       0.390000       116.5000
       6582.50       103.9900         1.2700         2.2800       0.400000       116.8500
       6583.00       105.7300         1.2600         2.2800       0.420000       118.0000
       6583.50       104.3300         1.2600         2.2700       0.420000       118.0500
       6584.00       104.1100         1.2400         2.2700       0.420000       119.1000
       6584.50       107.0000         1.2300         2.2700       0.390000       120.6000
       6585.00       112.2700         1.2100         2.2800       0.380000       120.6500
       6585.50       115.8300         1.2000         2.2700       0.380000       121.5000
       6586.00       114.4900         1.1700         2.2800       0.370000       121.5000
       6586.50       115.2500         1.1600         2.2800       0.380000       121.6000
       6587.00       122.5400         1.1600         2.3100       0.380000       121.4000
       6587.50       121.1700         1.1400         2.3200       0.410000       121.8000
       6588.00       119.2000         1.1300         2.3300       0.410000       121.3500
       6588.50       114.0600         1.1200         2.3100       0.410000       121.9000
       6589.00       118.2300         1.1600         2.3000       0.390000       122.3000
       6589.50       122.0500         1.1400         2.2900       0.390000       121.7500
       6590.00       123.2000         1.1200         2.3000       0.390000       121.3000
       6590.50       119.6300         1.1400         2.2900       0.400000       122.3000
       6591.00       118.4000         1.0800         2.2900       0.420000       121.7500
       6591.50       120.3700         1.0700         2.2900       0.440000       123.9000
       6592.00       121.0800         1.0600         2.2900       0.440000       120.9000
       6592.50       121.9900         1.0500         2.2700       0.440000       121.9000
       6593.00       118.3800         1.0400         2.2700       0.440000       121.1000
       6593.50       120.2000         1.0300         2.2800       0.460000       122.2000
       6594.00       115.8500         1.0300         2.2800       0.450000       119.7500
       6594.50       113.5100         1.0700         2.2700       0.460000       117.5500
       6595.00       103.6600         1.1200         2.2600       0.430000       106.0000
       6595.50        92.5700         1.3200         2.2700       0.400000        93.5500
       6596.00        82.9000         2.0900         2.2700       0.330000        85.6000
       6596.50        85.4000         2.4300         2.2600       0.300000        84.6000
       6597.00        96.9300         2.1500         2.2300       0.340000        87.7500
       6597.50       109.7300         1.6900         2.2100       0.390000        98.4000
       6598.00       115.1600         1.3200         2.2100       0.410000       115.1500
       6598.50       121.3300         1.2100         2.2200       0.410000       118.5500
       6599.00       132.3900         1.0900         2.2300       0.400000       117.0000
       6599.50       150.9800         0.9700         2.2300       0.410000       118.1000
       6600.00       170.6500         0.9500         2.2300       0.400000       119.3500
       6600.50       173.2500         0.9200         2.2200       0.380000       120.4500
       6601.00       164.7200         0.9000         2.2300       0.350000       121.7000
       6601.50       142.4600         0.9000         2.2300       0.340000       119.5000
       6602.00       132.2500         0.9900         2.2400       0.350000       118.1000
       6602.50       121.5400         1.1200         2.2500       0.360000       116.5000
       6603.00       116.5600         1.2100         2.2600       0.380000       117.4000
       6603.50       111.8600         1.2300         2.2700       0.390000       117.4000
       6604.00       113.1700         1.2100         2.2700       0.370000       117.2000
       6604.50       118.0900         1.2500         2.2800       0.360000       116.0500
       6605.00       118.6200         1.3900         2.2700       0.360000       115.2500
       6605.50       121.0400         1.6900         2.2300       0.380000       115.1000
       6606.00       124.3200         1.4600         2.1800       0.390000       117.5500
       6606.50       122.6100         1.4100         2.1500       0.380000       121.2500
       6607.00       116.1600         1.3700         2.1600       0.360000       121.6000
       6607.50       111.9900         1.3500         2.1700       0.360000       120.8000
       6608.00       101.5500         1.3300         2.1700       0.350000       117.9000
       6608.50       102.2700         1.3900         2.1600       0.360000       116.3000
       6609.00        94.5200         1.5000         2.1500       0.350000       114.8000
       6609.50        97.2000         1.5100         2.1400       0.360000       114.9000
       6610.00        93.2800         1.5700         2.1400       0.360000       113.8500
       6610.50        95.9700         1.6200         2.1400       0.360000       113.1000
       6611.00        95.8200         1.5500         2.1700       0.360000       112.3000
       6611.50        91.7800         1.4800         2.1800       0.360000       107.8500
       6612.00        93.2700         1.4400         2.1800       0.350000       111.8500
       6612.50        98.4900         1.4500         2.1700       0.330000       111.4000
       6613.00       106.8800         1.4500         2.1500       0.330000       110.5000
       6613.50       105.8700         1.4600         2.1300       0.340000       112.6000
       6614.00       108.2200         1.4500         2.1500       0.360000       115.8000
       6614.50       107.0700         1.3700         2.1800       0.350000       118.6000
