~Version Information Block
VERS .                  2.0:  CWLS LOG ASCII STANDARD - VERSION 2.0
WRAP .                   NO:  One line per depth step
~Well Information Block
#MNEM.UNIT        Data Type   Information
#---------- ----------------  -----------
STRT .FT             350.00:  START DEPTH
STOP .FT           16021.50:  STOP DEPTH
STEP .FT               0.50:  STEP
NULL .              -999.25:  NULL VALUE
COMP .                     :  COMPANY
WELL .               STA-30:  WELL
FLD  .                     :  FIELD
LOC  .                     :  LOCATION
CTRY .                     :  COUNTRY
STAT .                     :  STATE
CNTY .                     :  COUNTY
SRVC .                     :  SERVICE COMPANY
DATE .                     :  DATE
API  .                     :  API NUMBER
UWI  .                     :  UNIQUE WELL ID
~Curve Information Block
#MNEM.UNIT         API CODE   Curve Description
#---------- ----------------  -----------------
DEPTH.FT                   :  
GR   .GAPI                 :  Merged RAW_LOG.GR_17P_1 with RAW_LOG.GR_12P_1 and RAW_LOG.GR_8P_1 and RAW_LOG.GR_6P_1 at 1127.75, 5954.49, 11516.11 F
RT   .OHMM                 :  RT_1 Depth Shifted (Shift Pairs in MATCH_RT set)
RHOB .G/C3                 :  RHOB_1 Depth Shifted (Shift Pairs in MATCH_RHOB set)
NPHI .V/V                  :  NPHI_1 Depth Shifted (Shift Pairs in MATCH_NPHI set)
~Parameter Information Block
#MNEM.UNIT            Value   Description
#---------- ----------------  -----------
PROJECT.            SANTAN_FE:  
~Other Information Block
# 
~A       DEPTH             GR             RT           RHOB           NPHI 
# ...
       8749.50        66.2336         2.9469         2.4080       0.273948
       8750.00        68.6049         3.0044         2.4269       0.285536
       8750.50        72.4410         2.8960         2.4277       0.297143
       8751.00        75.6130         2.5867         2.4372       0.313133
       8751.50        81.5321         2.2453         2.4615       0.328492
       8752.00        80.2710         2.2406         2.4888       0.317415
       8752.50        76.1042         2.4694         2.5008       0.280947
       8753.00        66.9182         2.7415         2.4977       0.251675
       8753.50        64.2960         2.8709         2.4936       0.248940
       8754.00        66.7864         2.4959         2.4919       0.264870
       8754.50        73.7252         1.9564         2.4842       0.278541
       8755.00        77.5984         2.0726         2.4723       0.281178
       8755.50        80.7679         2.2519         2.4711       0.277319
       8756.00        81.7006         2.4942         2.4816       0.267962
       8756.50        77.5446         2.6598         2.4920       0.256576
       8757.00        74.4353         2.7236         2.4923       0.253530
       8757.50        77.2412         2.7202         2.4879       0.262954
       8758.00        78.7648         2.6659         2.4839       0.276809
       8758.50        78.4112         2.5506         2.4805       0.288230
       8759.00        77.7702         2.4471         2.4792       0.295234
       8759.50        77.3696         2.3958         2.4778       0.294168
       8760.00        75.9126         2.3358         2.4769       0.285079
       8760.50        74.8990         2.3729         2.4805       0.277150
       8761.00        75.2326         2.4446         2.4841       0.276762
       8761.50        77.1504         2.4588         2.4827       0.279948
       8762.00        76.6931         2.3696         2.4829       0.284479
       8762.50        76.7396         2.2801         2.4880       0.295105
       8763.00        80.3482         2.1549         2.4955       0.307989
       8763.50        83.2529         1.9854         2.5000       0.314571
       8764.00        85.2046         1.8499         2.5002       0.319124
       8764.50        87.4359         1.6936         2.4984       0.330211
       8765.00        88.7703         1.5621         2.4969       0.346150
       8765.50        90.0950         1.5081         2.4994       0.356571
       8766.00        90.0981         1.4723         2.5051       0.361893
       8766.50        89.4353         1.4238         2.5066       0.368863
       8767.00        90.6944         1.3444         2.5019       0.378463
       8767.50        89.2365         1.2817         2.4957       0.386009
       8768.00        96.4885         1.2195         2.4934       0.385323
       8768.50        96.6623         1.3035         2.4983       0.370360
       8769.00        92.2082         1.4887         2.5083       0.336729
       8769.50        82.9144         1.5482         2.5134       0.298353
       8770.00        76.0267         1.7191         2.5082       0.266847
       8770.50        72.3664         1.6614         2.5051       0.247985
       8771.00        77.4089         1.6976         2.5223       0.239731
       8771.50        85.9390         1.8640         2.5532       0.234639
       8772.00        89.8909         2.0562         2.5635       0.234577
       8772.50        88.3376         2.1812         2.5441       0.242483
       8773.00        90.7940         2.1745         2.5238       0.251175
       8773.50        94.2548         2.0370         2.5144       0.255715
       8774.00        99.2318         1.9598         2.5095       0.257907
       8774.50        94.7882         2.0722         2.5051       0.258538
       8775.00        87.4495         2.2590         2.4987       0.262745
       8775.50        81.8888         2.2248         2.4869       0.277372
       8776.00        84.7383         1.9762         2.4699       0.303160
       8776.50        90.0658         1.6641         2.4536       0.334634
       8777.00        97.9823         1.4892         2.4418       0.362351
       8777.50       110.5317         1.4225         2.4306       0.376987
       8778.00       114.4730         1.4105         2.4148       0.382114
       8778.50       114.1978         1.4456         2.3972       0.386675
       8779.00       108.3903         1.5047         2.3864       0.383256
       8779.50       102.6868         1.6799         2.3775       0.368209
       8780.00        96.9977         1.8193         2.3692       0.363401
       8780.50        91.9121         1.8005         2.3844       0.370272
       8781.00        84.4049         1.9803         2.4293       0.359509
       8781.50        79.6355         2.1141         2.4706       0.332104
       8782.00        76.9638         2.3241         2.4777       0.309999
       8782.50        67.4007         2.4526         2.4515       0.293188
       8783.00        56.6584         2.5543         2.4098       0.272016
       8783.50        51.4170         2.5045         2.3752       0.258286
       8784.00        50.1400         2.5731         2.3692       0.258260
       8784.50        60.1511         2.6388         2.3995       0.261643
       8785.00        66.3068         2.5694         2.4421       0.259749
       8785.50        70.2242         2.2553         2.4744       0.254313
       8786.00        77.8864         1.8612         2.4887       0.257964
       8786.50        87.1784         1.6474         2.4836       0.276043
       8787.00        95.3290         1.5058         2.4750       0.301091
       8787.50        98.1367         1.4008         2.4794       0.326737
       8788.00        99.2469         1.3942         2.4836       0.345997
       8788.50       101.6752         1.5016         2.4683       0.359195
       8789.00       103.0853         1.4824         2.4442       0.371157
       8789.50       107.4511         1.3581         2.4176       0.376634
       8790.00       111.7116         1.3086         2.3660       0.379835
       8790.50       114.4290         1.5865         2.3002       0.391792
       8791.00       124.6494         1.8869         2.2560       0.409194
       8791.50       140.3375         2.1690         2.2195       0.427463
       8792.00       142.3948         2.1571         2.2059       0.429793
       8792.50       126.5611         1.8376         2.2305       0.409845
       8793.00       113.3714         1.5741         2.2978       0.376967
       8793.50       108.6047         1.3499         2.3726       0.354534
       8794.00       105.5386         1.3492         2.4265       0.345655
       8794.50       102.1278         1.3968         2.4581       0.334716
       8795.00        98.9693         1.4901         2.4733       0.322425
       8795.50        92.8172         1.4183         2.4836       0.314840
       8796.00        91.5389         1.3913         2.4937       0.309239
       8796.50        90.3996         1.4320         2.5027       0.299784
       8797.00        91.6840         1.5153         2.5090       0.288909
       8797.50        92.9946         1.7123         2.5114       0.281625
       8798.00        89.6412         1.7704         2.5101       0.276208
       8798.50        88.5501         1.8306         2.5056       0.266785
       8799.00        84.9003         2.0429         2.4981       0.256586
       8799.50        80.6755         2.1963         2.4907       0.251369
       8800.00        79.0483         2.3207         2.4889       0.247069
       8800.50        76.0714         2.3970         2.4881       0.242853
       8801.00        73.6702         2.4854         2.4795       0.241271
       8801.50        71.1661         2.6527         2.4545       0.242789
       8802.00        60.9688         2.7364         2.3957       0.248926
       8802.50        45.4282         2.4548         2.3072       0.257599
