~Version Information Block
VERS .                  2.0:  CWLS LOG ASCII STANDARD - VERSION 2.0
WRAP .                   NO:  One line per depth step
~Well Information Block
#MNEM.UNIT        Data Type   Information
#---------- ----------------  -----------
STRT .FT             728.00:  START DEPTH
STOP .FT           10480.50:  STOP DEPTH
STEP .FT               0.50:  STEP
NULL .              -999.25:  NULL VALUE
COMP .                     :  COMPANY
WELL .               STA-21:  WELL
FLD  .                     :  FIELD
LOC  .                     :  LOCATION
CTRY .                     :  COUNTRY
STAT .                     :  STATE
CNTY .                     :  COUNTY
SRVC .                     :  SERVICE COMPANY
DATE .                     :  DATE
API  .                     :  API NUMBER
UWI  .                     :  UNIQUE WELL ID
~Curve Information Block
#MNEM.UNIT         API CODE   Curve Description
#---------- ----------------  -----------------
DEPTH.FT                   :  DEPTH
GR   .GAPI                 :  Gamma Ray
RT   .OHMM                 :  RESDE
RHOB .G/C3                 :  Bulk Density
NPHI .V/V                  :  Thermal Neutron Porosity (Ratio Method) in Selected Lithology
~Parameter Information Block
#MNEM.UNIT            Value   Description
#---------- ----------------  -----------
PROJECT.            SANTAN_FE:  
~Other Information Block
# 
~A       DEPTH             GR             RT           RHOB           NPHI 
# ...
       7843.50        60.6700         1.9800         2.3000         0.3500
       7844.00        60.1700         2.0000         2.3200         0.3400
       7844.50        57.8200         1.9800         2.3300         0.3400
       7845.00        56.2300         1.9400         2.3300         0.3400
       7845.50        55.1400         1.9200         2.3200         0.3500
       7846.00        54.8100         1.8900         2.3100         0.3500
       7846.50        54.6400         1.8400         2.3000         0.3600
       7847.00        53.9700         1.7800         2.3000         0.3400
       7847.50        53.9700         1.7400         2.2900         0.3400
       7848.00        54.0500         1.7100         2.2900         0.3400
       7848.50        54.3900         1.7100         2.3000         0.3500
       7849.00        54.3100         1.7100         2.3100         0.3500
       7849.50        54.2200         1.7000         2.3200         0.3600
       7850.00        55.3900         1.6900         2.3300         0.3700
       7850.50        56.4000         1.6900         2.3300         0.3800
       7851.00        57.7400         1.7000         2.3400         0.3700
       7851.50        57.9900         1.6900         2.3300         0.3700
       7852.00        58.9900         1.6900         2.3300         0.3800
       7852.50        58.9100         1.7000         2.3200         0.4100
       7853.00        58.2400         1.6800         2.3100         0.4200
       7853.50        56.7300         1.6800         2.3100         0.4000
       7854.00        56.6400         1.6400         2.3300         0.3800
       7854.50        57.3100         1.6100         2.3400         0.3700
       7855.00        60.7400         1.4600         2.3500         0.3800
       7855.50        64.1700         1.3800         2.3500         0.4100
       7856.00        68.3600         1.3700         2.3600         0.4000
       7856.50        68.8700         1.3800         2.3700         0.4100
       7857.00        67.5300         1.4100         2.4000         0.3800
       7857.50        65.4400         1.4300         2.4100         0.3800
       7858.00        63.4300         1.4600         2.4100         0.3800
       7858.50        61.9200         1.4900         2.3800         0.3700
       7859.00        60.4200         1.5400         2.3500         0.3500
       7859.50        59.3300         1.6600         2.3400         0.3400
       7860.00        57.2400         1.7100         2.3300         0.3400
       7860.50        55.1500         1.7100         2.3100         0.3300
       7861.00        53.2200         1.7100         2.3200         0.3300
       7861.50        52.3800         1.7000         2.3000         0.3200
       7862.00        53.3800         1.6700         2.3100         0.3400
       7862.50        57.3900         1.6700         2.2800         0.3600
       7863.00        61.7400         1.5900         2.3100         0.3800
       7863.50        66.3400         1.4500         2.3200         0.4000
       7864.00        68.6900         1.4200         2.3600         0.4200
       7864.50        70.6200         1.4200         2.3600         0.4300
       7865.00        70.2900         1.4100         2.3700         0.4100
       7865.50        70.4500         1.4100         2.3800         0.4000
       7866.00        71.0400         1.4300         2.4000         0.4200
       7866.50        72.2900         1.4500         2.4200         0.4200
       7867.00        73.3800         1.4500         2.4300         0.4200
       7867.50        73.9700         1.4900         2.4200         0.4100
       7868.00        73.6300         1.6000         2.4000         0.4100
       7868.50        73.8000         1.6300         2.4000         0.4300
       7869.00        73.4700         1.6300         2.4000         0.4300
       7869.50        73.3000         1.6600         2.4100         0.4100
       7870.00        72.0400         1.7000         2.4000         0.3800
       7870.50        72.0400         1.7800         2.3600         0.3700
       7871.00        72.3000         1.7700         2.3300         0.3700
       7871.50        72.1300         1.8000         2.3300         0.3800
       7872.00        71.7100         1.8000         2.3400         0.4000
       7872.50        71.0400         1.8100         2.3400         0.4200
       7873.00        70.7900         1.8500         2.3400         0.4200
       7873.50        70.9500         1.9100         2.3500         0.4200
       7874.00        71.5400         1.9400         2.3400         0.4100
       7874.50        72.1300         1.9400         2.3700         0.4200
       7875.00        71.5500         2.0200         2.3700         0.4000
       7875.50        70.7900         2.0400         2.4000         0.4100
       7876.00        69.7000         2.0800         2.3900         0.4300
       7876.50        69.3700         2.0700         2.4000         0.4600
       7877.00        69.0300         2.1200         2.3800         0.4500
       7877.50        68.9500         2.1500         2.3900         0.4300
       7878.00        68.8700         2.1500         2.3700         0.4200
       7878.50        68.3600         2.0600         2.3600         0.4200
       7879.00        67.9500         1.9700         2.3500         0.4200
       7879.50        67.4400         1.9700         2.3600         0.4100
       7880.00        67.3500         1.7700         2.3600         0.4100
       7880.50        68.4400         1.7700         2.3800         0.4100
       7881.00        69.6100         1.7700         2.4000         0.4100
       7881.50        71.7100         2.0800         2.4100         0.4000
       7882.00        73.3800         2.0500         2.4200         0.4100
       7882.50        75.0600         2.1700         2.4100         0.4200
       7883.00        74.8100         2.1000         2.3800         0.4400
       7883.50        73.8000         2.1000         2.3600         0.4400
       7884.00        72.6300         2.2900         2.3400         0.4300
       7884.50        72.4600         2.2200         2.3600         0.4300
       7885.00        71.7100         2.2200         2.3700         0.4300
       7885.50        71.7100         2.1700         2.4000         0.4400
       7886.00        71.7100         2.1700         2.4100         0.4600
       7886.50        73.3800         1.9000         2.4500         0.4400
       7887.00        74.8900         1.9000         2.4300         0.4300
       7887.50        76.3900         1.8400         2.4100         0.4200
       7888.00        77.2300         1.8400         2.4100         0.4400
       7888.50        77.6500         1.7300         2.4400         0.4600
       7889.00        78.1500         1.6100         2.4400         0.4600
       7889.50        77.3200         1.6100         2.4400         0.4500
       7890.00        76.4800         1.6400         2.4300         0.4200
       7890.50        75.5600         1.6400         2.4500         0.4400
       7891.00        75.5600         1.6900         2.4400         0.4400
       7891.50        74.2200         1.6900         2.4200         0.4300
       7892.00        72.8800         1.7200         2.4200         0.4000
       7892.50        71.3800         1.7200         2.4200         0.3900
       7893.00        71.2100         1.8300         2.4400         0.3900
       7893.50        70.7000         1.8700         2.4300         0.3800
       7894.00        70.3700         1.8700         2.4200         0.3700
       7894.50        71.6200         1.8500         2.4000         0.3800
       7895.00        73.2100         1.8500         2.3900         0.4000
       7895.50        75.4700         1.8500         2.4000         0.4200
       7896.00        76.1400         1.8500         2.4000         0.4300
       7896.50        77.2300         1.8500         2.4000         0.4600
