~Version Information Block
VERS .                  2.0:  CWLS LOG ASCII STANDARD - VERSION 2.0
WRAP .                   NO:  One line per depth step
~Well Information Block
#MNEM.UNIT        Data Type   Information
#---------- ----------------  -----------
STRT .FT            4880.50:  START DEPTH
STOP .FT           10428.00:  STOP DEPTH
STEP .FT               0.50:  STEP
NULL .              -999.25:  NULL VALUE
COMP .                     :  COMPANY
WELL .                STA-3:  WELL
FLD  .                     :  FIELD
LOC  .                     :  LOCATION
CTRY .                     :  COUNTRY
STAT .                     :  STATE
CNTY .                     :  COUNTY
SRVC .                     :  SERVICE COMPANY
DATE .                     :  DATE
API  .                     :  API NUMBER
UWI  .                     :  UNIQUE WELL ID
~Curve Information Block
#MNEM.UNIT         API CODE   Curve Description
#---------- ----------------  -----------------
DEPTH.FT                   :  DEPTH
GR   .GAPI                 :  Gamma Ray
RT   .OHMM                 :  Deep resistivity
RHOB .G/C3                 :  Bulk Density
NPHI .V/V                  :  Neutron porosity
DT   .US/F                 :  Sonic
~Parameter Information Block
#MNEM.UNIT            Value   Description
#---------- ----------------  -----------
PROJECT.            SANTAN_FE:  
~Other Information Block
# 
~A       DEPTH             GR             RT           RHOB           NPHI             DT 
# ...
       9642.00        92.2186         4.1011         2.5680       0.167100        76.2500
       9642.50        97.3925         4.0776         2.5601       0.189700        77.1000
       9643.00        99.8010         4.1002         2.5652       0.203800        78.5500
       9643.50        99.6851         3.6690         2.5662       0.199100        80.0500
       9644.00        98.0406         3.6541         2.5735       0.183700        80.0000
       9644.50        92.7705         3.8810         2.5594       0.172500        78.9000
       9645.00        88.3447         4.0059         2.5591       0.160600        78.2500
       9645.50        88.9094         4.2885         2.5487       0.164400        77.9500
       9646.00        89.6923         4.0679         2.5535       0.173600        79.1000
       9646.50        98.6142         3.7218         2.5395       0.197800        81.0000
       9647.00       108.0519         3.3438         2.5522       0.219300        83.3000
       9647.50       114.9846         2.6731         2.5643       0.239600        84.6500
       9648.00       116.9958         2.4060         2.5677       0.250500        86.0500
       9648.50       113.1437         2.3371         2.5578       0.261200        87.5000
       9649.00       113.2112         2.3106         2.5517       0.266600        87.6000
       9649.50       111.9223         2.2778         2.5644       0.270400        87.9500
       9650.00       116.3907         2.2307         2.5774       0.264200        88.1000
       9650.50       118.9960         2.3978         2.5823       0.261200        87.8000
       9651.00       121.0994         2.4540         2.5735       0.262300        88.2000
       9651.50       117.7761         2.3088         2.5666       0.267100        87.9500
       9652.00       117.4324         2.2281         2.5716       0.268300        87.5000
       9652.50       116.6381         2.2154         2.5793       0.259000        87.6000
       9653.00       109.9586         2.3412         2.5976       0.244800        86.4500
       9653.50       100.8443         2.5903         2.6105       0.231300        84.2000
       9654.00        93.9860         2.9317         2.6048       0.218600        82.2000
       9654.50        91.4052         3.1835         2.5989       0.207800        80.1000
       9655.00        97.1214         3.2926         2.5734       0.198400        79.9000
       9655.50        99.3472         3.3703         2.5701       0.203900        80.0000
       9656.00       105.4534         3.2426         2.5670       0.221300        80.8000
       9656.50       109.9532         3.0906         2.5670       0.235800        81.9000
       9657.00       109.4374         2.9100         2.5773       0.230100        83.8000
       9657.50       112.3060         2.6810         2.5768       0.234800        85.6000
       9658.00       109.4973         2.5145         2.5659       0.241300        86.5500
       9658.50       110.3038         2.3924         2.5539       0.256900        87.2000
       9659.00       105.7000         2.3340         2.5652       0.240700        86.2000
       9659.50        94.9302         2.3850         2.5698       0.215600        82.1000
       9660.00        84.1377         2.7940         2.5522       0.191500        79.3000
       9660.50        80.0596         4.4595         2.5397       0.187000        77.2000
       9661.00        86.6125         4.6580         2.5281       0.207200        78.0000
       9661.50        96.5985         3.4741         2.5312       0.225500        80.4000
       9662.00        94.5521         2.8045         2.5291       0.220500        79.5000
       9662.50        83.0986         3.2390         2.5514       0.175700        75.8500
       9663.00        65.8987         5.3392         2.5830       0.130600        71.8500
       9663.50        56.9244         9.9940         2.6407       0.104400        66.6000
       9664.00        51.5968        13.2865         2.6351       0.109300        63.6000
       9664.50        50.2457        12.3667         2.5685       0.132600        66.0500
       9665.00        46.9387         7.1101         2.4760       0.164500        76.0000
       9665.50        50.4741         5.0576         2.4106       0.197300        81.6500
       9666.00        48.6485         4.2102         2.3807       0.213400        82.7000
       9666.50        48.5550         4.0570         2.3943       0.213500        82.5000
       9667.00        47.1779         4.0252         2.4204       0.211300        82.7000
       9667.50        52.3643         3.7668         2.4247       0.202500        82.3500
       9668.00        57.1523         3.8262         2.4105       0.212800        82.7000
       9668.50        59.3820         3.7232         2.4154       0.213600        82.5000
       9669.00        62.6637         3.8630         2.4512       0.209000        82.2000
       9669.50        64.3481         3.9757         2.4875       0.194000        79.9000
       9670.00        70.0168         4.6541         2.5048       0.191600        79.9500
       9670.50        74.8359         4.1624         2.4924       0.206400        80.3000
       9671.00        82.6217         3.4556         2.4888       0.215700        80.2000
       9671.50        88.6015         3.4927         2.4975       0.219800        80.2000
       9672.00        89.1941         3.8236         2.4969       0.216200        81.0500
       9672.50        86.0134         4.1225         2.5168       0.202900        79.3000
       9673.00        79.3939         4.4890         2.5090       0.182400        78.6000
       9673.50        79.6301         4.4961         2.5031       0.174100        78.2000
       9674.00        77.0038         4.1735         2.4676       0.178600        78.7500
       9674.50        75.4757         3.8470         2.4204       0.205600        80.6500
       9675.00        63.1773         5.1570         2.3778       0.217500        83.6000
       9675.50        55.4336         5.9546         2.3805       0.220600        86.1000
       9676.00        58.5156         5.3414         2.4175       0.212500        86.5000
       9676.50        67.3988         3.8059         2.4539       0.215000        86.9000
       9677.00        76.4436         4.0013         2.4712       0.223100        83.5500
       9677.50        71.7853         3.9870         2.5041       0.209300        81.1000
       9678.00        68.7276         4.1687         2.5438       0.183100        77.7000
       9678.50        63.0387         5.4543         2.5325       0.152500        75.9000
       9679.00        57.0760         8.5217         2.4803       0.148500        79.7500
       9679.50        48.8468        11.1775         2.4031       0.171600        83.6000
       9680.00        44.0733         9.9688         2.3592       0.197100        85.5500
       9680.50        43.3848         8.6177         2.3566       0.210300        84.3500
       9681.00        46.9889         6.4945         2.3565       0.199900        84.2500
       9681.50        50.6642         5.0904         2.3201       0.205600        84.2000
       9682.00        52.5861         4.4888         2.3192       0.209600        84.6000
       9682.50        53.5041         6.9609         2.3521       0.206300        82.9000
       9683.00        55.4081         5.2890         2.4309       0.190100        81.7000
       9683.50        59.4074         4.3296         2.4624       0.168100        79.8500
       9684.00        64.0991         5.2915         2.5007       0.165200        79.1000
       9684.50        68.7550         5.2882         2.5101       0.165400        78.2500
       9685.00        77.2205         4.2330         2.5309       0.174100        79.6500
       9685.50        86.9929         3.8923         2.5364       0.183900        79.0500
       9686.00        90.9162         3.7220         2.5503       0.191000        79.8000
