~Version Information Block
VERS .                  2.0:  CWLS LOG ASCII STANDARD - VERSION 2.0
WRAP .                   NO:  One line per depth step
~Well Information Block
#MNEM.UNIT        Data Type   Information
#---------- ----------------  -----------
STRT .FT             780.00:  START DEPTH
STOP .FT            8996.00:  STOP DEPTH
STEP .FT               0.50:  STEP
NULL .              -999.25:  NULL VALUE
COMP .                     :  COMPANY
WELL .                STA-4:  WELL
FLD  .                     :  FIELD
LOC  .                     :  LOCATION
CTRY .                     :  COUNTRY
STAT .                     :  STATE
CNTY .                     :  COUNTY
SRVC .                     :  SERVICE COMPANY
DATE .                     :  DATE
API  .                     :  API NUMBER
UWI  .                     :  UNIQUE WELL ID
~Curve Information Block
#MNEM.UNIT         API CODE   Curve Description
#---------- ----------------  -----------------
DEPTH.FT                   :  DEPTH
GR   .GAPI                 :  Gamma Ray
RT   .OHMM                 :  SEDP
RHOB .G/C3                 :  Bulk Density
NPHI .V/V                  :  Neutron porosity
~Parameter Information Block
#MNEM.UNIT            Value   Description
#---------- ----------------  -----------
PROJECT.            SANTAN_FE:  
~Other Information Block
# 
~A       DEPTH             GR             RT           RHOB           NPHI 
# ...
       4578.50        65.3300         1.5000         2.1100       0.428000
       4579.00        59.8900         1.5200         2.0600       0.428800
       4579.50        58.3700         1.5700         2.0400       0.426800
       4580.00        55.5900         1.5700         2.0300       0.430500
       4580.50        54.2000         1.5700         2.0200       0.434600
       4581.00        55.4800         1.5900         2.0100       0.443500
       4581.50        55.1800         1.6300         2.0000       0.446200
       4582.00        56.4000         1.6400         2.0000       0.456400
       4582.50        54.1000         1.6400         1.9900       0.468300
       4583.00        52.9000         1.6400         1.9900       0.469800
       4583.50        51.7900         1.6600         1.9600       0.474300
       4584.00        44.4700         1.6800         1.9500       0.481200
       4584.50        40.2500         1.6600         1.9500       0.485000
       4585.00        41.6500         1.6400         1.9400       0.490100
       4585.50        43.1300         1.6400         1.9100       0.496400
       4586.00        45.1800         1.6500         1.9100       0.494200
       4586.50        46.9300         1.6700         1.9000       0.485400
       4587.00        47.7600         1.6900         1.9000       0.487300
       4587.50        47.7200         1.7100         1.9100       0.488200
       4588.00        47.3700         1.7300         1.9100       0.481900
       4588.50        43.4700         1.7600         1.9200       0.474200
       4589.00        44.6500         1.7500         1.9600       0.475700
       4589.50        48.2900         1.7800         2.0000       0.482000
       4590.00        46.4600         1.8400         2.0100       0.469500
       4590.50        45.3300         1.8500         2.0300       0.461100
       4591.00        52.5400         1.8100         2.0700       0.456300
       4591.50        55.9200         1.8100         2.0900       0.454600
       4592.00        46.9100         1.8500         2.1000       0.455300
       4592.50        37.5400         1.8700         2.1100       0.465300
       4593.00        41.2600         1.8800         2.1400       0.471000
       4593.50        41.3600         1.8800         2.1800       0.476800
       4594.00        36.3400         1.8700         2.1900       0.475200
       4594.50        38.6600         1.8100         2.2000       0.483200
       4595.00        36.8900         1.7600         2.2100       0.483300
       4595.50        35.8600         1.7600         2.2500       0.472600
       4596.00        48.7500         1.7700         2.2600       0.465700
       4596.50        42.9400         1.7900         2.2600       0.458900
       4597.00        32.6300         1.7900         2.2700       0.454600
       4597.50        30.1300         1.7800         2.2600       0.451300
       4598.00        26.9200         1.7700         2.2600       0.443200
       4598.50        24.3700         1.7400         2.2500       0.448300
       4599.00        23.6600         1.7100         2.2400       0.475500
       4599.50        24.5600         1.7100         2.1800       0.482600
       4600.00        24.4100         1.7200         2.1700       0.480700
       4600.50        24.7000         1.7400         2.1700       0.481900
       4601.00        29.2300         1.7700         2.1600       0.485800
       4601.50        35.8600         1.7300         2.1600       0.478000
       4602.00        29.5700         1.6800         2.1600       0.454600
       4602.50        30.4400         1.6700         2.1500       0.448000
       4603.00        32.0600         1.6800         2.1000       0.447000
       4603.50        31.5900         1.7100         2.0900       0.449000
       4604.00        29.0100         1.7200         2.0800       0.458800
       4604.50        30.6700         1.7500         2.0500       0.460900
       4605.00        32.2600         1.8100         2.0300       0.454100
       4605.50        33.5200         1.8200         2.0400       0.450400
       4606.00        35.6900         1.7800         2.0700       0.449600
       4606.50        39.7000         1.7300         2.1300       0.453500
       4607.00        41.6800         1.7000         2.1400       0.464500
       4607.50        40.3000         1.6800         2.1300       0.473300
       4608.00        43.6900         1.6500         2.1100       0.487200
       4608.50        49.1000         1.6300         2.1200       0.494300
       4609.00        58.5500         1.6400         2.1300       0.498400
       4609.50        65.2000         1.6300         2.1600       0.489600
       4610.00        68.4900         1.6200         2.2000       0.489800
       4610.50        70.3600         1.6100         2.2100       0.506200
       4611.00        72.7200         1.6100         2.2100       0.516200
       4611.50        84.8900         1.6000         2.2200       0.518600
       4612.00        93.1600         1.6200         2.2100       0.517800
       4612.50        95.6600         1.6400         2.2000       0.527700
       4613.00       107.3500         1.6100         2.2000       0.540900
       4613.50        92.7500         1.5800         2.1900       0.544100
       4614.00        99.7600         1.5800         2.1900       0.543500
       4614.50        95.7400         1.5800         2.2000       0.547500
       4615.00        88.5600         1.5800         2.2000       0.534900
       4615.50        77.6100         1.6200         2.2000       0.533400
       4616.00        83.7600         1.6800         2.2100       0.516000
       4616.50        85.0400         1.6400         2.2100       0.508700
       4617.00        91.2800         1.6100         2.2300       0.509900
       4617.50        88.6000         1.6100         2.2300       0.508400
       4618.00        87.3200         1.6000         2.2300       0.498400
       4618.50        89.7400         1.5700         2.2400       0.495700
       4619.00        91.4100         1.5700         2.2500       0.497200
       4619.50        88.9500         1.5800         2.2500       0.500500
       4620.00        87.2100         1.5600         2.2600       0.502600
       4620.50        80.6600         1.5600         2.2600       0.510400
       4621.00        89.7000         1.5500         2.2600       0.524600
       4621.50       100.3000         1.5400         2.2500       0.540800
       4622.00       100.3500         1.5400         2.2500       0.551000
       4622.50        93.8500         1.5700         2.2500       0.542400
       4623.00        94.0600         1.5900         2.2500       0.525600
       4623.50        86.5800         1.6100         2.2400       0.502900
       4624.00        86.3100         1.6200         2.2400       0.487200
       4624.50        76.3100         1.6300         2.2400       0.446700
       4625.00        72.7300         1.6400         2.2400       0.388300
       4625.50        83.1800         1.6700         2.2200       0.336300
       4626.00        69.0100         1.6700         2.2200       0.310800
       4626.50        59.9700         1.6800         2.2200       0.306000
       4627.00        58.8500         1.6900         2.2100       0.326100
       4627.50        53.9600         1.6800         2.1900       0.355200
       4628.00        51.7600         1.6700         2.1800       0.381800
       4628.50        55.8500         1.6800         2.1700       0.401500
       4629.00        59.5900         1.6800         2.1600       0.413400
       4629.50        54.8100         1.6800         2.1400       0.423500
       4630.00        57.1900         1.6800         2.1400       0.438600
       4630.50        61.7900         1.6800         2.1500       0.446200
       4631.00        68.0000         1.6600         2.2000       0.439400
       4631.50        69.5800         1.6100         2.2100       0.439800
