~Version Information Block
VERS .                  2.0:  CWLS LOG ASCII STANDARD - VERSION 2.0
WRAP .                   NO:  One line per depth step
~Well Information Block
#MNEM.UNIT        Data Type   Information
#---------- ----------------  -----------
STRT .FT            4880.50:  START DEPTH
STOP .FT           10428.00:  STOP DEPTH
STEP .FT               0.50:  STEP
NULL .              -999.25:  NULL VALUE
COMP .                     :  COMPANY
WELL .                STA-3:  WELL
FLD  .                     :  FIELD
LOC  .                     :  LOCATION
CTRY .                     :  COUNTRY
STAT .                     :  STATE
CNTY .                     :  COUNTY
SRVC .                     :  SERVICE COMPANY
DATE .                     :  DATE
API  .                     :  API NUMBER
UWI  .                     :  UNIQUE WELL ID
~Curve Information Block
#MNEM.UNIT         API CODE   Curve Description
#---------- ----------------  -----------------
DEPTH.FT                   :  DEPTH
GR   .GAPI                 :  Gamma Ray
RT   .OHMM                 :  Deep resistivity
RHOB .G/C3                 :  Bulk Density
NPHI .V/V                  :  Neutron porosity
DT   .US/F                 :  Sonic
~Parameter Information Block
#MNEM.UNIT            Value   Description
#---------- ----------------  -----------
PROJECT.            SANTAN_FE:  
~Other Information Block
# 
~A       DEPTH             GR             RT           RHOB           NPHI             DT 
# ...
       6082.00        58.4684         0.8313         2.2078       0.324800       111.4500
       6082.50        55.4564         0.9387         2.2099       0.328900       110.1000
       6083.00        57.7048         0.9021         2.2230       0.303700       109.3000
       6083.50        54.6509         0.9188         2.2107       0.311500       109.6000
       6084.00        58.2126         0.8936         2.2130       0.316900       108.8500
       6084.50        56.9563         0.9276         2.2224       0.314100       108.8000
       6085.00        56.1603         0.9782         2.2356       0.308800       108.8000
       6085.50        55.3457         0.8744         2.2323       0.312400       109.0500
       6086.00        51.3521         0.7785         2.2227       0.327100       109.6000
       6086.50        50.5227         0.9770         2.2100       0.325200       109.8000
       6087.00        48.5035         0.8555         2.1976       0.312700       110.6000
       6087.50        48.6728         0.8187         2.1879       0.289300       110.9000
       6088.00        50.5635         0.8683         2.1844       0.274300       110.5000
       6088.50        48.7169         0.9061         2.1860       0.271800       108.2500
       6089.00        52.0610         1.0460         2.1972       0.273700       106.9500
       6089.50        49.2751         1.2624         2.2334       0.273300       105.6000
       6090.00        54.1287         1.2837         2.2478       0.280400       103.8500
       6090.50        52.7810         1.2580         2.2549       0.290800       105.4000
       6091.00        53.9750         1.1629         2.2442       0.293400       104.3000
       6091.50        53.5367         1.1001         2.2442       0.279000       104.9500
       6092.00        56.6209         1.2400         2.2299       0.269200       104.9000
       6092.50        56.2229         1.1710         2.2306       0.265000       104.8000
       6093.00        52.8196         1.1026         2.2329       0.272900       104.5000
       6093.50        50.9505         1.0753         2.2427       0.282500       105.6000
       6094.00        50.4038         1.1397         2.2398       0.283700       105.4000
       6094.50        52.7658         1.0744         2.2378       0.283500       105.3000
       6095.00        50.7510         1.1393         2.2370       0.275800       104.5500
       6095.50        52.3767         1.0672         2.2296       0.301700       104.0000
       6096.00        52.4322         1.0191         2.2169       0.297700       103.2000
       6096.50        55.9452         1.3500         2.2194       0.312400       105.3000
       6097.00        56.4582         1.0999         2.1920       0.307900       106.0000
       6097.50        53.5061         0.9082         2.1909       0.340100       109.4500
       6098.00        52.6152         0.9745         2.2241       0.345800       104.5500
       6098.50        51.8541         1.0028         2.3097       0.309500        97.5000
       6099.00        48.5493         1.2323         2.4293       0.239900        86.7500
       6099.50        43.4784         2.5318         2.4448       0.197600        84.3000
       6100.00        41.8831         2.6283         2.3427       0.225200        87.3000
       6100.50        44.7679         1.3425         2.2452       0.281000        92.4500
       6101.00        47.5596         0.9027         2.2167       0.302400       103.9000
       6101.50        47.3976         1.0319         2.2327       0.296100       107.2000
       6102.00        46.6163         1.0064         2.2191       0.279200       106.0500
       6102.50        45.4041         1.0477         2.1947       0.281600       107.0500
       6103.00        46.8954         1.3483         2.1619       0.272800       108.9000
       6103.50        45.3607         1.3767         2.1413       0.277900       111.6000
       6104.00        45.7753         1.2947         2.1331       0.293600       112.7000
       6104.50        43.2058         1.3361         2.1476       0.304100       114.2000
       6105.00        42.6236         1.2784         2.1553       0.307600       114.0000
       6105.50        40.7625         1.2635         2.1630       0.296700       112.3500
       6106.00        40.9244         1.2273         2.1437       0.296300       110.7000
       6106.50        42.3774         1.2742         2.1353       0.296700       109.4000
       6107.00        42.2222         1.3677         2.1418       0.299600       110.6000
       6107.50        41.5722         1.2998         2.1340       0.310700       111.3500
       6108.00        45.3942         1.3974         2.1309       0.316900       111.5000
       6108.50        52.0213         1.4792         2.1455       0.336800       109.7000
       6109.00        64.4039         1.3364         2.1895       0.343500       108.5500
       6109.50        76.3072         1.2086         2.2194       0.331300       109.7000
       6110.00        86.0320         0.8956         2.2244       0.370900       114.7000
       6110.50        83.6624         0.6256         2.1996       0.384800       119.2500
       6111.00        80.1018         0.5523         2.1772       0.416100       124.8000
       6111.50        75.9223         0.5288         2.1788       0.379900       125.7000
       6112.00        77.7669         0.5092         2.1974       0.389200       125.8500
       6112.50        80.2561         0.5120         2.2046       0.383500       125.3000
       6113.00        80.1236         0.4966         2.2159       0.383900       123.8000
       6113.50        82.7084         0.6227         2.2371       0.364500       121.0500
       6114.00        79.3985         0.8807         2.2632       0.361500       116.8000
       6114.50        82.4004         1.0452         2.2673       0.327300       112.5000
       6115.00        79.1049         1.1662         2.2457       0.315100       110.3000
       6115.50        75.9275         1.1974         2.2388       0.299800       108.4000
       6116.00        70.9819         1.2686         2.2582       0.312600       106.7000
       6116.50        70.9002         1.3323         2.2671       0.321300       106.1500
       6117.00        74.5268         1.3328         2.2738       0.309300       106.5000
       6117.50        75.8935         1.3129         2.2776       0.321800       106.3000
       6118.00        79.9977         1.2680         2.2917       0.317700       108.8000
       6118.50        84.3149         1.1415         2.3030       0.340100       111.9000
       6119.00        87.4365         1.0499         2.3068       0.337900       113.9500
       6119.50        87.4512         1.0207         2.3116       0.333000       114.4000
       6120.00        89.5282         1.0140         2.3193       0.341000       115.6000
       6120.50        95.6952         1.0145         2.3270       0.350200       116.9000
       6121.00       101.9997         1.0013         2.3234       0.377100       117.1000
       6121.50        99.3414         0.9714         2.3254       0.380200       116.4000
       6122.00        96.9583         0.9805         2.3312       0.401400       116.0500
       6122.50        95.8408         1.0333         2.3365       0.398100       115.8500
       6123.00       101.8145         1.0329         2.3429       0.399500       115.2000
       6123.50        98.1365         1.0201         2.3439       0.369200       115.4500
       6124.00        96.9736         1.0348         2.3514       0.354100       115.4500
       6124.50        95.4672         1.0553         2.3614       0.336400       114.6000
       6125.00       103.3606         1.0970         2.3666       0.347000       114.2500
       6125.50       103.3606         1.1153         2.3763       0.365400       114.4500
       6126.00       103.6077         1.0925         2.3922       0.371700       114.4000
