~Version Information Block
VERS .                  2.0:  CWLS LOG ASCII STANDARD - VERSION 2.0
WRAP .                   NO:  One line per depth step
~Well Information Block
#MNEM.UNIT        Data Type   Information
#---------- ----------------  -----------
STRT .FT             750.00:  START DEPTH
STOP .FT            8283.50:  STOP DEPTH
STEP .FT               0.50:  STEP
NULL .              -999.25:  NULL VALUE
COMP .                     :  COMPANY
WELL .               STA-20:  WELL
FLD  .                     :  FIELD
LOC  .                     :  LOCATION
CTRY .                     :  COUNTRY
STAT .                     :  STATE
CNTY .                     :  COUNTY
SRVC .                     :  SERVICE COMPANY
DATE .                     :  DATE
API  .                     :  API NUMBER
UWI  .                     :  UNIQUE WELL ID
~Curve Information Block
#MNEM.UNIT         API CODE   Curve Description
#---------- ----------------  -----------------
DEPTH.FT                   :  DEPTH
GR   .GAPI                 :  Gamma Ray
RT   .OHMM                 :  RESDE
RHOB .G/C3                 :  Bulk Density
NPHI .V/V                  :  Thermal Neutron Porosity (Ratio Method) in Selected Lithology
~Parameter Information Block
#MNEM.UNIT            Value   Description
#---------- ----------------  -----------
PROJECT.            SANTAN_FE:  
~Other Information Block
# 
~A       DEPTH             GR             RT           RHOB           NPHI 
# ...
       7758.50        61.6471         2.1697         2.5385       0.210400
       7759.00        68.8540         2.4047         2.5232       0.221400
       7759.50        73.5226         2.5073         2.5020       0.239700
       7760.00        76.4949         2.4568         2.4809       0.251400
       7760.50        78.5934         2.3688         2.4728       0.270800
       7761.00        80.2529         2.2010         2.4924       0.288700
       7761.50        83.0244         2.0263         2.5162       0.290000
       7762.00        85.1234         1.9012         2.5355       0.290000
       7762.50        85.6505         1.8505         2.5267       0.291000
       7763.00        84.5384         1.8356         2.5160       0.299400
       7763.50        84.0788         1.8072         2.5103       0.301000
       7764.00        84.0500         1.7372         2.5043       0.309400
       7764.50        83.2889         1.6610         2.5002       0.310000
       7765.00        83.9911         1.7174         2.5071       0.311000
       7765.50        84.8018         1.7753         2.5253       0.318300
       7766.00        84.4795         1.8170         2.5298       0.310600
       7766.50        82.5566         1.8303         2.5135       0.301500
       7767.00        74.8365         1.9177         2.4772       0.276500
       7767.50        65.1637         2.1510         2.4373       0.241800
       7768.00        51.9674         2.4087         2.4221       0.224600
       7768.50        45.3139         2.4113         2.4283       0.205000
       7769.00        42.6035         2.3963         2.4547       0.192100
       7769.50        44.7065         2.3545         2.4928       0.197900
       7770.00        47.9091         2.2993         2.5162       0.199900
       7770.50        50.4165         2.2754         2.5198       0.200000
       7771.00        51.7329         2.3979         2.5035       0.200000
       7771.50        50.2962         2.5939         2.4836       0.193800
       7772.00        49.0464         2.7829         2.4636       0.190300
       7772.50        48.5790         2.8893         2.4519       0.195300
       7773.00        51.2074         2.8639         2.4501       0.204500
       7773.50        54.0581         2.7213         2.4500       0.209600
       7774.00        54.6410         2.5796         2.4417       0.210000
       7774.50        52.7745         2.5970         2.4483       0.204700
       7775.00        51.4964         2.6059         2.4747       0.200200
       7775.50        52.9245         2.4188         2.5045       0.192800
       7776.00        53.8019         2.2963         2.5180       0.190100
       7776.50        53.4786         2.4758         2.5117       0.190000
       7777.00        51.9338         2.8556         2.5018       0.190000
       7777.50        51.8200         3.0155         2.5001       0.190000
       7778.00        52.1921         3.1418         2.5083       0.190000
       7778.50        53.7455         3.1624         2.5099       0.193700
       7779.00        56.5111         2.9695         2.5100       0.204300
       7779.50        62.7843         2.8292         2.5265       0.215400
       7780.00        67.0352         2.6291         2.5381       0.226400
       7780.50        67.3200         2.5431         2.5315       0.229800
       7781.00        60.4830         2.5492         2.4941       0.223300
       7781.50        54.2864         2.6131         2.4714       0.213900
       7782.00        50.4368         2.6095         2.4708       0.204200
       7782.50        50.5614         2.5644         2.4755       0.200300
       7783.00        52.8690         2.5632         2.4535       0.200000
       7783.50        54.9376         2.5664         2.4571       0.204900
       7784.00        56.9776         2.5470         2.4505       0.209600
       7784.50        56.3564         2.5114         2.4500       0.210000
       7785.00        56.3000         2.4271         2.4540       0.210000
       7785.50        57.0636         2.3394         2.4733       0.210000
       7786.00        59.7741         2.4097         2.4992       0.210000
       7786.50        61.8698         2.5790         2.5094       0.210000
       7787.00        63.1554         2.6191         2.5038       0.210000
       7787.50        62.0946         2.5984         2.5069       0.211900
       7788.00        61.6375         2.5605         2.5099       0.219400
       7788.50        63.1279         2.4782         2.5178       0.222300
       7789.00        68.1756         2.4050         2.5116       0.241100
       7789.50        74.6211         2.3463         2.5100       0.269300
       7790.00        81.1511         2.1469         2.5099       0.298000
       7790.50        86.9174         1.8768         2.5000       0.317900
       7791.00        91.4913         1.7387         2.4918       0.328500
       7791.50        91.8000         1.7155         2.5011       0.329900
       7792.00        89.9003         1.6946         2.5095       0.330000
       7792.50        88.2421         1.6753         2.5072       0.322400
       7793.00        89.2673         1.6352         2.4971       0.320100
       7793.50        90.8696         1.6387         2.4943       0.320000
       7794.00        90.2249         1.6423         2.4996       0.320000
       7794.50        87.8859         1.6939         2.5050       0.320000
       7795.00        86.5733         1.7003         2.4932       0.325800
       7795.50        86.4900         1.7021         2.4747       0.324200
       7796.00        88.0190         1.6884         2.4808       0.320300
       7796.50        89.2674         1.7138         2.4930       0.324800
       7797.00        91.2519         1.6704         2.4972       0.334100
       7797.50        91.3900         1.5991         2.4897       0.339600
       7798.00        89.4881         1.7370         2.4813       0.333700
       7798.50        84.7818         2.2174         2.4801       0.318700
       7799.00        79.8911         2.3016         2.4858       0.307800
       7799.50        74.2366         2.2719         2.4853       0.290300
       7800.00        70.8014         2.2027         2.4746       0.272200
       7800.50        66.7763         2.1694         2.4567       0.262100
       7801.00        64.2135         2.0299         2.4320       0.253000
       7801.50        59.4860         1.8716         2.3988       0.250200
       7802.00        54.2133         1.8774         2.3652       0.250000
       7802.50        50.4253         1.7695         2.3463       0.250000
       7803.00        48.6587         2.0477         2.3524       0.250000
       7803.50        53.8793         2.1312         2.3949       0.247300
       7804.00        60.7373         2.0544         2.4577       0.238700
       7804.50        66.1467         2.3146         2.5068       0.231500
       7805.00        65.7440         2.4316         2.5315       0.239300
       7805.50        63.7860         2.2766         2.5344       0.239900
       7806.00        65.5540         2.1413         2.5165       0.247600
       7806.50        67.9673         2.0895         2.5010       0.249800
       7807.00        68.8953         2.1501         2.5000       0.250000
       7807.50        66.6633         2.5300         2.5014       0.241800
       7808.00        63.8400         2.8207         2.5072       0.239800
       7808.50        61.7460         2.9256         2.4936       0.229100
       7809.00        61.2269         2.9579         2.5181       0.220500
       7809.50        60.4338         2.9813         2.5200       0.215800
       7810.00        58.1001         2.9611         2.5200       0.204800
       7810.50        54.8846         2.8809         2.4841       0.200200
       7811.00        53.9132         2.8358         2.4715       0.191800
       7811.50        54.6168         2.8035         2.4701       0.190000
