~Version Information Block
VERS .                  2.0:  CWLS LOG ASCII STANDARD - VERSION 2.0
WRAP .                   NO:  One line per depth step
~Well Information Block
#MNEM.UNIT        Data Type   Information
#---------- ----------------  -----------
STRT .FT            4582.50:  START DEPTH
STOP .FT           10844.50:  STOP DEPTH
STEP .FT               0.50:  STEP
NULL .              -999.25:  NULL VALUE
COMP .                     :  COMPANY
WELL .               STA-34:  WELL
FLD  .                     :  FIELD
LOC  .                     :  LOCATION
CTRY .                     :  COUNTRY
STAT .                     :  STATE
CNTY .                     :  COUNTY
SRVC .                     :  SERVICE COMPANY
DATE .                     :  DATE
API  .                     :  API NUMBER
UWI  .                     :  UNIQUE WELL ID
~Curve Information Block
#MNEM.UNIT         API CODE   Curve Description
#---------- ----------------  -----------------
DEPTH.FT                   :  Depth
GR   .GAPI                 :  Gamma Ray
RT   .OHMM                 :  True Resistivity
RHOB .G/C3                 :  Bulk Density
NPHI .V/V                  :  Neutron Porosity
~Parameter Information Block
#MNEM.UNIT            Value   Description
#---------- ----------------  -----------
PROJECT.            SANTAN_FE:  
~Other Information Block
# 
~A       DEPTH             GR             RT           RHOB           NPHI 
# ...
       9130.00       102.7617         1.5383         2.6238       0.240500
       9130.50       102.4998         1.5472         2.6165       0.250400
       9131.00       104.6948         1.5713         2.6160       0.258800
       9131.50       110.9371         1.5913         2.6000       0.260500
       9132.00       110.7402         1.6123         2.5864       0.266300
       9132.50       110.7236         1.6300         2.5912       0.277700
       9133.00       107.5879         1.6304         2.5972       0.279300
       9133.50       106.7748         1.7179         2.5972       0.271700
       9134.00       101.1231         2.3763         2.6016       0.255600
       9134.50        84.2777         3.5522         2.6080       0.214600
       9135.00        66.2569         4.2238         2.6132       0.160900
       9135.50        55.4367         4.3678         2.6211       0.125100
       9136.00        56.3544         3.9801         2.6223       0.111200
       9136.50        60.3242         3.6249         2.6107       0.112700
       9137.00        59.3003         3.3952         2.5922       0.123200
       9137.50        57.1426         3.0294         2.5652       0.135100
       9138.00        48.9751         2.6119         2.5200       0.142200
       9138.50        36.4866         2.2243         2.4662       0.152600
       9139.00        35.3088         2.3128         2.4117       0.162500
       9139.50        34.3015         2.5627         2.3574       0.163700
       9140.00        39.5383         2.7508         2.3366       0.158300
       9140.50        49.7191         2.8634         2.3619       0.151100
       9141.00        60.2171         3.1810         2.4024       0.145900
       9141.50        67.5536         3.4623         2.4467       0.142500
       9142.00        67.9616         3.5990         2.4929       0.141800
       9142.50        61.3254         3.6499         2.5272       0.142600
       9143.00        56.1551         3.7221         2.5370       0.144100
       9143.50        52.5703         4.0835         2.5282       0.139900
       9144.00        52.6973         4.5017         2.5172       0.126300
       9144.50        54.3025         4.4009         2.5252       0.116500
       9145.00        55.9269         3.8913         2.5527       0.121500
       9145.50        59.8044         3.6107         2.5657       0.135600
       9146.00        62.0916         3.6075         2.5501       0.144100
       9146.50        61.4304         3.7272         2.5310       0.147700
       9147.00        57.3865         3.7902         2.5217       0.153800
       9147.50        53.8576         3.8704         2.4999       0.156700
       9148.00        55.4087         4.0405         2.4696       0.151200
       9148.50        56.3765         3.9047         2.4526       0.143300
       9149.00        64.3763         3.6710         2.4587       0.138900
       9149.50        71.6016         3.4980         2.4856       0.137900
       9150.00        72.5475         3.4489         2.5168       0.138900
       9150.50        72.9706         3.4083         2.5386       0.140900
       9151.00        72.8886         3.3358         2.5532       0.143000
       9151.50        70.5641         3.2344         2.5628       0.148000
       9152.00        72.1212         3.1229         2.5661       0.156500
       9152.50        78.9024         2.9773         2.5628       0.165600
       9153.00        83.9697         2.7953         2.5576       0.176600
       9153.50        89.9221         2.6215         2.5598       0.194600
       9154.00       100.4641         2.4288         2.5778       0.204200
       9154.50        98.7525         2.2477         2.6034       0.206500
       9155.00        93.0515         2.1642         2.6204       0.199500
       9155.50        89.7695         2.1975         2.6164       0.187300
       9156.00        83.1408         2.3440         2.5919       0.178300
       9156.50        80.7236         2.5163         2.5688       0.178000
       9157.00        88.4695         2.1539         2.5653       0.194800
       9157.50        96.4769         1.9692         2.5751       0.217600
       9158.00       103.6292         1.9627         2.5882       0.231600
       9158.50        99.4508         2.1636         2.6037       0.224400
       9159.00        94.4162         2.4118         2.6133       0.203900
       9159.50        87.2559         2.4317         2.6070       0.182700
       9160.00        87.6758         2.4294         2.5916       0.167300
       9160.50        88.0067         2.6053         2.5813       0.158500
       9161.00        76.0803         2.8576         2.5761       0.156500
       9161.50        73.2153         2.9940         2.5661       0.157300
       9162.00        73.3358         3.0459         2.5562       0.155700
       9162.50        73.2207         3.1428         2.5558       0.152300
       9163.00        71.0698         3.3144         2.5583       0.149600
       9163.50        71.0636         3.4091         2.5627       0.147400
       9164.00        74.7957         3.4708         2.5685       0.146600
       9164.50        78.3260         3.4507         2.5731       0.147600
       9165.00        72.2690         3.3726         2.5757       0.146100
       9165.50        68.7472         3.4420         2.5741       0.140800
       9166.00        71.5175         3.6095         2.5713       0.139800
       9166.50        76.5811         3.5100         2.5728       0.145700
       9167.00        71.3704         3.3491         2.5708       0.150600
       9167.50        66.2981         3.2783         2.5646       0.149900
       9168.00        66.7012         3.2521         2.5578       0.147300
       9168.50        73.4602         3.2530         2.5523       0.146200
       9169.00        76.1910         3.2565         2.5513       0.148000
       9169.50        72.3063         3.2229         2.5576       0.153700
       9170.00        77.8046         3.1140         2.5676       0.162900
       9170.50        80.8377         2.9891         2.5761       0.172600
       9171.00        84.3846         2.9048         2.5826       0.175000
       9171.50        79.3436         2.9591         2.5740       0.167400
       9172.00        62.9865         3.0831         2.5465       0.158400
       9172.50        53.4103         3.0573         2.5260       0.158700
       9173.00        49.2231         2.9339         2.5067       0.168400
       9173.50        47.9663         2.7326         2.4628       0.175300
       9174.00        50.5881         2.7569         2.4269       0.170400
       9174.50        52.0614         2.9992         2.4435       0.157300
       9175.00        59.4606         3.2146         2.4794       0.149800
       9175.50        61.4361         3.2117         2.4896       0.155200
       9176.00        58.1226         3.0282         2.4769       0.164900
       9176.50        56.3740         2.9744         2.4777       0.166000
       9177.00        60.2580         3.0608         2.4942       0.155500
       9177.50        63.4644         3.3143         2.5044       0.144600
       9178.00        64.7841         3.6226         2.5061       0.141500
       9178.50        65.2484         3.4185         2.5213       0.143100
       9179.00        67.6052         3.2367         2.5501       0.136000
       9179.50        65.8385         3.0144         2.5626       0.113000
       9180.00        48.0114         3.5000         2.5579       0.088600
       9180.50        34.8639         3.9335         2.5817       0.087200
       9181.00        39.1447         3.8143         2.6313       0.112100
       9181.50        41.1667         3.6573         2.6362       0.150800
       9182.00        49.3419         2.7001         2.5858       0.185600
       9182.50        54.6446         1.9079         2.5362       0.202500
       9183.00        77.8539         1.8279         2.5463       0.205300
