~Version Information Block
VERS .                  2.0:  CWLS LOG ASCII STANDARD - VERSION 2.0
WRAP .                   NO:  One line per depth step
~Well Information Block
#MNEM.UNIT        Data Type   Information
#---------- ----------------  -----------
STRT .FT             728.00:  START DEPTH
STOP .FT           10480.50:  STOP DEPTH
STEP .FT               0.50:  STEP
NULL .              -999.25:  NULL VALUE
COMP .                     :  COMPANY
WELL .               STA-21:  WELL
FLD  .                     :  FIELD
LOC  .                     :  LOCATION
CTRY .                     :  COUNTRY
STAT .                     :  STATE
CNTY .                     :  COUNTY
SRVC .                     :  SERVICE COMPANY
DATE .                     :  DATE
API  .                     :  API NUMBER
UWI  .                     :  UNIQUE WELL ID
~Curve Information Block
#MNEM.UNIT         API CODE   Curve Description
#---------- ----------------  -----------------
DEPTH.FT                   :  DEPTH
GR   .GAPI                 :  Gamma Ray
RT   .OHMM                 :  RESDE
RHOB .G/C3                 :  Bulk Density
NPHI .V/V                  :  Thermal Neutron Porosity (Ratio Method) in Selected Lithology
~Parameter Information Block
#MNEM.UNIT            Value   Description
#---------- ----------------  -----------
PROJECT.            SANTAN_FE:  
~Other Information Block
# 
~A       DEPTH             GR             RT           RHOB           NPHI 
# ...
       2065.50        66.9700         1.3875         1.9331         0.5400
       2066.00        66.7100         1.3425         1.9221         0.5250
       2066.50        67.0300         1.3474         1.9230         0.5222
       2067.00        67.7300         1.3946         1.9307         0.5391
       2067.50        69.6200         1.4559         1.9408         0.5387
       2068.00        72.1800         1.5074         1.9736         0.5177
       2068.50        77.4500         1.5333         2.0358         0.4785
       2069.00        81.4200         1.5433         2.1006         0.4470
       2069.50        86.2300         1.5577         2.1453         0.4180
       2070.00        89.9900         1.5761         2.1659         0.3938
       2070.50        94.1700         1.6000         2.1717         0.3842
       2071.00        96.9000         1.6338         2.1690         0.3961
       2071.50        97.9700         1.6720         2.1603         0.4196
       2072.00        99.2900         1.7077         2.1446         0.4245
       2072.50        99.9600         1.7332         2.1287         0.4092
       2073.00       100.0800         1.7336         2.1231         0.3941
       2073.50        99.3500         1.7069         2.1225         0.3912
       2074.00        98.6200         1.6785         2.1205         0.3971
       2074.50        97.5000         1.6596         2.1118         0.3936
       2075.00        96.6000         1.6376         2.0995         0.3847
       2075.50        95.6900         1.6123         2.0911         0.3846
       2076.00        91.3300         1.5955         2.0922         0.4019
       2076.50        87.9800         1.5877         2.1081         0.4178
       2077.00        84.1300         1.5850         2.1145         0.4187
       2077.50        83.7300         1.5769         2.1081         0.4060
       2078.00        82.2900         1.5652         2.0934         0.4208
       2078.50        80.5100         1.5637         2.0877         0.4701
       2079.00        79.6800         1.5708         2.0924         0.5156
       2079.50        79.7200         1.5775         2.1000         0.5300
       2080.00        80.5800         1.5752         2.0999         0.5300
       2080.50        81.4600         1.5702         2.0922         0.5300
       2081.00        81.4800         1.5651         2.0797         0.5300
       2081.50        79.8100         1.5589         2.0724         0.5300
       2082.00        78.1300         1.5503         2.0702         0.5276
       2082.50        76.1400         1.5426         2.0735         0.5275
       2083.00        75.8200         1.5436         2.0850         0.5180
       2083.50        75.5100         1.5547         2.1092         0.5128
       2084.00        76.3700         1.5625         2.1386         0.5078
       2084.50        77.2300         1.5553         2.1417         0.5236
       2085.00        78.7900         1.5439         2.1160         0.5613
       2085.50        79.5000         1.5437         2.0701         0.5919
       2086.00        80.2000         1.5548         2.0516         0.5928
       2086.50        79.2000         1.5662         2.0662         0.5684
       2087.00        78.1900         1.5651         2.1025         0.5628
       2087.50        77.8200         1.5501         2.1257         0.5902
       2088.00        78.4500         1.5388         2.1226         0.6266
       2088.50        79.0800         1.5450         2.1017         0.6325
       2089.00        81.4100         1.5538         2.0762         0.5997
       2089.50        83.7300         1.5500         2.0617         0.5703
       2090.00        86.0800         1.5425         2.0635         0.5511
       2090.50        86.1000         1.5438         2.0764         0.5357
       2091.00        85.2900         1.5551         2.0894         0.5228
       2091.50        84.4600         1.5714         2.0905         0.5257
       2092.00        83.6300         1.5902         2.0802         0.5482
       2092.50        83.3300         1.6013         2.0656         0.5624
       2093.00        83.0300         1.5948         2.0611         0.5595
       2093.50        83.0600         1.5824         2.0731         0.5395
       2094.00        83.4100         1.5749         2.0972         0.5095
       2094.50        82.1800         1.5764         2.1201         0.4756
       2095.00        80.6100         1.5904         2.1378         0.4547
       2095.50        77.1800         1.6052         2.1477         0.4618
       2096.00        75.3200         1.6100         2.1361         0.4874
       2096.50        74.1700         1.6100         2.1035         0.5073
       2097.00        74.8900         1.6100         2.0742         0.4997
       2097.50        76.1800         1.6100         2.0650         0.4673
       2098.00        76.7500         1.6126         2.0712         0.4324
       2098.50        77.9900         1.6203         2.0814         0.4094
       2099.00        78.6500         1.6263         2.0833         0.4070
       2099.50        80.3500         1.6248         2.0656         0.4334
       2100.00        81.3800         1.6212         2.0575         0.4801
       2100.50        83.2300         1.6200         2.0540         0.5109
       2101.00        84.0600         1.6173         2.0561         0.5203
       2101.50        85.1900         1.6096         2.0482         0.5225
       2102.00        85.4900         1.6077         2.0412         0.5225
       2102.50        85.1400         1.6209         2.0303         0.5251
       2103.00        84.4800         1.6355         2.0335         0.5288
       2103.50        83.2000         1.6400         2.0309         0.5387
       2104.00        82.5800         1.6359         2.0300         0.5463
       2104.50        80.0900         1.6243         2.0004         0.5273
       2105.00        78.2400         1.6175         1.9519         0.4798
       2105.50        75.9500         1.6258         1.9296         0.4351
       2106.00        76.2400         1.6422         1.9480         0.4250
       2106.50        77.4700         1.6667         1.9855         0.4466
       2107.00        79.1400         1.6828         2.0096         0.4819
       2107.50        80.0800         1.6794         2.0178         0.4985
       2108.00        80.0800         1.6638         2.0301         0.5049
       2108.50        79.9800         1.6494         2.0323         0.5026
       2109.00        79.8700         1.6478         2.0297         0.5175
       2109.50        80.9900         1.6528         2.0275         0.5334
       2110.00        82.3500         1.6564         2.0285         0.5443
       2110.50        83.7100         1.6475         2.0386         0.5490
       2111.00        83.8800         1.6286         2.0652         0.5447
       2111.50        83.9200         1.6243         2.0866         0.5262
       2112.00        82.5200         1.6476         2.0779         0.5054
       2112.50        80.6700         1.6726         2.0542         0.4975
       2113.00        78.8200         1.6771         2.0450         0.5026
       2113.50        78.7700         1.6692         2.0414         0.5128
       2114.00        80.0600         1.6621         2.0362         0.5192
       2114.50        81.6200         1.6600         2.0290         0.5225
       2115.00        83.0000         1.6571         2.0199         0.5211
       2115.50        83.4400         1.6579         2.0196         0.5156
       2116.00        84.6800         1.6541         2.0377         0.5117
       2116.50        86.9600         1.6500         2.0542         0.5242
       2117.00        89.5900         1.6426         2.0625         0.5573
       2117.50        91.1700         1.6390         2.0623         0.5828
       2118.00        91.7200         1.6430         2.0579         0.5828
       2118.50        91.6300         1.6480         2.0440         0.5591
