~Version Information Block
VERS .                  2.0:  CWLS LOG ASCII STANDARD - VERSION 2.0
WRAP .                   NO:  One line per depth step
~Well Information Block
#MNEM.UNIT        Data Type   Information
#---------- ----------------  -----------
STRT .FT            3742.00:  START DEPTH
STOP .FT            8440.00:  STOP DEPTH
STEP .FT               0.50:  STEP
NULL .              -999.25:  NULL VALUE
COMP .                     :  COMPANY
WELL .                STA-2:  WELL
FLD  .                     :  FIELD
LOC  .                     :  LOCATION
CTRY .                     :  COUNTRY
STAT .                     :  STATE
CNTY .                     :  COUNTY
SRVC .                     :  SERVICE COMPANY
DATE .                     :  DATE
API  .                     :  API NUMBER
UWI  .                     :  UNIQUE WELL ID
~Curve Information Block
#MNEM.UNIT         API CODE   Curve Description
#---------- ----------------  -----------------
DEPTH.FT                   :  DEPTH
GR   .GAPI                 :  Gamma Ray
RT   .OHMM                 :  Deep resistivity
RHOB .G/C3                 :  Bulk Density
NPHI .V/V                  :  Neutron porosity
DT   .US/F                 :  Sonic
~Parameter Information Block
#MNEM.UNIT            Value   Description
#---------- ----------------  -----------
PROJECT.            SANTAN_FE:  
~Other Information Block
# 
~A       DEPTH             GR             RT           RHOB           NPHI             DT 
# ...
       6590.00        39.7800        25.0800         2.0500       0.120000       105.4000
       6590.50        38.2100        22.9000         2.0200       0.110000       105.4000
       6591.00        35.8500        21.4000         2.0100       0.100000       105.8500
       6591.50        34.6300        32.9000         1.9800       0.090000       106.3500
       6592.00        33.8200        36.7300         1.9900       0.090000       107.1000
       6592.50        35.8400        34.9700         2.0000       0.110000       106.2500
       6593.00        36.7900        26.5500         2.0500       0.130000       105.4000
       6593.50        36.8100        18.2800         2.0600       0.130000       105.4000
       6594.00        36.2600        20.0400         2.0300       0.110000       105.4000
       6594.50        34.7800        26.8000         2.0100       0.110000       105.8500
       6595.00        35.7000        22.6600         2.0400       0.120000       105.2500
       6595.50        35.7100        19.8400         2.0900       0.140000       105.7000
       6596.00        35.4300        16.2800         2.0900       0.140000       104.7000
       6596.50        33.9800        18.4000         2.0700       0.140000       104.7000
       6597.00        32.1000        24.8700         2.0700       0.140000       106.4000
       6597.50        31.9100        21.0900         2.0600       0.130000       106.0000
       6598.00        28.1500        24.3200         2.0100       0.110000       107.1500
       6598.50        30.8300        21.1500         1.9300       0.090000       108.7500
       6599.00        28.0800        27.8300         1.9300       0.090000       108.5500
       6599.50        28.2600        21.5700         1.9500       0.130000       108.5000
       6600.00        25.0500        17.7600         1.9900       0.170000       107.6500
       6600.50        25.3000        15.5200         2.0300       0.220000       106.0500
       6601.00        26.2000         9.0800         2.0600       0.240000       105.2000
       6601.50        25.2400         3.9200         2.0800       0.250000       103.7000
       6602.00        25.2600         3.4500         2.0800       0.260000       102.8500
       6602.50        23.4800         1.9400         2.0800       0.260000       102.8000
       6603.00        22.4300         1.7900         2.0700       0.260000       102.3000
       6603.50        23.0400         1.8500         2.0800       0.250000       102.8000
       6604.00        24.4200         2.5600         2.1000       0.250000       101.6500
       6604.50        24.2800         2.9200         2.1300       0.250000        99.9500
       6605.00        22.7300         1.5400         2.1500       0.260000        98.8000
       6605.50        24.6000         2.9700         2.1600       0.260000        98.2000
       6606.00        26.7400         3.1700         2.1500       0.260000        98.4000
       6606.50        29.0300         2.5300         2.1400       0.260000        99.1500
       6607.00        25.0200         2.7000         2.1200       0.250000       100.4000
       6607.50        23.4300         2.2700         2.1000       0.260000       102.3000
       6608.00        22.3600         2.4400         2.0900       0.250000       102.5000
       6608.50        27.8500         2.2800         2.0900       0.250000       101.9000
       6609.00        30.2200         2.3900         2.1100       0.250000       100.9500
       6609.50        30.3500         2.7400         2.1400       0.250000        99.8000
       6610.00        28.0600         2.6200         2.1400       0.250000       100.2500
       6610.50        25.5500         2.2800         2.1300       0.240000       101.0000
       6611.00        28.8800         2.7000         2.1300       0.240000       101.4000
       6611.50        31.2900         2.4400         2.1400       0.230000       100.2000
       6612.00        33.3200         2.2800         2.1800       0.240000        99.7500
       6612.50        32.1300         2.6500         2.1700       0.260000        99.6000
       6613.00        28.9100         2.5700         2.1400       0.260000       100.2500
       6613.50        28.3500         2.2200         2.1100       0.260000       100.8500
       6614.00        26.7400         2.5400         2.1200       0.250000       101.1500
       6614.50        26.8800         2.4500         2.1300       0.240000       101.0000
       6615.00        26.6200         2.3700         2.1200       0.230000       101.2000
       6615.50        25.0100         2.2800         2.1200       0.240000       101.0500
       6616.00        25.1600         2.2000         2.1200       0.250000       101.2000
       6616.50        24.8600         2.2300         2.1300       0.250000       101.5500
       6617.00        27.2600         2.6300         2.1300       0.240000       100.9000
       6617.50        29.5900         2.7100         2.1300       0.240000       101.4000
       6618.00        32.1600         2.3800         2.1400       0.250000       101.0000
       6618.50        33.2100         2.4400         2.1400       0.240000       101.0000
       6619.00        31.6600         2.3600         2.1500       0.230000        99.9000
       6619.50        29.5100         2.3700         2.1500       0.230000       100.1000
       6620.00        28.1900         2.1600         2.1300       0.240000       103.0500
       6620.50        35.5300         1.9300         2.1500       0.250000       103.1000
       6621.00        49.8100         1.7200         2.1900       0.270000       103.6500
       6621.50        55.6800         1.8500         2.2500       0.290000       104.6000
       6622.00        53.1400         1.9900         2.2400       0.300000       104.9000
       6622.50        41.8200         1.8900         2.1900       0.280000       105.7000
       6623.00        35.3300         2.1200         2.1300       0.270000       106.6500
       6623.50        31.4600         1.9100         2.1000       0.260000       107.6000
       6624.00        32.4900         1.8900         2.0900       0.240000       108.5000
       6624.50        42.9000         2.2200         2.1400       0.260000       107.2500
       6625.00        54.8000         1.4700         2.1900       0.270000       106.0000
       6625.50        60.8100         2.2100         2.2600       0.310000       105.6000
       6626.00        52.3300         1.7700         2.2200       0.290000       105.2000
       6626.50        37.8000         2.2100         2.1400       0.290000       105.2000
       6627.00        26.2200         2.0500         2.0700       0.260000       106.4500
       6627.50        23.6900         1.5900         2.0600       0.270000       106.3000
       6628.00        24.0500         1.7300         2.0900       0.260000       104.9000
       6628.50        25.8200         2.2600         2.1100       0.250000       104.6000
       6629.00        31.0200         2.2700         2.1500       0.210000        99.0000
       6629.50        35.0300         2.9400         2.2100       0.180000        94.4000
       6630.00        43.3000         3.6700         2.2900       0.180000        93.9500
       6630.50        55.7800         2.4700         2.3700       0.210000        91.5500
       6631.00        77.5900         2.6700         2.4300       0.230000        92.9500
       6631.50        92.3100         2.8800         2.5000       0.240000        94.0500
       6632.00       100.3100         2.6500         2.4800       0.250000        92.8000
       6632.50       104.0700         2.4100         2.5100       0.260000        93.8000
       6633.00       109.5400         2.1800         2.5100       0.270000        95.2500
       6633.50       114.6000         2.3400         2.5100       0.260000        96.4000
       6634.00       115.8200         2.3000         2.4700       0.270000        98.0000
