~Version Information Block
VERS .                  2.0:  CWLS LOG ASCII STANDARD - VERSION 2.0
WRAP .                   NO:  One line per depth step
~Well Information Block
#MNEM.UNIT        Data Type   Information
#---------- ----------------  -----------
STRT .FT             728.00:  START DEPTH
STOP .FT           10480.50:  STOP DEPTH
STEP .FT               0.50:  STEP
NULL .              -999.25:  NULL VALUE
COMP .                     :  COMPANY
WELL .               STA-21:  WELL
FLD  .                     :  FIELD
LOC  .                     :  LOCATION
CTRY .                     :  COUNTRY
STAT .                     :  STATE
CNTY .                     :  COUNTY
SRVC .                     :  SERVICE COMPANY
DATE .                     :  DATE
API  .                     :  API NUMBER
UWI  .                     :  UNIQUE WELL ID
~Curve Information Block
#MNEM.UNIT         API CODE   Curve Description
#---------- ----------------  -----------------
DEPTH.FT                   :  DEPTH
GR   .GAPI                 :  Gamma Ray
RT   .OHMM                 :  RESDE
RHOB .G/C3                 :  Bulk Density
NPHI .V/V                  :  Thermal Neutron Porosity (Ratio Method) in Selected Lithology
~Parameter Information Block
#MNEM.UNIT            Value   Description
#---------- ----------------  -----------
PROJECT.            SANTAN_FE:  
~Other Information Block
# 
~A       DEPTH             GR             RT           RHOB           NPHI 
# ...
       6559.50        73.2600         1.8834         2.3192         0.3539
       6560.00        74.2300         1.9001         2.3474         0.3463
       6560.50        74.1500         1.9072         2.3547         0.3486
       6561.00        75.3800         1.9075         2.3427         0.3638
       6561.50        78.6500         1.8899         2.3401         0.3832
       6562.00        83.1900         1.8979         2.3452         0.4058
       6562.50        86.6200         1.9040         2.3470         0.4361
       6563.00        88.1700         1.9162         2.3421         0.4672
       6563.50        88.8600         1.9094         2.3405         0.4800
       6564.00        88.3000         1.8918         2.3425         0.4647
       6564.50        87.8300         1.8850         2.3445         0.4414
       6565.00        88.1200         1.8821         2.3469         0.4339
       6565.50        88.9400         1.8800         2.3383         0.4489
       6566.00        89.8800         1.8642         2.3321         0.4628
       6566.50        89.3700         1.8542         2.3307         0.4567
       6567.00        91.1300         1.8525         2.3397         0.4305
       6567.50        93.8200         1.8357         2.3488         0.4067
       6568.00        97.2700         1.8286         2.3566         0.4000
       6568.50        99.3100         1.8173         2.3644         0.4056
       6569.00       100.1400         1.8140         2.3675         0.4183
       6569.50       100.8400         1.8257         2.3625         0.4347
       6570.00       100.7600         1.8171         2.3547         0.4480
       6570.50       100.5200         1.8111         2.3506         0.4567
       6571.00       100.2600         1.7758         2.3520         0.4656
       6571.50        99.5700         1.7903         2.3566         0.4742
       6572.00        99.7600         1.8190         2.3618         0.4741
       6572.50        97.9300         1.8246         2.3677         0.4647
       6573.00        95.7900         1.8272         2.3732         0.4495
       6573.50        93.0600         1.8797         2.3762         0.4372
       6574.00        91.0400         2.0049         2.3692         0.4293
       6574.50        88.9000         2.1193         2.3505         0.4276
       6575.00        85.5400         2.1581         2.3272         0.4244
       6575.50        84.0300         2.1228         2.3028         0.4210
       6576.00        83.3300         2.0685         2.3108         0.4176
       6576.50        83.2500         2.0331         2.3254         0.4125
       6577.00        84.1700         2.0132         2.3427         0.4092
       6577.50        86.5700         2.0038         2.3567         0.4076
       6578.00        88.3600         2.0122         2.3564         0.4092
       6578.50        87.8800         2.0546         2.3467         0.4017
       6579.00        83.6300         2.1414         2.3415         0.3756
       6579.50        78.1600         2.2466         2.3325         0.3447
       6580.00        68.3300         2.3126         2.3205         0.3269
       6580.50        60.9200         2.3532         2.3049         0.3197
       6581.00        54.6800         2.3658         2.2906         0.3119
       6581.50        53.3300         2.3637         2.2792         0.3006
       6582.00        52.5800         2.3357         2.2738         0.2959
       6582.50        54.1700         2.3039         2.2858         0.2979
       6583.00        57.5700         2.2602         2.3077         0.3135
       6583.50        62.0300         2.1904         2.3175         0.3318
       6584.00        67.3700         2.1052         2.3175         0.3536
       6584.50        72.3600         2.0374         2.3114         0.3703
       6585.00        76.0200         2.0132         2.3145         0.3834
       6585.50        77.4700         1.9951         2.3175         0.3873
       6586.00        78.0100         1.9816         2.3240         0.3702
       6586.50        77.9100         1.9660         2.3178         0.3478
       6587.00        77.5000         1.9683         2.3125         0.3441
       6587.50        76.3400         1.9836         2.3135         0.3591
       6588.00        74.6100         2.0069         2.3200         0.3725
       6588.50        73.3200         2.0397         2.3176         0.3676
       6589.00        72.5100         2.0417         2.3085         0.3541
       6589.50        72.6900         2.0439         2.3013         0.3647
       6590.00        73.6100         2.0120         2.2963         0.4010
       6590.50        74.8600         1.9734         2.2805         0.4321
       6591.00        76.0600         1.9320         2.2658         0.4356
       6591.50        76.4000         1.9128         2.2520         0.4306
       6592.00        76.1200         1.9100         2.2513         0.4258
       6592.50        75.7200         1.9061         2.2616         0.4048
       6593.00        76.5000         1.8972         2.2945         0.3758
       6593.50        77.5500         1.8950         2.3093         0.3728
       6594.00        79.3100         1.8950         2.2910         0.3938
       6594.50        80.4300         1.8950         2.2593         0.4035
       6595.00        82.4200         1.8931         2.2443         0.3950
       6595.50        83.7800         1.8964         2.2318         0.3973
       6596.00        84.2900         1.9014         2.2300         0.4088
       6596.50        83.7800         1.9064         2.2340         0.4100
       6597.00        83.2600         1.9211         2.2554         0.4033
       6597.50        83.6400         1.9328         2.2788         0.3943
       6598.00        83.9300         1.9389         2.2984         0.3825
       6598.50        83.6000         1.9439         2.3085         0.3809
       6599.00        82.7100         1.9567         2.3034         0.3783
       6599.50        81.8200         1.9658         2.2943         0.3792
       6600.00        81.5500         1.9636         2.2725         0.3735
       6600.50        80.7100         1.9722         2.2719         0.3626
       6601.00        79.9200         1.9886         2.2693         0.3599
       6601.50        79.1300         1.9886         2.2675         0.3785
       6602.00        79.3800         1.9681         2.2618         0.4217
       6602.50        79.8700         1.9372         2.2537         0.4525
       6603.00        81.6500         1.8989         2.2607         0.4392
       6603.50        84.0000         1.8744         2.2846         0.3999
       6604.00        86.3500         1.8603         2.2871         0.3790
       6604.50        87.9400         1.8381         2.2948         0.3925
       6605.00        90.3200         1.8092         2.2945         0.4257
       6605.50        92.7100         1.7519         2.3018         0.4523
       6606.00        95.7900         1.6772         2.3159         0.4605
       6606.50        96.3000         1.6504         2.3250         0.4667
       6607.00        96.8200         1.6696         2.3319         0.4688
       6607.50        95.3400         1.6881         2.3266         0.4790
       6608.00        94.8900         1.6738         2.3110         0.4818
       6608.50        94.3000         1.6682         2.2927         0.4896
       6609.00        94.5000         1.6762         2.2883         0.4804
       6609.50        93.5600         1.6859         2.2941         0.4800
       6610.00        92.4900         1.6662         2.3068         0.4845
       6610.50        91.7400         1.6369         2.3185         0.4904
       6611.00        91.7800         1.6275         2.3250         0.4964
       6611.50        92.8700         1.6345         2.3231         0.5105
       6612.00        93.9800         1.6557         2.3161         0.5195
       6612.50        95.5200         1.6838         2.3120         0.5200
