~Version Information Block
VERS .                  2.0:  CWLS LOG ASCII STANDARD - VERSION 2.0
WRAP .                   NO:  One line per depth step
~Well Information Block
#MNEM.UNIT        Data Type   Information
#---------- ----------------  -----------
STRT .FT            4880.50:  START DEPTH
STOP .FT           10428.00:  STOP DEPTH
STEP .FT               0.50:  STEP
NULL .              -999.25:  NULL VALUE
COMP .                     :  COMPANY
WELL .                STA-3:  WELL
FLD  .                     :  FIELD
LOC  .                     :  LOCATION
CTRY .                     :  COUNTRY
STAT .                     :  STATE
CNTY .                     :  COUNTY
SRVC .                     :  SERVICE COMPANY
DATE .                     :  DATE
API  .                     :  API NUMBER
UWI  .                     :  UNIQUE WELL ID
~Curve Information Block
#MNEM.UNIT         API CODE   Curve Description
#---------- ----------------  -----------------
DEPTH.FT                   :  DEPTH
GR   .GAPI                 :  Gamma Ray
RT   .OHMM                 :  Deep resistivity
RHOB .G/C3                 :  Bulk Density
NPHI .V/V                  :  Neutron porosity
DT   .US/F                 :  Sonic
~Parameter Information Block
#MNEM.UNIT            Value   Description
#---------- ----------------  -----------
PROJECT.            SANTAN_FE:  
~Other Information Block
# 
~A       DEPTH             GR             RT           RHOB           NPHI             DT 
# ...
       5014.00        84.3661      -999.2500      -999.2500       0.411100      -999.2500
       5014.50        85.5434      -999.2500      -999.2500       0.408000      -999.2500
       5015.00        84.5674      -999.2500      -999.2500       0.426400      -999.2500
       5015.50        79.8394      -999.2500      -999.2500       0.443300      -999.2500
       5016.00        79.3397      -999.2500      -999.2500       0.448100      -999.2500
       5016.50        79.4721      -999.2500      -999.2500       0.451400      -999.2500
       5017.00        77.3537      -999.2500      -999.2500       0.443500      -999.2500
       5017.50        77.6850      -999.2500      -999.2500       0.474100      -999.2500
       5018.00        79.6710      -999.2500      -999.2500       0.497200      -999.2500
       5018.50        82.1894      -999.2500      -999.2500       0.536200      -999.2500
       5019.00        82.2254      -999.2500      -999.2500       0.585000      -999.2500
       5019.50        82.0930      -999.2500      -999.2500       0.583300      -999.2500
       5020.00        85.0966      -999.2500      -999.2500       0.555900      -999.2500
       5020.50        88.2741      -999.2500      -999.2500       0.501100      -999.2500
       5021.00        89.6352      -999.2500      -999.2500       0.494400      -999.2500
       5021.50        90.5288      -999.2500      -999.2500       0.492300      -999.2500
       5022.00        92.1970      -999.2500      -999.2500       0.499200      -999.2500
       5022.50        92.3939      -999.2500      -999.2500       0.517200      -999.2500
       5023.00        95.3673      -999.2500      -999.2500       0.517500      -999.2500
       5023.50        95.9495      -999.2500      -999.2500       0.538500      -999.2500
       5024.00        93.9819      -999.2500      -999.2500       0.530000      -999.2500
       5024.50        87.6461      -999.2500      -999.2500       0.538700      -999.2500
       5025.00        78.3759      -999.2500      -999.2500       0.487500      -999.2500
       5025.50        72.3853      -999.2500      -999.2500       0.479300      -999.2500
       5026.00        70.3798      -999.2500      -999.2500       0.442000      -999.2500
       5026.50        73.7974      -999.2500      -999.2500       0.402400      -999.2500
       5027.00        79.5045      -999.2500      -999.2500       0.340100      -999.2500
       5027.50        81.1230      -999.2500      -999.2500       0.304700      -999.2500
       5028.00        84.1582      -999.2500      -999.2500       0.331100      -999.2500
       5028.50        82.6993      -999.2500      -999.2500       0.338900      -999.2500
       5029.00        84.0299      -999.2500      -999.2500       0.356000      -999.2500
       5029.50        85.3748      -999.2500      -999.2500       0.318600      -999.2500
       5030.00        85.5208      -999.2500      -999.2500       0.331800      -999.2500
       5030.50        86.6455      -999.2500      -999.2500       0.304600        78.3000
       5031.00        84.5225         2.1109      -999.2500       0.322800        81.0000
       5031.50        84.1550         2.1931      -999.2500       0.301400        83.0000
       5032.00        80.6798         2.2974         2.2113       0.323700        83.9000
       5032.50        75.6830         2.4157         2.2068       0.340500        84.7000
       5033.00        75.4479         2.6183         2.1994       0.362000        88.3500
       5033.50        73.3891         2.3673         2.1646       0.384800        96.0500
       5034.00        72.9190         2.3281         2.1439       0.402000       105.1000
       5034.50        74.7584         2.1567         2.1472       0.450600       111.9000
       5035.00        73.4967         2.0268         2.1750       0.410900       113.8000
       5035.50        80.9406         1.9925         2.2111       0.375700       116.6500
       5036.00        86.9104         2.0524         2.2480       0.324500       115.9000
       5036.50        96.8696         1.7657         2.2845       0.352800       114.7000
       5037.00        98.4243         1.6201         2.3049       0.376400       116.7000
       5037.50        96.3970         1.6989         2.3049       0.393500       118.2500
       5038.00        91.5280         1.8023         2.2937       0.391900       119.0500
       5038.50        85.0241         1.8653         2.2764       0.384600       119.7000
       5039.00        81.2894         1.8981         2.2594       0.373700       120.3000
       5039.50        81.1002         1.8772         2.2482       0.362600       120.5000
       5040.00        82.0788         1.9482         2.2482       0.372300       120.8500
       5040.50        82.4476         1.8221         2.2718       0.401300       121.0000
       5041.00        85.8954         1.5557         2.2992       0.417000       121.0000
       5041.50        88.0094         1.6477         2.3064       0.393300       120.1000
       5042.00        85.2599         1.7829         2.2981       0.357500       118.9500
       5042.50        76.6823         1.8813         2.2995       0.337000       117.3000
       5043.00        71.2889         2.1379         2.2743       0.337600       116.9500
       5043.50        68.9082         2.3883         2.2470       0.326100       117.0000
       5044.00        71.0497         2.3519         2.2244       0.330300       118.4000
       5044.50        70.0144         2.0746         2.2327       0.333400       118.5000
       5045.00        76.2756         1.9399         2.2582       0.358700       118.9000
       5045.50        85.4109         1.5782         2.2973       0.382400       120.2000
       5046.00        97.3889         1.3319         2.3245       0.398600       120.5500
       5046.50       103.4633         1.3035         2.3370       0.409900       122.2000
       5047.00       104.5833         1.3113         2.3408       0.416100       124.2000
       5047.50       102.9978         1.2924         2.3324       0.430400       125.3500
       5048.00       103.3857         1.2807         2.3264       0.422900       126.6000
       5048.50        97.6019         1.2505         2.3194       0.422500       127.1000
       5049.00        99.3898         1.2347         2.3152       0.422600       127.7000
       5049.50        96.8174         1.2611         2.3083       0.414800       127.4000
       5050.00       103.7903         1.2349         2.3085       0.424400       127.5500
       5050.50       106.0410         1.2178         2.3097       0.413000       128.0000
       5051.00       108.6835         1.2281         2.3139       0.427300       127.6500
       5051.50       103.7585         1.2614         2.3045       0.405600       126.8000
       5052.00        94.0938         1.3549         2.2952       0.388900       120.6500
       5052.50        78.4104         1.7227         2.2726       0.361000       116.5500
       5053.00        64.2473         2.2760         2.2493       0.349100       115.8500
       5053.50        55.0160         2.4578         2.2055       0.349700       114.1000
       5054.00        52.9681         2.6698         2.1536       0.355900       115.4000
       5054.50        53.3661         2.9667         2.1127       0.376300       114.5000
       5055.00        52.0395         3.1954         2.0868       0.374700       115.5000
       5055.50        52.7820         3.2740         2.1149       0.367200       116.0000
       5056.00        50.7760         3.3634         2.1214       0.323600       116.1000
       5056.50        53.9523         3.2643         2.1294       0.308200       117.4500
       5057.00        57.4423         3.0470         2.1374       0.303500       115.4000
       5057.50        59.4303         3.0161         2.1756       0.314600       114.8000
       5058.00        67.6345         2.8898         2.2271       0.326800       113.0000
