~Version Information Block
VERS .                  2.0:  CWLS LOG ASCII STANDARD - VERSION 2.0
WRAP .                   NO:  One line per depth step
~Well Information Block
#MNEM.UNIT        Data Type   Information
#---------- ----------------  -----------
STRT .FT            6114.50:  START DEPTH
STOP .FT           14965.50:  STOP DEPTH
STEP .FT               0.50:  STEP
NULL .              -999.25:  NULL VALUE
COMP .                     :  COMPANY
WELL .               STA-36:  WELL
FLD  .                     :  FIELD
LOC  .                     :  LOCATION
CTRY .                     :  COUNTRY
STAT .                     :  STATE
CNTY .                     :  COUNTY
SRVC .                     :  SERVICE COMPANY
DATE .                     :  DATE
API  .                     :  API NUMBER
UWI  .                     :  UNIQUE WELL ID
~Curve Information Block
#MNEM.UNIT         API CODE   Curve Description
#---------- ----------------  -----------------
DEPTH.FT                   :  Depth
GR   .GAPI                 :  Gamma Ray
RT   .OHMM                 :  True Resistivity
RHOB .G/C3                 :  Bulk Density
NPHI .V/V                  :  Neutron Porosity
~Parameter Information Block
#MNEM.UNIT            Value   Description
#---------- ----------------  -----------
PROJECT.            SANTAN_FE:  
~Other Information Block
# 
~A       DEPTH             GR             RT           RHOB           NPHI 
# ...
       6703.00        37.6942         1.5069         2.1333       0.379000
       6703.50        36.4729         1.5071         2.1339       0.372600
       6704.00        35.6334         1.5028         2.1334       0.363100
       6704.50        37.1041         1.5003         2.1342       0.356700
       6705.00        34.1217         1.5005         2.1408       0.344800
       6705.50        35.1828         1.4992         2.1474       0.338000
       6706.00        33.1687         1.4999         2.1471       0.341800
       6706.50        28.8691         1.5059         2.1401       0.347400
       6707.00        28.8330         1.5001         2.1288       0.358500
       6707.50        30.7764         1.5058         2.1179       0.365300
       6708.00        29.9649         1.4947         2.1093       0.358700
       6708.50        28.0807         1.4911         2.0980       0.352500
       6709.00        23.4151         1.4917         2.0860       0.353800
       6709.50        23.3819         1.4822         2.0793       0.347900
       6710.00        23.7509         1.4673         2.0739       0.332300
       6710.50        24.3764         1.4535         2.0696       0.325100
       6711.00        25.0473         1.4323         2.0690       0.337300
       6711.50        22.7269         1.4164         2.0674       0.354300
       6712.00        21.7894         1.4178         2.0640       0.362000
       6712.50        23.1718         1.4180         2.0578       0.361200
       6713.00        23.6626         1.4080         2.0490       0.353700
       6713.50        22.8567         1.4075         2.0479       0.349000
       6714.00        26.8015         1.4006         2.0609       0.346900
       6714.50        24.9912         1.3910         2.0753       0.337200
       6715.00        22.1632         1.3916         2.0789       0.327400
       6715.50        20.3722         1.3925         2.0729       0.331700
       6716.00        20.9841         1.3850         2.0636       0.341400
       6716.50        20.5181         1.3740         2.0559       0.344700
       6717.00        22.6381         1.3638         2.0505       0.346100
       6717.50        21.2546         1.3551         2.0498       0.351900
       6718.00        19.3621         1.3481         2.0536       0.351300
       6718.50        20.2661         1.3460         2.0565       0.341400
       6719.00        18.3252         1.3527         2.0582       0.338500
       6719.50        20.2825         1.3497         2.0620       0.339600
       6720.00        22.1472         1.3342         2.0628       0.337100
       6720.50        24.4564         1.3345         2.0629       0.343800
       6721.00        24.9281         1.3480         2.0783       0.353600
       6721.50        26.5627         1.3586         2.1049       0.349500
       6722.00        26.9902         1.3680         2.1221       0.342400
       6722.50        28.4337         1.3771         2.1267       0.348200
       6723.00        27.1105         1.3798         2.1176       0.359400
       6723.50        27.4223         1.3830         2.0948       0.361800
       6724.00        24.2750         1.3820         2.0694       0.358800
       6724.50        23.0009         1.3839         2.0574       0.358200
       6725.00        23.6743         1.3963         2.0605       0.353400
       6725.50        24.2428         1.4121         2.0699       0.344000
       6726.00        25.8894         1.4370         2.0799       0.340600
       6726.50        26.6132         1.4696         2.0906       0.342700
       6727.00        28.3725         1.4931         2.1050       0.344100
       6727.50        29.3418         1.5187         2.1218       0.352000
       6728.00        32.3850         1.5462         2.1400       0.365000
       6728.50        35.3972         1.5591         2.1611       0.366600
       6729.00        42.5310         1.5650         2.1812       0.361800
       6729.50        44.0977         1.6015         2.1976       0.366700
       6730.00        52.4503         1.6401         2.2165       0.381400
       6730.50        61.2032         1.6654         2.2488       0.397700
       6731.00        66.3422         1.6647         2.2864       0.408200
       6731.50        72.2956         1.5784         2.3105       0.414400
       6732.00        77.9529         1.5929         2.3265       0.415500
       6732.50        77.3632         1.5953         2.3406       0.411000
       6733.00        78.7490         1.6121         2.3471       0.407800
       6733.50        81.8731         1.5970         2.3440       0.402600
       6734.00        80.5351         1.5798         2.3369       0.397200
       6734.50        79.9337         1.6260         2.3319       0.401700
       6735.00        81.7881         1.6643         2.3320       0.410100
       6735.50        79.4457         1.6838         2.3361       0.414000
       6736.00        84.0715         1.6906         2.3361       0.415900
       6736.50        82.1068         1.6774         2.3280       0.417900
       6737.00        81.1554         1.6423         2.3205       0.418800
       6737.50        85.1796         1.6417         2.3204       0.420700
       6738.00        85.8074         1.7077         2.3253       0.424100
       6738.50        91.2706         1.6970         2.3294       0.419900
       6739.00        89.1929         1.6771         2.3261       0.408600
       6739.50        90.6955         1.6195         2.3166       0.403300
       6740.00        89.6458         1.6354         2.3076       0.399600
       6740.50        84.8193         1.7325         2.3010       0.391300
       6741.00        80.9596         1.8913         2.2971       0.384800
       6741.50        75.2654         1.9823         2.2983       0.381900
       6742.00        75.0610         1.9315         2.3039       0.384800
       6742.50        74.4941         1.9344         2.3136       0.401100
       6743.00        73.0548         1.9702         2.3255       0.420900
       6743.50        73.6702         1.9735         2.3352       0.423000
       6744.00        69.6050         1.9441         2.3395       0.407000
       6744.50        66.8222         1.9701         2.3376       0.385000
       6745.00        62.4325         2.0307         2.3358       0.371700
       6745.50        58.8359         2.0994         2.3351       0.365100
       6746.00        52.9574         2.1356         2.3322       0.351600
       6746.50        51.2630         2.1544         2.3347       0.333800
       6747.00        47.6733         2.1773         2.3425       0.322700
       6747.50        43.8729         2.1330         2.3447       0.322800
       6748.00        45.9410         2.0993         2.3365       0.333600
       6748.50        49.9269         2.1009         2.3237       0.348200
       6749.00        50.5835         2.1117         2.3151       0.348600
       6749.50        53.0345         2.1176         2.3095       0.337000
       6750.00        56.4549         2.1556         2.3069       0.333200
       6750.50        54.8481         2.1408         2.3114       0.337400
       6751.00        56.8749         2.0985         2.3144       0.344500
       6751.50        54.8559         2.0697         2.3084       0.345600
       6752.00        54.3837         2.0533         2.2981       0.337200
       6752.50        54.9605         2.0360         2.2899       0.328300
       6753.00        56.9281         2.0197         2.2882       0.326400
       6753.50        56.4960         2.0119         2.2980       0.332000
       6754.00        60.7698         1.9995         2.3133       0.341500
       6754.50        65.4437         1.9692         2.3244       0.348300
       6755.00        68.3681         1.9397         2.3274       0.358000
       6755.50        68.4999         1.9448         2.3275       0.373500
       6756.00        72.0432         1.9026         2.3331       0.382200
