~Version Information Block
VERS .                  2.0:  CWLS LOG ASCII STANDARD - VERSION 2.0
WRAP .                   NO:  One line per depth step
~Well Information Block
#MNEM.UNIT        Data Type   Information
#---------- ----------------  -----------
STRT .FT             224.00:  START DEPTH
STOP .FT            7977.50:  STOP DEPTH
STEP .FT               0.50:  STEP
NULL .              -999.25:  NULL VALUE
COMP .                     :  COMPANY
WELL .               STA-22:  WELL
FLD  .                     :  FIELD
LOC  .                     :  LOCATION
CTRY .                     :  COUNTRY
STAT .                     :  STATE
CNTY .                     :  COUNTY
SRVC .                     :  SERVICE COMPANY
DATE .                     :  DATE
API  .                     :  API NUMBER
UWI  .                     :  UNIQUE WELL ID
~Curve Information Block
#MNEM.UNIT         API CODE   Curve Description
#---------- ----------------  -----------------
DEPTH.FT                   :  DEPTH
GR   .GAPI                 :  Gamma Ray
RT   .OHMM                 :  RESDE
RHOB .G/C3                 :  Bulk Density
NPHI .V/V                  :  Thermal Neutron Porosity (Ratio Method) in Selected Lithology
~Parameter Information Block
#MNEM.UNIT            Value   Description
#---------- ----------------  -----------
PROJECT.            SANTAN_FE:  
~Other Information Block
# 
~A       DEPTH             GR             RT           RHOB           NPHI 
# ...
       3808.50        30.8100         3.9398         1.9448       0.246500
       3809.00        30.6400         5.4955         2.1056       0.199400
       3809.50        30.7000         6.1590         2.4509       0.165500
       3810.00        30.3800         6.6195         2.3709       0.161100
       3810.50        30.8100         6.8200         2.2920       0.180600
       3811.00        30.7600         5.8636         2.2232       0.194100
       3811.50        30.7000         5.3200         2.1837       0.189400
       3812.00        29.0600         4.6989         2.3003       0.174400
       3812.50        28.2400         4.9052         2.3960       0.165900
       3813.00        27.8400         5.0300         2.5097       0.170600
       3813.50        28.2800         5.4477         2.4289       0.186100
       3814.00        28.4100         5.5100         2.4120       0.201200
       3814.50        27.9800         4.4791         2.3603       0.220100
       3815.00        26.9200         4.4422         2.4411       0.229000
       3815.50        27.1100         4.6870         2.4568       0.219900
       3816.00        26.7900         4.9865         2.4724       0.210500
       3816.50        28.5400         3.5843         2.1743       0.216600
       3817.00        29.4200         3.2466         2.1300       0.235200
       3817.50        30.3100         3.3512         2.1357       0.250000
       3818.00        30.0600         3.1593         2.1914       0.250000
       3818.50        29.3700         4.2863         2.2697       0.253000
       3819.00        29.3700         4.4770         2.1968       0.282900
       3819.50        30.6800         4.2513         2.2580       0.333800
       3820.00        33.0000         3.9906         2.3200       0.343800
       3820.50        36.6300         3.8234         2.3177       0.320900
       3821.00        38.3200         3.6233         2.2966       0.321100
       3821.50        39.2000         3.5392         2.2700       0.341100
       3822.00        38.7100         3.4925         2.2677       0.360100
       3822.50        38.4700         3.2913         2.2466       0.369500
       3823.00        38.6500         3.0825         2.2189       0.367500
       3823.50        38.5200         2.9393         2.2089       0.382800
       3824.00        37.8800         2.8041         2.1977       0.387200
       3824.50        36.8100         2.6108         2.1800       0.382800
       3825.00        36.0600         2.3697         2.1789       0.388200
       3825.50        36.3800         2.1766         2.1757       0.395400
       3826.00        37.5100         2.0857         2.2257       0.430000
       3826.50        38.6400         2.1238         2.2746       0.428000
       3827.00        39.5800         2.2400         2.3043       0.409800
       3827.50        40.2200         2.2541         2.2543       0.391500
       3828.00        40.8500         2.2522         2.2089       0.405700
       3828.50        41.2900         2.1238         2.2011       0.425600
       3829.00        40.8400         2.3788         2.2077       0.432000
       3829.50        39.5000         2.9100         2.1877       0.411200
       3830.00        38.5600         3.0179         2.1711       0.391600
       3830.50        37.6800         3.4721         2.1823       0.374100
       3831.00        37.4300         3.7270         2.2000       0.332900
       3831.50        36.6800         3.8886         2.2046       0.308800
       3832.00        36.6200         4.5675         2.2343       0.280400
       3832.50        36.3200         4.2500         2.1911       0.273600
       3833.00        36.0200         4.1216         2.2046       0.264800
       3833.50        34.8400         3.8873         2.2480       0.250000
       3834.00        34.1400         3.8700         2.3089       0.251500
       3834.50        33.1300         4.3636         2.2909       0.267700
       3835.00        34.1300         4.5400         2.2154       0.299500
       3835.50        35.1200         4.1176         2.1777       0.340500
       3836.00        37.2600         2.7601         2.1623       0.377200
       3836.50        37.9000         2.3000         2.1868       0.383900
       3837.00        38.5400         2.3191         2.2468       0.379300
       3837.50        38.6000         2.6565         2.2954       0.378300
       3838.00        39.5400         2.8700         2.2497       0.414300
       3838.50        39.9700         2.7558         2.1666       0.416000
       3839.00        39.0300         2.6600         2.1411       0.435700
       3839.50        36.4600         2.6600         2.1511       0.454000
       3840.00        35.0100         2.9499         2.1532       0.482700
       3840.50        34.6900         3.2324         2.1023       0.449400
       3841.00        34.6300         2.9713         2.1097       0.399500
       3841.50        34.0100         2.6267         2.0277       0.386400
       3842.00        33.2600         2.5629         2.0100       0.417900
       3842.50        33.6200         2.8386         2.0328       0.390300
       3843.00        32.8700         3.1822         2.2339       0.331900
       3843.50        32.8700         3.4608         2.4234       0.277600
       3844.00        32.3200         3.4840         2.4432       0.279900
       3844.50        32.6900         3.1276         2.3809       0.291800
       3845.00        32.4500         2.9398         2.3043       0.314300
       3845.50        32.1900         2.6989         2.2566       0.304600
       3846.00        31.3000         2.6900         2.2311       0.314300
       3846.50        30.5500         2.6326         2.2400       0.298300
       3847.00        29.2400         2.7319         2.2423       0.320900
       3847.50        29.6900         3.0123         2.2566       0.310600
       3848.00        31.3800         3.0940         2.2277       0.347600
       3848.50        33.7700         3.0279         2.2066       0.346400
       3849.00        35.3300         2.9401         2.1834       0.366000
       3849.50        35.0100         2.8419         2.2168       0.385100
       3850.00        35.2500         2.7615         2.2734       0.383000
       3850.50        34.7400         2.7083         2.2954       0.386100
       3851.00        34.1200         2.6668         2.2566       0.377100
       3851.50        32.9400         2.6597         2.2311       0.391200
       3852.00        32.0600         2.7623         2.2411       0.384100
       3852.50        31.7900         2.9107         2.2511       0.370100
       3853.00        31.9800         2.9200         2.2532       0.347900
       3853.50        32.4300         2.8700         2.1943       0.340000
       3854.00        32.8800         2.8289         2.1454       0.343900
       3854.50        32.8800         2.4700         2.1100       0.379400
       3855.00        32.5600         2.3379         2.1157       0.431200
       3855.50        32.2400         1.9412         2.1623       0.487300
       3856.00        32.2400         1.8700         2.1766       0.449800
       3856.50        32.5600         1.7921         2.1466       0.454500
       3857.00        34.1400         1.7200         2.1200       0.462600
       3857.50        36.2100         1.7200         2.1246       0.522200
       3858.00        38.2800         1.7200         2.1611       0.536800
       3858.50        38.3300         1.8005         2.1689       0.508100
       3859.00        37.3900         1.8200         2.1589       0.459300
       3859.50        36.4500         1.8541         2.1557       0.430700
       3860.00        36.3200         1.8425         2.2046       0.436800
       3860.50        37.5600         1.8400         2.2400       0.442900
       3861.00        37.1100         1.8123         2.2377       0.418800
       3861.50        36.6000         1.8005         2.2189       0.388800
