~Version Information Block
VERS .                  2.0:  CWLS LOG ASCII STANDARD - VERSION 2.0
WRAP .                   NO:  One line per depth step
~Well Information Block
#MNEM.UNIT        Data Type   Information
#---------- ----------------  -----------
STRT .FT            5224.50:  START DEPTH
STOP .FT           13237.50:  STOP DEPTH
STEP .FT               0.50:  STEP
NULL .              -999.25:  NULL VALUE
COMP .                     :  COMPANY
WELL .               STA-32:  WELL
FLD  .                     :  FIELD
LOC  .                     :  LOCATION
CTRY .                     :  COUNTRY
STAT .                     :  STATE
CNTY .                     :  COUNTY
SRVC .                     :  SERVICE COMPANY
DATE .                     :  DATE
API  .                     :  API NUMBER
UWI  .                     :  UNIQUE WELL ID
~Curve Information Block
#MNEM.UNIT         API CODE   Curve Description
#---------- ----------------  -----------------
DEPTH.FT                   :  Depth
GR   .GAPI                 :  Gamma Ray
RT   .OHMM                 :  True Resistivity
RHOB .G/C3                 :  Bulk Density
NPHI .V/V                  :  Neutron Porosity
~Parameter Information Block
#MNEM.UNIT            Value   Description
#---------- ----------------  -----------
PROJECT.            SANTAN_FE:  
~Other Information Block
# 
~A       DEPTH             GR             RT           RHOB           NPHI 
# ...
       9986.00        63.0671         2.3070         2.4471       0.180800
       9986.50        60.9252         2.1339         2.4109       0.180700
       9987.00        56.4847         1.9703         2.3908       0.181500
       9987.50        43.6443         1.7715         2.3729       0.183500
       9988.00        36.4385         1.6036         2.3402       0.187800
       9988.50        32.4953         1.4661         2.2946       0.189100
       9989.00        29.0081         1.3784         2.2645       0.186600
       9989.50        22.6312         1.2403         2.2492       0.185300
       9990.00        22.3475         1.1792         2.2388       0.187000
       9990.50        21.2538         1.1186         2.2322       0.193100
       9991.00        26.2830         1.0473         2.2331       0.201400
       9991.50        32.2078         1.1847         2.2442       0.206000
       9992.00        34.9122         1.2264         2.2706       0.202700
       9992.50        53.3092         1.7086         2.3268       0.193800
       9993.00        76.8167         2.1700         2.4093       0.188400
       9993.50        78.8532         2.3324         2.4866       0.190100
       9994.00        80.9065         2.4305         2.5137       0.196000
       9994.50        82.6234         2.4266         2.5090       0.204500
       9995.00        84.8686         2.3941         2.5030       0.212100
       9995.50        86.9227         2.3481         2.5089       0.213700
       9996.00        88.1549         2.3261         2.5194       0.211000
       9996.50        87.5584         2.2984         2.5268       0.209300
       9997.00        80.9004         2.2974         2.5321       0.206700
       9997.50        74.1556         2.2852         2.5256       0.199800
       9998.00        57.3322         2.1506         2.4851       0.189400
       9998.50        54.9928         2.0031         2.4261       0.178700
       9999.00        59.9139         2.3176         2.4101       0.171500
       9999.50        61.8128         2.4185         2.4364       0.170900
      10000.00        58.9663         2.4368         2.4514       0.173500
      10000.50        57.6259         2.4459         2.4481       0.176900
      10001.00        54.9070         2.3881         2.4425       0.179500
      10001.50        62.3107         2.4720         2.4387       0.180300
      10002.00        64.8696         2.4537         2.4379       0.181400
      10002.50        54.9376         2.3605         2.4221       0.185800
      10003.00        52.3199         2.1739         2.3879       0.194000
      10003.50        52.2117         2.0930         2.3678       0.202700
      10004.00        54.2985         2.0910         2.3795       0.205900
      10004.50        54.9174         2.0606         2.3912       0.203000
      10005.00        54.4207         1.9678         2.3844       0.198300
      10005.50        60.1241         1.9552         2.3760       0.195000
      10006.00        65.1358         2.1004         2.3829       0.193900
      10006.50        59.0612         2.1711         2.4010       0.193600
      10007.00        59.3595         2.2452         2.4145       0.193600
      10007.50        60.6165         2.2401         2.4242       0.196200
      10008.00        61.2097         2.1598         2.4253       0.203200
      10008.50        60.9252         2.0157         2.4105       0.214800
      10009.00        65.1083         1.9639         2.4075       0.230000
      10009.50        76.4723         1.9183         2.4448       0.244700
      10010.00        89.8312         2.0036         2.5035       0.250500
      10010.50        95.8496         2.0280         2.5521       0.239500
      10011.00        99.0862         2.2007         2.5723       0.213500
      10011.50        94.2105         2.6710         2.5728       0.176700
      10012.00        80.2762         3.1686         2.5677       0.146500
      10012.50        69.9831         3.5368         2.5616       0.133200
      10013.00        56.5894         3.4567         2.5496       0.137100
      10013.50        50.4768         3.2444         2.5269       0.145100
      10014.00        54.3045         3.1894         2.5067       0.150400
      10014.50        58.5151         3.2142         2.5073       0.152600
      10015.00        64.7259         3.1781         2.5169       0.150000
      10015.50        66.8956         3.2225         2.5234       0.143800
      10016.00        64.1666         3.5215         2.5390       0.142400
      10016.50        65.9869         3.5826         2.5562       0.149300
      10017.00        71.9117         3.5343         2.5565       0.157200
      10017.50        74.6129         3.5699         2.5511       0.157900
      10018.00        75.1819         3.6678         2.5576       0.145800
      10018.50        71.1691         4.1907         2.5769       0.118700
      10019.00        57.1614         5.3790         2.6071       0.090800
      10019.50        39.6360         7.1941         2.6479       0.078200
      10020.00        32.2911         8.3321         2.6841       0.079600
      10020.50        33.8580         9.1727         2.6821       0.083200
      10021.00        34.5965        10.0031         2.6461       0.083700
      10021.50        30.0282        10.4936         2.6228       0.084400
      10022.00        30.8129        10.3107         2.6300       0.087400
      10022.50        32.1010         9.8337         2.6429       0.090800
      10023.00        33.5917         9.9153         2.6489       0.094400
      10023.50        38.4264         9.9279         2.6458       0.098700
      10024.00        44.7061         8.5427         2.6303       0.099100
      10024.50        40.9804         9.0809         2.6201       0.093100
      10025.00        34.2416        10.8602         2.6366       0.086200
      10025.50        29.8709        11.3853         2.6564       0.081300
      10026.00        33.1246        11.7026         2.6491       0.080700
      10026.50        40.0429        12.1172         2.6303       0.086000
      10027.00        52.1479         9.7936         2.6222       0.094800
      10027.50        60.0428         8.6314         2.6113       0.103200
      10028.00        63.0247         7.8646         2.5941       0.107200
      10028.50        59.4723         7.3434         2.5842       0.106500
      10029.00        54.7316         6.9841         2.5843       0.101600
      10029.50        51.9802         6.8894         2.5870       0.098900
      10030.00        49.2174         6.6147         2.5905       0.107700
      10030.50        54.1664         5.7280         2.5897       0.131800
      10031.00        67.6280         4.6964         2.5816       0.159500
      10031.50        74.2071         3.7739         2.5647       0.176900
      10032.00        82.2044         3.2557         2.5415       0.177300
      10032.50        81.5725         3.3152         2.5227       0.159400
      10033.00        67.2783         3.8470         2.5222       0.134600
      10033.50        63.0378         4.3397         2.5394       0.125700
      10034.00        64.0073         4.4184         2.5723       0.125600
      10034.50        67.5656         4.7168         2.6041       0.126700
      10035.00        71.8372         4.8193         2.6151       0.135900
      10035.50        73.4655         4.5653         2.6008       0.161100
      10036.00        85.5465         4.0134         2.5710       0.183300
      10036.50        86.0462         3.6133         2.5503       0.171900
      10037.00        71.8452         3.5829         2.5547       0.138300
      10037.50        61.9219         4.3149         2.5670       0.116800
      10038.00        58.0736         4.6860         2.5599       0.120600
      10038.50        62.9981         4.5525         2.5442       0.136000
      10039.00        72.9905         4.2296         2.5394       0.146400
