~Version Information Block
VERS .                  2.0:  CWLS LOG ASCII STANDARD - VERSION 2.0
WRAP .                   NO:  One line per depth step
~Well Information Block
#MNEM.UNIT        Data Type   Information
#---------- ----------------  -----------
STRT .FT            3742.00:  START DEPTH
STOP .FT            8440.00:  STOP DEPTH
STEP .FT               0.50:  STEP
NULL .              -999.25:  NULL VALUE
COMP .                     :  COMPANY
WELL .                STA-2:  WELL
FLD  .                     :  FIELD
LOC  .                     :  LOCATION
CTRY .                     :  COUNTRY
STAT .                     :  STATE
CNTY .                     :  COUNTY
SRVC .                     :  SERVICE COMPANY
DATE .                     :  DATE
API  .                     :  API NUMBER
UWI  .                     :  UNIQUE WELL ID
~Curve Information Block
#MNEM.UNIT         API CODE   Curve Description
#---------- ----------------  -----------------
DEPTH.FT                   :  DEPTH
GR   .GAPI                 :  Gamma Ray
RT   .OHMM                 :  Deep resistivity
RHOB .G/C3                 :  Bulk Density
NPHI .V/V                  :  Neutron porosity
DT   .US/F                 :  Sonic
~Parameter Information Block
#MNEM.UNIT            Value   Description
#---------- ----------------  -----------
PROJECT.            SANTAN_FE:  
~Other Information Block
# 
~A       DEPTH             GR             RT           RHOB           NPHI             DT 
# ...
       6323.00        70.6700         2.9000         2.4000       0.240000        94.1000
       6323.50        61.4500         3.7900         2.3700       0.200000        95.3000
       6324.00        57.5800         6.3000         2.3700       0.170000        81.8000
       6324.50        53.5900         7.7400         2.3700       0.160000        83.4500
       6325.00        52.4000         6.8700         2.3500       0.170000        80.6000
       6325.50        55.4300         4.8200         2.3400       0.190000        82.7000
       6326.00        62.3500         4.2800         2.3500       0.200000        88.2500
       6326.50        66.7400         4.3000         2.3600       0.200000       100.7500
       6327.00        68.9100         4.2100         2.3800       0.200000       100.6000
       6327.50        70.4000         3.6900         2.4000       0.210000       100.3000
       6328.00        75.0500         3.0800         2.4100       0.230000       100.3000
       6328.50        83.3600         2.8500         2.4200       0.250000        96.0000
       6329.00        88.2400         2.7400         2.4200       0.260000        95.7000
       6329.50        92.0100         2.6400         2.4100       0.260000        97.2000
       6330.00        93.4800         2.6500         2.4200       0.260000        99.0000
       6330.50       105.0900         2.5200         2.4100       0.280000       104.1500
       6331.00       114.5300         2.2300         2.4200       0.310000       107.4500
       6331.50       123.3900         1.9300         2.4300       0.330000       110.3500
       6332.00       126.4600         1.8700         2.4200       0.330000       113.0000
       6332.50       132.8300         1.7900         2.4000       0.320000       112.9500
       6333.00       135.8500         1.8500         2.4100       0.330000       111.3500
       6333.50       134.4700         1.9500         2.4100       0.320000       111.5000
       6334.00       130.5200         1.9900         2.4100       0.330000       110.5000
       6334.50       125.3000         2.1400         2.4100       0.320000       107.9500
       6335.00       113.2500         2.6000         2.3900       0.300000       105.1500
       6335.50       103.5300         3.0900         2.3900       0.270000       101.5000
       6336.00        89.0600         3.4400         2.3900       0.250000        98.3000
       6336.50        83.6400         3.7500         2.3900       0.240000        97.0500
       6337.00        78.9600         3.4600         2.4000       0.230000        97.2500
       6337.50        85.4200         2.6800         2.4300       0.230000        96.1000
       6338.00        94.1100         2.6200         2.4700       0.230000        96.0500
       6338.50        99.8900         2.6500         2.4600       0.240000        97.2000
       6339.00       100.7000         2.2700         2.4500       0.260000        97.1500
       6339.50        98.6600         2.1200         2.4400       0.270000        98.5000
       6340.00        98.5600         2.3500         2.4400       0.270000        99.2500
       6340.50       100.2900         2.2400         2.4400       0.280000       100.0500
       6341.00       101.5300         1.9900         2.4500       0.270000       100.5000
       6341.50       102.8300         1.9200         2.4500       0.270000        99.6000
       6342.00        96.9800         2.2400         2.4500       0.260000        97.9000
       6342.50        95.3500         2.4000         2.4500       0.270000        97.0500
       6343.00        95.4800         2.3000         2.4800       0.270000        96.0000
       6343.50       102.9000         2.0600         2.4900       0.280000        97.3000
       6344.00       107.0000         1.9200         2.4800       0.280000        98.6000
       6344.50       109.8600         1.9400         2.4600       0.300000        99.9500
       6345.00       110.0300         1.7900         2.4600       0.290000       102.2000
       6345.50       112.3000         1.5200         2.4700       0.320000       103.8500
       6346.00       108.8400         1.4500         2.4700       0.310000       105.4500
       6346.50       107.2300         1.4200         2.4800       0.320000       107.6000
       6347.00       103.3300         1.4000         2.4800       0.310000       108.2000
       6347.50        97.9900         1.4700         2.4800       0.280000       104.9000
       6348.00        92.8700         1.8900         2.4700       0.250000       100.9000
       6348.50        84.6500         2.6300         2.4600       0.220000        95.9000
       6349.00        81.3400         3.2400         2.4600       0.220000        93.7000
       6349.50        84.1900         2.5100         2.4900       0.220000        90.9000
       6350.00        92.6700         2.4900         2.5200       0.220000        90.0000
       6350.50       111.6100         2.3000         2.5400       0.220000        89.7500
       6351.00       123.5400         2.2400         2.5200       0.230000        91.2500
       6351.50       123.0800         2.1700         2.4900       0.230000        92.0000
       6352.00       116.0000         2.3600         2.4800       0.230000        93.1000
       6352.50       109.4100         2.4700         2.4700       0.230000        93.1000
       6353.00       110.8400         2.2700         2.4700       0.230000        92.1500
       6353.50       104.6700         2.6000         2.4500       0.230000        91.8000
       6354.00        94.5600         2.5400         2.4300       0.220000        92.1000
       6354.50        88.2900         2.7000         2.4200       0.220000        91.4500
       6355.00        83.7200         2.8900         2.4300       0.220000        91.4000
       6355.50        80.6800         2.9300         2.4500       0.230000        90.6000
       6356.00        77.8500         3.0500         2.4700       0.230000        90.1000
       6356.50        81.1000         3.1300         2.4500       0.220000        89.8000
       6357.00        85.1300         3.0300         2.4600       0.220000        91.1500
       6357.50        90.2600         2.7500         2.4700       0.240000        93.9000
       6358.00        98.2500         2.1200         2.4700       0.260000        97.8500
       6358.50       105.6800         1.7800         2.4600       0.280000       100.8000
       6359.00       108.6800         1.6900         2.4600       0.280000       102.0500
       6359.50       106.3200         1.7200         2.4600       0.290000       101.4500
       6360.00       106.9300         1.7700         2.4500       0.290000       101.4000
       6360.50       109.6800         1.9200         2.4300       0.300000       102.3000
       6361.00       112.1500         2.2500         2.4100       0.290000       103.1500
       6361.50       106.7400         2.2200         2.4300       0.280000       103.2500
       6362.00       102.3300         1.9300         2.4500       0.280000       102.5000
       6362.50        93.7500         2.3400         2.4700       0.260000        98.5000
       6363.00        96.7200         2.7400         2.4700       0.260000        96.6000
       6363.50        96.6900         2.6200         2.4600       0.250000        95.9000
       6364.00        95.8900         2.3500         2.4700       0.260000        96.7500
       6364.50        92.8500         2.4400         2.4600       0.260000        97.4000
       6365.00        90.0400         2.4900         2.4600       0.260000        99.2000
       6365.50       101.0000         2.1500         2.4600       0.280000       101.0000
       6366.00       109.9100         2.1300         2.4300       0.310000       105.5500
       6366.50       116.7900         1.8100         2.4100       0.330000       107.7000
       6367.00       114.3900         1.8900         2.4100       0.330000       109.8000
