~Version Information Block
VERS .                  2.0:  CWLS LOG ASCII STANDARD - VERSION 2.0
WRAP .                   NO:  One line per depth step
~Well Information Block
#MNEM.UNIT        Data Type   Information
#---------- ----------------  -----------
STRT .FT             224.00:  START DEPTH
STOP .FT            7977.50:  STOP DEPTH
STEP .FT               0.50:  STEP
NULL .              -999.25:  NULL VALUE
COMP .                     :  COMPANY
WELL .               STA-22:  WELL
FLD  .                     :  FIELD
LOC  .                     :  LOCATION
CTRY .                     :  COUNTRY
STAT .                     :  STATE
CNTY .                     :  COUNTY
SRVC .                     :  SERVICE COMPANY
DATE .                     :  DATE
API  .                     :  API NUMBER
UWI  .                     :  UNIQUE WELL ID
~Curve Information Block
#MNEM.UNIT         API CODE   Curve Description
#---------- ----------------  -----------------
DEPTH.FT                   :  DEPTH
GR   .GAPI                 :  Gamma Ray
RT   .OHMM                 :  RESDE
RHOB .G/C3                 :  Bulk Density
NPHI .V/V                  :  Thermal Neutron Porosity (Ratio Method) in Selected Lithology
~Parameter Information Block
#MNEM.UNIT            Value   Description
#---------- ----------------  -----------
PROJECT.            SANTAN_FE:  
~Other Information Block
# 
~A       DEPTH             GR             RT           RHOB           NPHI 
# ...
       7446.50        49.0100         3.3000         2.2496       0.206700
       7447.00        51.3300         3.2154         2.2400       0.209400
       7447.50        54.1100         2.9709         2.2508       0.217400
       7448.00        60.2900         2.6931         2.2874       0.236900
       7448.50        66.3200         2.4279         2.3435       0.260900
       7449.00        71.8900         2.2338         2.4041       0.277400
       7449.50        74.0500         2.1853         2.4358       0.282500
       7450.00        75.6000         2.1567         2.4283       0.286300
       7450.50        78.8400         1.9565         2.4200       0.292900
       7451.00        82.8600         1.6678         2.4261       0.303400
       7451.50        87.8100         1.5102         2.4423       0.321200
       7452.00        90.5900         1.4800         2.4563       0.346600
       7452.50        91.3600         1.5200         2.4473       0.363700
       7453.00        90.4400         1.5607         2.4271       0.361000
       7453.50        89.0500         1.7052         2.4135       0.336100
       7454.00        88.1200         1.7894         2.4100       0.314800
       7454.50        87.6500         1.7320         2.4167       0.307300
       7455.00        87.3500         1.7100         2.4337       0.307400
       7455.50        84.5600         1.7580         2.4469       0.305700
       7456.00        80.3900         1.8935         2.4430       0.295900
       7456.50        75.9000         2.0720         2.4614       0.285100
       7457.00        72.8100         2.1520         2.4700       0.272800
       7457.50        70.1800         2.1161         2.4700       0.265200
       7458.00        67.0900         2.2215         2.4329       0.264300
       7458.50        64.6200         2.2983         2.4275       0.270500
       7459.00        66.9400         2.0030         2.4528       0.280300
       7459.50        72.2000         1.8595         2.4985       0.293800
       7460.00        78.6900         1.7567         2.5490       0.306300
       7460.50        80.8500         1.7154         2.6071       0.313200
       7461.00        78.8400         1.7595         2.5886       0.306700
       7461.50        72.0300         1.9437         2.5329       0.291400
       7462.00        63.6900         2.2499         2.4650       0.275100
       7462.50        57.3500         2.3826         2.4186       0.265700
       7463.00        55.8100         2.4082         2.4100       0.261900
       7463.50        56.7400         2.4316         2.4257       0.266200
       7464.00        57.5100         2.4567         2.4221       0.271800
       7464.50        57.0400         2.5126         2.4043       0.271200
       7465.00        55.1900         2.5753         2.3921       0.257700
       7465.50        52.7200         2.7732         2.4057       0.239400
       7466.00        50.8600         3.1380         2.4100       0.228800
       7466.50        50.4000         3.1874         2.4021       0.226200
       7467.00        53.3400         2.8389         2.4079       0.230000
       7467.50        57.5100         2.5170         2.4257       0.238600
       7468.00        61.2200         2.2776         2.4771       0.254600
       7468.50        65.8600         2.1839         2.5057       0.271600
       7469.00        69.5700         2.0806         2.5178       0.290000
       7469.50        73.7400         1.9520         2.5122       0.304700
       7470.00        76.5200         1.8860         2.5414       0.316100
       7470.50        78.3800         1.8575         2.5500       0.317400
       7471.00        80.2300         1.8822         2.5578       0.308900
       7471.50        80.8500         1.8867         2.5286       0.310400
       7472.00        80.3900         1.8250         2.5043       0.314900
       7472.50        79.9200         1.7291         2.4764       0.330300
       7473.00        79.7700         1.6635         2.4778       0.339200
       7473.50        83.0200         1.6350         2.4722       0.355000
       7474.00        84.4100         1.5836         2.4778       0.365300
       7474.50        84.4100         1.7291         2.4957       0.366100
       7475.00        80.2300         1.7700         2.5157       0.343300
       7475.50        79.3100         1.7784         2.5278       0.330400
       7476.00        81.1600         1.8230         2.5222       0.325900
       7476.50        82.2400         1.8917         2.4807       0.333700
       7477.00        81.3200         1.9090         2.4622       0.337100
       7477.50        79.0000         1.8730         2.4522       0.334500
       7478.00        80.7000         1.8605         2.4657       0.332000
       7478.50        83.0200         1.8406         2.4700       0.329200
       7479.00        83.9400         1.8004         2.4778       0.332400
       7479.50        84.5600         1.7504         2.4800       0.335800
       7480.00        82.2400         1.7929         2.5036       0.334300
       7480.50        80.3800         1.8610         2.5100       0.331000
       7481.00        78.5300         1.5217         2.5178       0.332400
       7481.50        79.9300         1.4219         2.4886       0.335000
       7482.00        83.7900         1.4376         2.4643       0.334700
       7482.50        87.3500         1.4200         2.4600       0.330200
       7483.00        89.6600         1.4329         2.4678       0.327500
       7483.50        89.3500         1.5512         2.4778       0.316400
       7484.00        81.4700         1.8700         2.4722       0.292700
       7484.50        73.4300         2.2948         2.4543       0.265700
       7485.00        64.7700         2.5996         2.4500       0.246400
       7485.50        62.9200         2.7796         2.4500       0.232400
       7486.00        60.2900         2.8687         2.4657       0.225500
       7486.50        59.2100         2.9056         2.4544       0.222100
       7487.00        59.6700         2.9271         2.4424       0.228100
       7487.50        61.9900         2.8812         2.4327       0.235000
       7488.00        64.6200         2.7683         2.4511       0.245400
       7488.50        67.4000         2.4605         2.4668       0.261000
       7489.00        72.9700         2.0829         2.4830       0.284400
       7489.50        78.3800         1.9533         2.4838       0.309700
       7490.00        84.4100         1.7656         2.4800       0.328700
       7490.50        85.6400         1.6762         2.4743       0.339300
       7491.00        84.1000         1.6777         2.4700       0.327700
       7491.50        81.3100         1.8480         2.4856       0.305800
       7492.00        78.2200         1.8400         2.4901       0.293600
       7492.50        76.6800         1.8365         2.4893       0.297700
       7493.00        73.5900         1.8152         2.5000       0.308500
       7493.50        71.7300         1.7870         2.4959       0.306200
       7494.00        72.0400         1.7633         2.4822       0.308200
       7494.50        74.2000         1.7128         2.4592       0.322800
       7495.00        77.4500         1.6568         2.4500       0.343000
       7495.50        79.7700         1.6226         2.4792       0.357500
       7496.00        81.7800         1.5476         2.5085       0.361700
       7496.50        84.1000         1.5141         2.5300       0.365000
       7497.00        85.4900         1.4264         2.5231       0.367900
       7497.50        86.2600         1.3592         2.4980       0.370000
       7498.00        86.2600         1.3390         2.4936       0.376400
       7498.50        85.9500         1.2997         2.5160       0.376400
       7499.00        85.9500         1.2701         2.5438       0.366300
       7499.50        86.7300         1.2995         2.4990       0.369500
