~Version Information Block
VERS .                  2.0:  CWLS LOG ASCII STANDARD - VERSION 2.0
WRAP .                   NO:  One line per depth step
~Well Information Block
#MNEM.UNIT        Data Type   Information
#---------- ----------------  -----------
STRT .FT            3811.50:  START DEPTH
STOP .FT            9515.50:  STOP DEPTH
STEP .FT               0.50:  STEP
NULL .              -999.25:  NULL VALUE
COMP .                     :  COMPANY
WELL .                STA-6:  WELL
FLD  .                     :  FIELD
LOC  .                     :  LOCATION
CTRY .                     :  COUNTRY
STAT .                     :  STATE
CNTY .                     :  COUNTY
SRVC .                     :  SERVICE COMPANY
DATE .                     :  DATE
API  .                     :  API NUMBER
UWI  .                     :  UNIQUE WELL ID
~Curve Information Block
#MNEM.UNIT         API CODE   Curve Description
#---------- ----------------  -----------------
DEPTH.FT                   :  DEPTH
GR   .GAPI                 :  Gamma Ray
RT   .OHMM                 :  Deep resistivity
RHOB .G/C3                 :  Bulk Density
NPHI .V/V                  :  Neutron porosity
DT   .US/F                 :  Sonic
~Parameter Information Block
#MNEM.UNIT            Value   Description
#---------- ----------------  -----------
PROJECT.            SANTAN_FE:  
~Other Information Block
# 
~A       DEPTH             GR             RT           RHOB           NPHI             DT 
# ...
       8350.50        45.8000         1.3400         2.2600       0.300000       102.8000
       8351.00        47.6800         1.3000         2.2200       0.290000       102.1500
       8351.50        37.1100         1.2100         2.1700       0.290000       103.4500
       8352.00        30.8200         1.0100         2.1200       0.290000       104.6000
       8352.50        25.7800         0.9800         2.0900       0.290000       104.6000
       8353.00        25.5000         1.0100         2.0900       0.290000       104.3000
       8353.50        23.5900         0.9300         2.1200       0.280000       104.2500
       8354.00        23.3200         0.8700         2.1300       0.270000       102.9000
       8354.50        27.4200         0.9700         2.1600       0.250000       101.5500
       8355.00        40.7800         1.3800         2.2600       0.230000        97.2000
       8355.50        59.7600         2.3500         2.3800       0.230000        92.2000
       8356.00        82.6900         2.7400         2.4600       0.240000        90.3000
       8356.50        98.5500         2.7300         2.5000       0.240000        90.1500
       8357.00       104.8200         2.5000         2.5100       0.240000        91.6000
       8357.50       109.8000         2.4400         2.5200       0.240000        93.2500
       8358.00       109.4500         2.3800         2.5300       0.250000        92.0500
       8358.50       111.3600         2.4100         2.5200       0.270000        91.2000
       8359.00       102.9700         2.3600         2.5000       0.260000        91.1000
       8359.50        97.3200         2.6900         2.4800       0.240000        89.8000
       8360.00        88.5600         2.7800         2.4600       0.220000        89.4000
       8360.50        84.1200         2.5900         2.4400       0.230000        89.5000
       8361.00        81.0200         2.5600         2.4300       0.240000        90.0000
       8361.50        79.2200         2.5900         2.4300       0.240000        90.5000
       8362.00        75.1200         2.5900         2.4100       0.240000        91.0000
       8362.50        67.3900         2.3500         2.3700       0.240000        92.5000
       8363.00        64.6300         1.9500         2.3200       0.240000        93.4500
       8363.50        68.9100         1.8300         2.3300       0.230000        94.4000
       8364.00        85.6500         2.0400         2.3700       0.220000        94.5000
       8364.50       103.5800         2.0700         2.4400       0.240000        96.1000
       8365.00       120.3200         2.0400         2.4700       0.260000        98.7000
       8365.50       124.4000         2.1800         2.4400       0.300000        99.1500
       8366.00       123.4900         2.5100         2.4100       0.300000       100.3000
       8366.50       121.4900         2.5700         2.4000       0.300000        99.4500
       8367.00       122.3000         2.0800         2.4300       0.290000        97.8000
       8367.50       118.6500         1.9300         2.4700       0.300000        96.3000
       8368.00       119.4300         1.8800         2.4900       0.290000        95.3000
       8368.50       121.7400         1.8900         2.5000       0.290000        95.8500
       8369.00       127.7900         2.0300         2.4800       0.280000        96.7000
       8369.50       130.1800         1.9800         2.4700       0.280000        96.6500
       8370.00       129.4800         1.9600         2.4800       0.280000        95.6000
       8370.50       126.1000         2.0600         2.4800       0.270000        95.0000
       8371.00       119.9100         2.3800         2.4900       0.270000        94.4000
       8371.50       118.4400         2.4500         2.4900       0.280000        93.9000
       8372.00       111.6200         2.2600         2.4700       0.270000        93.3000
       8372.50       107.7300         2.3500         2.4800       0.260000        93.0000
       8373.00       107.4400         2.4700         2.4800       0.250000        92.1500
       8373.50       113.1100         2.4400         2.4800       0.260000        91.4000
       8374.00       110.6700         2.3300         2.4500       0.260000        91.0000
       8374.50       100.7100         2.5400         2.4500       0.260000        90.7500
       8375.00       101.8400         2.2900         2.4600       0.260000        92.4000
       8375.50       107.5800         2.2800         2.4600       0.280000        92.8500
       8376.00       118.9000         2.0800         2.4700       0.290000        94.1500
       8376.50       123.2900         1.9800         2.4800       0.310000        95.4000
       8377.00       116.5700         2.0100         2.4800       0.320000        96.1000
       8377.50       118.8600         2.0200         2.4700       0.300000        95.1500
       8378.00       114.3000         2.0400         2.4600       0.290000        94.7000
       8378.50       119.4400         2.1300         2.4600       0.260000        93.0000
       8379.00       106.1900         2.3000         2.4600       0.270000        91.8000
       8379.50       103.9300         2.5100         2.4600       0.250000        90.1500
       8380.00       102.0100         2.4600         2.4700       0.240000        89.8500
       8380.50       106.6100         2.5100         2.4800       0.240000        91.1000
       8381.00       103.5000         2.4200         2.4900       0.260000        91.8500
       8381.50       101.6800         2.2900         2.4700       0.270000        92.6000
       8382.00        91.5100         2.2300         2.4400       0.280000        94.8500
       8382.50        82.3800         2.0100         2.3700       0.280000        95.1500
       8383.00        73.6200         1.6700         2.3200       0.280000        95.6000
       8383.50        72.3900         1.6600         2.3000       0.280000        97.9000
       8384.00        71.9300         1.7800         2.3000       0.260000        99.5000
       8384.50        82.5200         1.6400         2.3300       0.260000        97.3000
       8385.00        92.1400         2.2300         2.3800       0.260000        96.5500
       8385.50       104.3600         2.4200         2.4200       0.260000        93.5000
       8386.00       107.0200         2.4500         2.4500       0.260000        93.4000
       8386.50       107.7000         2.2600         2.4500       0.270000        96.6000
       8387.00       111.1200         2.3000         2.4600       0.280000        97.5000
       8387.50       104.8500         2.3000         2.4500       0.280000        97.2500
       8388.00       103.0000         2.2900         2.4400       0.280000        96.8000
       8388.50       102.6000         2.4100         2.4200       0.270000        96.3000
       8389.00        99.1100         2.4400         2.4300       0.270000        95.7500
       8389.50        94.7600         2.4300         2.4100       0.260000        94.9000
       8390.00        86.2400         2.4700         2.4100       0.250000        93.8000
       8390.50        82.4400         2.3800         2.3800       0.250000        93.2500
       8391.00        79.5900         2.3000         2.3800       0.240000        92.9000
       8391.50        73.9100         2.4400         2.3900       0.230000        92.5500
       8392.00        75.4000         2.5700         2.3900       0.240000        92.8500
       8392.50        71.0900         2.3300         2.3700       0.250000        92.0000
       8393.00        65.0100         2.1300         2.3400       0.250000        92.2000
       8393.50        57.3800         2.1000         2.3100       0.250000        92.7000
       8394.00        54.8100         2.0100         2.2900       0.250000        93.1000
       8394.50        52.2600         1.9500         2.2900       0.250000        93.4000
