~Version Information Block
VERS .                  2.0:  CWLS LOG ASCII STANDARD - VERSION 2.0
WRAP .                   NO:  One line per depth step
~Well Information Block
#MNEM.UNIT        Data Type   Information
#---------- ----------------  -----------
STRT .FT            5000.50:  START DEPTH
STOP .FT           14504.00:  STOP DEPTH
STEP .FT               0.50:  STEP
NULL .              -999.25:  NULL VALUE
COMP .                     :  COMPANY
WELL .               STA-18:  WELL
FLD  .                     :  FIELD
LOC  .                     :  LOCATION
CTRY .                     :  COUNTRY
STAT .                     :  STATE
CNTY .                     :  COUNTY
SRVC .                     :  SERVICE COMPANY
DATE .                     :  DATE
API  .                     :  API NUMBER
UWI  .                     :  UNIQUE WELL ID
~Curve Information Block
#MNEM.UNIT         API CODE   Curve Description
#---------- ----------------  -----------------
DEPTH.FT                   :  DEPTH
GR   .GAPI                 :  Gamma Ray
RT   .OHMM                 :  SEDP
RHOB .G/C3                 :  Bulk Density
NPHI .V/V                  :  Neutron porosity
~Parameter Information Block
#MNEM.UNIT            Value   Description
#---------- ----------------  -----------
PROJECT.            SANTAN_FE:  
~Other Information Block
# 
~A       DEPTH             GR             RT           RHOB           NPHI 
# ...
       8210.50       108.0500         2.0800         2.4300       0.326500
       8211.00       108.2100         2.0700         2.4600       0.336000
       8211.50       106.5498         2.0100         2.4700       0.340500
       8212.00       106.3100         1.9400         2.4300       0.337700
       8212.50       103.4800         1.9600         2.4200       0.331800
       8213.00        88.6200         2.1600         2.4200       0.313800
       8213.50        94.7500         2.4600         2.4100       0.292700
       8214.00        95.5500         2.6300         2.4000       0.276600
       8214.50        90.1600         2.6900         2.4000       0.264100
       8215.00        78.7200         2.7900         2.4000       0.258400
       8215.50        65.1400         2.8800         2.4000       0.253000
       8216.00        70.2700         2.9300         2.4000       0.249600
       8216.50        76.3400         2.9300         2.3900       0.252300
       8217.00        74.9714         2.9200         2.3700       0.246600
       8217.50        66.2400         2.8800         2.3700       0.257800
       8218.00        60.7700         2.9000         2.3800       0.270200
       8218.50        67.6100         2.9000         2.3800       0.266600
       8219.00        74.5800         2.8700         2.3800       0.256800
       8219.50        79.2700         2.8500         2.3800       0.253300
       8220.00        87.7700         2.8300         2.3800       0.262800
       8220.50        92.5000         2.8200         2.3800       0.277800
       8221.00        88.2400         2.8000         2.4000       0.293500
       8221.50        79.2200         2.7700         2.4000       0.311200
       8222.00        85.5900         2.7200         2.3800       0.313400
       8222.50        93.4000         2.6300         2.3700       0.322600
       8223.00        89.5500         2.5900         2.3700       0.326000
       8223.50        88.4900         2.6200         2.3900       0.327300
       8224.00        87.6400         2.6100         2.4000       0.321300
       8224.50        82.0000         2.6400         2.3900       0.303800
       8225.00        73.6700         2.8100         2.3700       0.278100
       8225.50        75.4473         2.9900         2.3500       0.260100
       8226.00        72.8700         3.0700         2.3400       0.252600
       8226.50        75.7900         3.0100         2.3300       0.261800
       8227.00        85.9500         2.8900         2.3400       0.278200
       8227.50        79.6000         2.9100         2.3600       0.280500
       8228.00        77.0200         3.1300         2.3700       0.275900
       8228.50        81.4700         3.3600         2.3700       0.274000
       8229.00        80.2400         3.4900         2.3700       0.283100
       8229.50        80.5100         3.6000         2.3600       0.288800
       8230.00        75.4200         3.7800         2.3400       0.274400
       8230.50        69.5600         3.9500         2.3100       0.236700
       8231.00        63.9259         4.1800         2.2800       0.204400
       8231.50        62.2600         4.3600         2.2600       0.164300
       8232.00        61.7400         4.3600         2.2400       0.171400
       8232.50        60.7000         4.3300         2.2400       0.190400
       8233.00        60.6300         4.3000         2.2300       0.184600
       8233.50        53.6200         4.1700         2.2200       0.171200
       8234.00        53.5576         4.0600         2.1900       0.157400
       8234.50        60.8700         3.8800         2.1800       0.200700
       8235.00        63.2800         3.6200         2.1900       0.208000
       8235.50        63.4100         3.3400         2.2500       0.209400
       8236.00        67.8400         3.1000         2.3000       0.236800
       8236.50        89.9500         3.0100         2.3600       0.253800
       8237.00       101.0000         2.8700         2.4100       0.317800
       8237.50        97.2100         2.7200         2.4200       0.295000
       8238.00        88.5900         2.6100         2.4300       0.309100
       8238.50        84.1300         2.6900         2.4300       0.328100
       8239.00        78.8400         2.6700         2.4000       0.269200
       8239.50        82.6161         2.5200         2.4000       0.271900
       8240.00        88.2000         2.4400         2.4100       0.290800
       8240.50        92.9400         2.4300         2.4300       0.270700
       8241.00        91.0100         2.5100         2.4300       0.246200
       8241.50        82.0600         2.5900         2.4300       0.223800
       8242.00        86.9400         2.6300         2.4200       0.277700
       8242.50        90.2900         2.6500         2.4300       0.281800
       8243.00        90.5300         2.6600         2.4200       0.268600
       8243.50        89.4100         2.6700         2.4100       0.268500
       8244.00        91.7200         2.6900         2.4200       0.249500
       8244.50        99.5100         2.6800         2.4400       0.271700
       8245.00        85.5200         2.6900         2.4500       0.275800
       8245.50        84.9100         2.6600         2.4500       0.255200
       8246.00        95.5200         2.6400         2.4400       0.245300
       8246.50        88.3600         2.6200         2.4200       0.228100
       8247.00        88.0400         2.5700         2.4200       0.221900
       8247.50        94.1600         2.5500         2.4300       0.274400
       8248.00        73.3698         2.5200         2.4400       0.294400
       8248.50        82.8100         2.5000         2.4400       0.288200
       8249.00        83.8300         2.4800         2.4400       0.285300
       8249.50        88.4400         2.4900         2.4400       0.265700
       8250.00        95.8700         2.5200         2.4300       0.256000
       8250.50        97.4500         2.5600         2.4200       0.294300
       8251.00        94.6600         2.5700         2.4500       0.315000
       8251.50        90.8700         2.5600         2.4400       0.284000
       8252.00        97.0200         2.5900         2.4300       0.272900
       8252.50        90.1400         2.5700         2.4200       0.258900
       8253.00        82.0500         2.5600         2.4000       0.239400
       8253.50        83.5185         2.5300         2.3900       0.293000
       8254.00        89.7300         2.5200         2.4000       0.306400
       8254.50        87.7500         2.4900         2.4100       0.276600
       8255.00        85.2400         2.4500         2.4200       0.264500
       8255.50        83.6000         2.4200         2.4200       0.249000
       8256.00        84.9800         2.4000         2.4400       0.237500
       8256.50        84.6100         2.3700         2.4400       0.298100
       8257.00        93.3600         2.3700         2.4400       0.323500
       8257.50        97.7300         2.3500         2.4300       0.286400
       8258.00        93.1700         2.3100         2.4200       0.284100
       8258.50        87.9800         2.3000         2.4200       0.276100
       8259.00        86.1300         2.3200         2.4200       0.312200
       8259.50        88.4100         2.3200         2.4300       0.344900
       8260.00        90.6500         2.2700         2.4300       0.317900
       8260.50        96.5000         2.2700         2.4300       0.298300
       8261.00        97.8800         2.2900         2.4300       0.278400
       8261.50        99.7000         2.3100         2.4500       0.305000
       8262.00       104.9845         2.3300         2.4800       0.333200
       8262.50       104.2600         2.4000         2.4800       0.322800
       8263.00        98.2600         2.5100         2.4300       0.315000
       8263.50        98.7400         2.6300         2.4300       0.291800
