~Version Information Block
VERS .                  2.0:  CWLS LOG ASCII STANDARD - VERSION 2.0
WRAP .                   NO:  One line per depth step
~Well Information Block
#MNEM.UNIT        Data Type   Information
#---------- ----------------  -----------
STRT .FT            4582.50:  START DEPTH
STOP .FT           10844.50:  STOP DEPTH
STEP .FT               0.50:  STEP
NULL .              -999.25:  NULL VALUE
COMP .                     :  COMPANY
WELL .               STA-34:  WELL
FLD  .                     :  FIELD
LOC  .                     :  LOCATION
CTRY .                     :  COUNTRY
STAT .                     :  STATE
CNTY .                     :  COUNTY
SRVC .                     :  SERVICE COMPANY
DATE .                     :  DATE
API  .                     :  API NUMBER
UWI  .                     :  UNIQUE WELL ID
~Curve Information Block
#MNEM.UNIT         API CODE   Curve Description
#---------- ----------------  -----------------
DEPTH.FT                   :  Depth
GR   .GAPI                 :  Gamma Ray
RT   .OHMM                 :  True Resistivity
RHOB .G/C3                 :  Bulk Density
NPHI .V/V                  :  Neutron Porosity
~Parameter Information Block
#MNEM.UNIT            Value   Description
#---------- ----------------  -----------
PROJECT.            SANTAN_FE:  
~Other Information Block
# 
~A       DEPTH             GR             RT           RHOB           NPHI 
# ...
       6615.50        42.6395         2.3878         2.3046       0.191800
       6616.00        40.6629         2.3683         2.3188       0.193800
       6616.50        39.1665         2.3920         2.3149       0.202900
       6617.00        41.9017         2.4437         2.3146       0.208400
       6617.50        43.3780         2.4432         2.3281       0.207300
       6618.00        44.6615         2.3839         2.3387       0.208400
       6618.50        45.8999         2.3263         2.3330       0.213300
       6619.00        42.5363         2.2129         2.3240       0.216500
       6619.50        49.9168         2.2255         2.3229       0.220600
       6620.00        49.5274         2.3218         2.3263       0.226200
       6620.50        48.7936         2.2858         2.3286       0.234000
       6621.00        55.9291         2.2124         2.3313       0.250000
       6621.50        72.4467         2.0272         2.3382       0.275700
       6622.00        87.1616         1.8248         2.3558       0.304000
       6622.50        90.3525         1.7508         2.3949       0.319000
       6623.00        93.7795         1.7600         2.4440       0.317300
       6623.50        94.2454         1.7060         2.4808       0.318200
       6624.00        96.0995         1.6342         2.4976       0.330400
       6624.50        99.6401         1.4237         2.5018       0.341600
       6625.00        97.0820         1.3343         2.5001       0.327800
       6625.50        90.3761         1.5137         2.4980       0.303600
       6626.00        85.2038         1.7041         2.4964       0.299600
       6626.50        88.7646         1.7443         2.4916       0.312900
       6627.00        92.3796         1.6762         2.4850       0.321900
       6627.50        93.3763         1.6498         2.4747       0.317200
       6628.00        90.9183         1.7075         2.4679       0.308200
       6628.50        89.9046         1.7750         2.4761       0.302900
       6629.00        87.2437         1.8397         2.4893       0.302200
       6629.50        84.7008         1.8792         2.4939       0.305500
       6630.00        81.9311         1.9045         2.4926       0.310200
       6630.50        80.0644         1.9335         2.4938       0.308700
       6631.00        78.5295         1.9637         2.4935       0.299300
       6631.50        74.8380         1.9342         2.4815       0.295800
       6632.00        78.4249         1.7929         2.4695       0.300900
       6632.50        82.0621         1.7045         2.4696       0.303800
       6633.00        79.9434         1.7365         2.4747       0.296800
       6633.50        72.7708         1.8416         2.4614       0.288400
       6634.00        54.1115         1.9037         2.4129       0.287000
       6634.50        50.4444         2.0291         2.3686       0.289500
       6635.00        54.6498         2.0896         2.3694       0.292300
       6635.50        63.6026         1.9769         2.4124       0.295300
       6636.00        73.4707         1.8833         2.4592       0.295100
       6636.50        80.7617         1.9616         2.4830       0.290200
       6637.00        77.6309         2.1212         2.4902       0.283800
       6637.50        77.0982         2.2789         2.4876       0.278600
       6638.00        76.7504         2.3487         2.4768       0.275700
       6638.50        74.7943         2.3721         2.4678       0.277700
       6639.00        72.3745         2.4299         2.4670       0.280400
       6639.50        66.5735         2.6089         2.4711       0.261700
       6640.00        55.8364         3.4226         2.5061       0.215300
       6640.50        48.6174         4.2459         2.5559       0.173800
       6641.00        48.6059         4.0244         2.5786       0.165300
       6641.50        55.0612         2.9307         2.5608       0.198300
       6642.00        60.1451         2.0550         2.4838       0.254100
       6642.50        57.8403         1.7113         2.3798       0.291100
       6643.00        56.4916         1.6179         2.3126       0.297100
       6643.50        64.2614         1.6389         2.3005       0.296600
       6644.00        77.7721         1.6713         2.3354       0.288900
       6644.50        78.9718         1.7083         2.3906       0.271800
       6645.00        75.7255         1.7513         2.4199       0.266200
       6645.50        75.1053         1.7583         2.4152       0.271300
       6646.00        80.5587         1.7544         2.4092       0.274300
       6646.50        87.3780         1.7618         2.4173       0.274700
       6647.00        94.2975         1.7600         2.4323       0.274600
       6647.50       104.2235         1.7426         2.4393       0.272600
       6648.00       102.5969         1.7500         2.4373       0.266100
       6648.50        90.2357         1.7449         2.4414       0.264300
       6649.00        86.0391         1.6991         2.4500       0.274100
       6649.50        83.9391         1.6319         2.4566       0.276600
       6650.00        85.2247         1.5602         2.4660       0.276100
       6650.50        87.5443         1.4798         2.4780       0.278800
       6651.00        89.1018         1.4943         2.4900       0.290000
       6651.50        80.5631         1.6952         2.5018       0.289800
       6652.00        67.4811         1.8842         2.5112       0.280800
       6652.50        74.9891         1.6699         2.5191       0.289000
       6653.00        82.0583         1.5165         2.5193       0.311200
       6653.50        85.7613         1.5109         2.5044       0.322900
       6654.00        82.4297         1.6950         2.4856       0.323700
       6654.50        71.0287         1.9773         2.4680       0.306300
       6655.00        64.2675         2.1383         2.4406       0.272600
       6655.50        58.9494         2.1881         2.4070       0.254300
       6656.00        58.9725         2.2289         2.3918       0.249700
       6656.50        58.8029         2.2784         2.4046       0.250700
       6657.00        62.5675         2.2763         2.4263       0.254500
       6657.50        66.6388         2.2187         2.4380       0.266200
       6658.00        71.5429         2.1118         2.4413       0.284800
       6658.50        77.4429         2.0236         2.4425       0.300800
       6659.00        78.3654         1.8302         2.4449       0.309500
       6659.50        83.5769         1.7143         2.4559       0.314700
       6660.00        86.9218         1.6379         2.4809       0.323800
       6660.50        88.1646         1.5616         2.4851       0.336400
       6661.00        92.9930         1.5093         2.4778       0.344800
       6661.50        90.5026         1.4325         2.4744       0.345400
       6662.00        89.5094         1.3348         2.4825       0.344600
       6662.50        90.4988         1.2719         2.4900       0.347100
       6663.00        94.1180         1.3277         2.4936       0.354000
       6663.50        91.2770         1.4679         2.4888       0.362000
       6664.00        91.3783         1.4990         2.4702       0.358900
       6664.50        96.2912         1.4124         2.4587       0.343500
       6665.00        97.2205         1.4328         2.4650       0.322700
       6665.50        89.0014         1.6421         2.4704       0.298500
       6666.00        80.3858         1.8827         2.4606       0.285800
       6666.50        83.8879         1.9278         2.4480       0.298600
       6667.00       101.0540         1.8647         2.4358       0.320900
       6667.50       115.5931         1.8105         2.4109       0.339200
       6668.00       128.1717         1.7861         2.3709       0.352300
       6668.50       124.7263         1.7243         2.3511       0.352600
