~Version Information Block
VERS .                  2.0:  CWLS LOG ASCII STANDARD - VERSION 2.0
WRAP .                   NO:  One line per depth step
~Well Information Block
#MNEM.UNIT        Data Type   Information
#---------- ----------------  -----------
STRT .FT             350.00:  START DEPTH
STOP .FT           16021.50:  STOP DEPTH
STEP .FT               0.50:  STEP
NULL .              -999.25:  NULL VALUE
COMP .                     :  COMPANY
WELL .               STA-30:  WELL
FLD  .                     :  FIELD
LOC  .                     :  LOCATION
CTRY .                     :  COUNTRY
STAT .                     :  STATE
CNTY .                     :  COUNTY
SRVC .                     :  SERVICE COMPANY
DATE .                     :  DATE
API  .                     :  API NUMBER
UWI  .                     :  UNIQUE WELL ID
~Curve Information Block
#MNEM.UNIT         API CODE   Curve Description
#---------- ----------------  -----------------
DEPTH.FT                   :  
GR   .GAPI                 :  Merged RAW_LOG.GR_17P_1 with RAW_LOG.GR_12P_1 and RAW_LOG.GR_8P_1 and RAW_LOG.GR_6P_1 at 1127.75, 5954.49, 11516.11 F
RT   .OHMM                 :  RT_1 Depth Shifted (Shift Pairs in MATCH_RT set)
RHOB .G/C3                 :  RHOB_1 Depth Shifted (Shift Pairs in MATCH_RHOB set)
NPHI .V/V                  :  NPHI_1 Depth Shifted (Shift Pairs in MATCH_NPHI set)
~Parameter Information Block
#MNEM.UNIT            Value   Description
#---------- ----------------  -----------
PROJECT.            SANTAN_FE:  
~Other Information Block
# 
~A       DEPTH             GR             RT           RHOB           NPHI 
# ...
      15972.00         5.2168         5.3973         2.5145       0.095257
      15972.50         4.8523         5.2188         2.5028       0.088345
      15973.00         5.2422         5.0901         2.4989       0.087230
      15973.50         5.8771         4.8966         2.5038       0.094860
      15974.00         6.4963         4.8812         2.5140       0.106823
      15974.50         7.1167         4.9271         2.5256       0.116313
      15975.00         7.5800         5.0717         2.5378       0.119600
      15975.50         8.0459         5.2260         2.5509       0.119600
      15976.00         8.6837         5.3222         2.5639       0.121000
      15976.50         9.8782         5.3885         2.5748       0.127700
      15977.00        11.0601         5.4846         2.5825       0.134900
      15977.50        11.4665         5.5006         2.5871       0.138100
      15978.00        11.2989         5.4977         2.5869    -999.250000
      15978.50        10.6913         5.5703         2.5829    -999.250000
      15979.00        10.1980         5.5512         2.5795    -999.250000
      15979.50         9.9917         5.5921         2.5793    -999.250000
      15980.00        10.1924         5.5893         2.5801    -999.250000
      15980.50        10.5840         5.5785         2.5803    -999.250000
      15981.00        10.3013         5.6721         2.5821    -999.250000
      15981.50         9.9524         5.5674         2.5852    -999.250000
      15982.00         8.9021         5.6003         2.5835    -999.250000
      15982.50         7.7512         5.6554         2.5728    -999.250000
      15983.00         6.3591         5.6056         2.5540    -999.250000
      15983.50         5.2995         5.6867         2.5318    -999.250000
      15984.00         4.5778         5.7535         2.5127    -999.250000
      15984.50         4.4726         5.6749         2.5015    -999.250000
      15985.00         5.2683         5.6194         2.4986    -999.250000
      15985.50         6.2385         5.5892         2.4997    -999.250000
      15986.00         6.7739         5.6780      -999.2500    -999.250000
      15986.50         6.8834         5.7600      -999.2500    -999.250000
      15987.00         7.4818         5.8478      -999.2500    -999.250000
      15987.50         8.3022         5.8681      -999.2500    -999.250000
      15988.00         8.5872         6.0007      -999.2500    -999.250000
      15988.50         7.8834         6.0879      -999.2500    -999.250000
      15989.00         7.4457         6.1484      -999.2500    -999.250000
      15989.50         7.5300         6.1677      -999.2500    -999.250000
      15990.00         8.4167         6.1548      -999.2500    -999.250000
      15990.50         9.3897         6.2098      -999.2500    -999.250000
      15991.00        10.7668         6.2295      -999.2500    -999.250000
      15991.50        12.1972         6.2098      -999.2500    -999.250000
      15992.00        12.8665         6.2033      -999.2500    -999.250000
      15992.50        12.4375         6.2558      -999.2500    -999.250000
      15993.00        11.0807         6.3225      -999.2500    -999.250000
      15993.50         9.3281         6.3766      -999.2500    -999.250000
      15994.00         7.3462         6.4455      -999.2500    -999.250000
      15994.50         5.6640         6.5836      -999.2500    -999.250000
      15995.00         4.6927         6.6930      -999.2500    -999.250000
      15995.50         4.9763         6.5909      -999.2500    -999.250000
      15996.00         5.8569         6.4385      -999.2500    -999.250000
      15996.50         6.5070         6.3160      -999.2500    -999.250000
      15997.00         7.1345         6.1614      -999.2500    -999.250000
      15997.50         7.3293         6.0535      -999.2500    -999.250000
      15998.00         6.9823         5.9610      -999.2500    -999.250000
      15998.50         5.9030         5.8267      -999.2500    -999.250000
      15999.00         4.9303         5.7257      -999.2500    -999.250000
      15999.50         4.4744         5.6637      -999.2500    -999.250000
      16000.00         4.1855         5.6276      -999.2500    -999.250000
      16000.50         4.0421         5.5974      -999.2500    -999.250000
      16001.00         4.1409         5.5865      -999.2500    -999.250000
      16001.50         4.3061         5.5783      -999.2500    -999.250000
      16002.00         4.3407         5.5566      -999.2500    -999.250000
      16002.50         4.5722         5.5837      -999.2500    -999.250000
      16003.00         4.9264         5.6001      -999.2500    -999.250000
      16003.50         5.3661         5.6304      -999.2500    -999.250000
      16004.00         5.2904         5.6276      -999.2500    -999.250000
      16004.50         5.4107         5.6582      -999.2500    -999.250000
      16005.00         5.7081         5.6805      -999.2500    -999.250000
      16005.50         6.3157         5.6609      -999.2500    -999.250000
      16006.00         6.7553         5.6609      -999.2500    -999.250000
      16006.50         7.1840         5.6498      -999.2500    -999.250000
      16007.00         7.8235         5.6442      -999.2500    -999.250000
      16007.50         8.7941         5.5974      -999.2500    -999.250000
      16008.00         9.6116         5.5512      -999.2500    -999.250000
      16008.50        10.3278         5.5084      -999.2500    -999.250000
      16009.00        10.7125         5.5244      -999.2500    -999.250000
      16009.50        11.1932         5.4740      -999.2500    -999.250000
      16010.00        11.5051         5.4243      -999.2500    -999.250000
      16010.50        11.7088         5.4088      -999.2500    -999.250000
      16011.00        11.4642         5.3959      -999.2500    -999.250000
      16011.50        11.2063         5.3224      -999.2500    -999.250000
      16012.00        10.9718         5.2625      -999.2500    -999.250000
      16012.50        11.3282         5.1777      -999.2500    -999.250000
      16013.00        11.5517         5.0418      -999.2500    -999.250000
      16013.50      -999.2500         4.9847      -999.2500    -999.250000
      16014.00      -999.2500         4.9401      -999.2500    -999.250000
      16014.50      -999.2500         4.9028      -999.2500    -999.250000
      16015.00      -999.2500         4.8853      -999.2500    -999.250000
      16015.50      -999.2500         4.8380      -999.2500    -999.250000
      16016.00      -999.2500         4.7539      -999.2500    -999.250000
      16016.50      -999.2500         4.6984      -999.2500    -999.250000
      16017.00      -999.2500         4.6741      -999.2500    -999.250000
      16017.50      -999.2500         4.6382      -999.2500    -999.250000
      16018.00      -999.2500         4.5664      -999.2500    -999.250000
      16018.50      -999.2500         4.5329      -999.2500    -999.250000
      16019.00      -999.2500         4.5303      -999.2500    -999.250000
      16019.50      -999.2500         4.5418      -999.2500    -999.250000
      16020.00      -999.2500         4.4874      -999.2500    -999.250000
      16020.50      -999.2500         4.4353      -999.2500    -999.250000
      16021.00      -999.2500         4.4215      -999.2500    -999.250000
      16021.50      -999.2500         4.4111      -999.2500    -999.250000
