~Version Information Block
VERS .                  2.0:  CWLS LOG ASCII STANDARD - VERSION 2.0
WRAP .                   NO:  One line per depth step
~Well Information Block
#MNEM.UNIT        Data Type   Information
#---------- ----------------  -----------
STRT .FT             224.00:  START DEPTH
STOP .FT            7977.50:  STOP DEPTH
STEP .FT               0.50:  STEP
NULL .              -999.25:  NULL VALUE
COMP .                     :  COMPANY
WELL .               STA-22:  WELL
FLD  .                     :  FIELD
LOC  .                     :  LOCATION
CTRY .                     :  COUNTRY
STAT .                     :  STATE
CNTY .                     :  COUNTY
SRVC .                     :  SERVICE COMPANY
DATE .                     :  DATE
API  .                     :  API NUMBER
UWI  .                     :  UNIQUE WELL ID
~Curve Information Block
#MNEM.UNIT         API CODE   Curve Description
#---------- ----------------  -----------------
DEPTH.FT                   :  DEPTH
GR   .GAPI                 :  Gamma Ray
RT   .OHMM                 :  RESDE
RHOB .G/C3                 :  Bulk Density
NPHI .V/V                  :  Thermal Neutron Porosity (Ratio Method) in Selected Lithology
~Parameter Information Block
#MNEM.UNIT            Value   Description
#---------- ----------------  -----------
PROJECT.            SANTAN_FE:  
~Other Information Block
# 
~A       DEPTH             GR             RT           RHOB           NPHI 
# ...
       3273.50        17.0200         0.9367         2.0900       0.282100
       3274.00        19.4000         0.9534         2.0600       0.303500
       3274.50        21.4700         0.9566         2.1200       0.294500
       3275.00        21.7700         0.9466         2.0800       0.305300
       3275.50        21.5100         0.9366         2.1300       0.294900
       3276.00        20.8900         0.9368         2.1000       0.334800
       3276.50        19.7800         0.9500         2.0900       0.342600
       3277.00        18.8400         0.9534         2.0800       0.325400
       3277.50        18.0100         0.9600         2.0700       0.305600
       3278.00        18.1200         0.9461         2.0700       0.292900
       3278.50        16.7500         0.9130         1.8800       0.311000
       3279.00        15.5700         0.9035         1.8400       0.333800
       3279.50        13.6300         0.9135         1.8100       0.333200
       3280.00        13.6300         0.9200         1.7900       0.363600
       3280.50        13.8200         0.9200         1.7800       0.366700
       3281.00        15.0000         0.9271         1.8000       0.386200
       3281.50        16.5800         0.9329         1.8100       0.387100
       3282.00        18.2200         0.9200         1.8100       0.392700
       3282.50        19.5900         0.9128         1.7900       0.400000
       3283.00        19.5200         0.8964         1.8100       0.381500
       3283.50        20.0200         0.8864         1.8300       0.370000
       3284.00        19.7200         0.8764         1.8500       0.376000
       3284.50        19.8500         0.8664         1.8500       0.415300
       3285.00        19.5300         0.8637         1.8700       0.463200
       3285.50        20.2900         0.8957         1.8600       0.457200
       3286.00        21.2800         0.9695         1.8200       0.423200
       3286.50        21.6600         1.0570         1.7800       0.371400
       3287.00        21.7200         1.1534         1.7300       0.345400
       3287.50        21.7900         1.2323         1.6900       0.355300
       3288.00        24.3500         1.2737         1.6400       0.354800
       3288.50        30.5600         1.2763         1.6700       0.375700
       3289.00        40.7700         1.3227         1.7200       0.400000
       3289.50        53.6900         1.4100         1.9100       0.434700
       3290.00        62.7200         1.3948         2.1000       0.445700
       3290.50        72.9800         1.3281         2.1300       0.429500
       3291.00        86.2100         1.2447         2.1000       0.440000
       3291.50       101.3800         1.2162         2.1400       0.462900
       3292.00       112.3600         1.2331         2.2100       0.494500
       3292.50       115.4800         1.3009         2.2500       0.504500
       3293.00       113.6000         1.3694         2.2700       0.487300
       3293.50       107.9000         1.4000         2.2600       0.437000
       3294.00       102.0100         1.3922         2.1900       0.414700
       3294.50        96.8000         1.3800         2.2400       0.453100
       3295.00        94.0900         1.3839         2.2000       0.499600
       3295.50        88.3900         1.4216         2.2300       0.514900
       3296.00        82.9400         1.4898         2.2100       0.480500
       3296.50        76.3700         1.5240         2.1600       0.445000
       3297.00        73.1000         1.5300         2.1000       0.444900
       3297.50        71.3500         1.5300         2.0400       0.429700
       3298.00        67.8300         1.5340         2.0300       0.430400
       3298.50        64.3200         1.5400         1.9400       0.413700
       3299.00        61.0500         1.5279         2.0600       0.427400
       3299.50        60.1800         1.5181         2.0700       0.465400
       3300.00        58.7500         1.5259         2.1000       0.491900
       3300.50        57.7000         1.5241         2.1400       0.454600
       3301.00        56.6300         1.5382         2.1400       0.370700
       3301.50        57.1900         1.5459         2.1000       0.340000
       3302.00        58.5700         1.5400         2.0200       0.357200
       3302.50        62.3800         1.5400         1.9900       0.399000
       3303.00        65.1300         1.5483         2.0200       0.378900
       3303.50        67.3800         1.5683         2.1200       0.338100
       3304.00        67.4600         1.5800         2.2200       0.324000
       3304.50        69.0400         1.5800         2.2800       0.332200
       3305.00        70.3000         1.5758         2.2900       0.327700
       3305.50        71.9900         1.5700         2.3000       0.307600
       3306.00        71.6700         1.5742         2.2900       0.287400
       3306.50        71.3500         1.5800         2.2800       0.305400
       3307.00        69.6500         1.5970         2.2800       0.358500
       3307.50        68.2300         1.6371         2.2900       0.380000
       3308.00        66.8000         1.6600         2.3100       0.353800
       3308.50        66.4200         1.6686         2.2500       0.306900
       3309.00        65.8600         1.6800         2.2400       0.283300
       3309.50        65.3000         1.6627         2.2300       0.273300
       3310.00        64.2200         1.6226         2.2700       0.283600
       3310.50        63.5800         1.6000         2.2900       0.310700
       3311.00        62.7600         1.5913         2.2900       0.333900
       3311.50        62.5700         1.5800         2.2800       0.361100
       3312.00        63.8300         1.5492         2.2500       0.377100
       3312.50        66.7300         1.4835         2.2200       0.430100
       3313.00        69.6200         1.4500         2.2200       0.478900
       3313.50        71.8200         1.4899         2.2100       0.511900
       3314.00        72.3100         1.5932         2.2200       0.475800
       3314.50        72.8000         1.6600         2.1700       0.430300
       3315.00        73.6700         1.7664         2.1500       0.412500
       3315.50        74.1700         2.2191         2.1400       0.410000
       3316.00        71.7200         3.3735         2.1600       0.364200
       3316.50        65.6500         4.3200         2.2100       0.265300
       3317.00        60.2000         5.1090         2.2300       0.201200
       3317.50        55.2500         6.4058         2.2800       0.158700
       3318.00        50.4800         6.4576         2.3300       0.142100
       3318.50        43.7600         5.9691         2.4300       0.132000
       3319.00        38.5000         5.8800         2.4900       0.122000
       3319.50        35.5700         6.2610         2.5500       0.103800
       3320.00        34.2600         7.8955         2.6000       0.091800
       3320.50        33.9400         9.3500         2.5700       0.090000
       3321.00        33.1800         9.5227         2.5900       0.098300
       3321.50        32.7500         9.7400         2.5800       0.100000
       3322.00        32.3200         9.5850         2.5800       0.091600
       3322.50        32.0000        10.2267         2.5400       0.090000
       3323.00        31.6800        11.2800         2.5000       0.107200
       3323.50        30.4200        10.8019         2.4700       0.127300
       3324.00        29.2900        10.2000         2.1600       0.164800
       3324.50        28.1600         6.8044         1.9500       0.240200
       3325.00        28.3500         4.4248         1.8500       0.391600
       3325.50        28.7300         6.8100         1.8900       0.391300
       3326.00        29.4800         5.6103         1.9500       0.300700
       3326.50        30.8000         5.3042         1.9800       0.247600
