~Version Information Block
VERS .                  2.0:  CWLS LOG ASCII STANDARD - VERSION 2.0
WRAP .                   NO:  One line per depth step
~Well Information Block
#MNEM.UNIT        Data Type   Information
#---------- ----------------  -----------
STRT .FT             350.00:  START DEPTH
STOP .FT           16021.50:  STOP DEPTH
STEP .FT               0.50:  STEP
NULL .              -999.25:  NULL VALUE
COMP .                     :  COMPANY
WELL .               STA-30:  WELL
FLD  .                     :  FIELD
LOC  .                     :  LOCATION
CTRY .                     :  COUNTRY
STAT .                     :  STATE
CNTY .                     :  COUNTY
SRVC .                     :  SERVICE COMPANY
DATE .                     :  DATE
API  .                     :  API NUMBER
UWI  .                     :  UNIQUE WELL ID
~Curve Information Block
#MNEM.UNIT         API CODE   Curve Description
#---------- ----------------  -----------------
DEPTH.FT                   :  
GR   .GAPI                 :  Merged RAW_LOG.GR_17P_1 with RAW_LOG.GR_12P_1 and RAW_LOG.GR_8P_1 and RAW_LOG.GR_6P_1 at 1127.75, 5954.49, 11516.11 F
RT   .OHMM                 :  RT_1 Depth Shifted (Shift Pairs in MATCH_RT set)
RHOB .G/C3                 :  RHOB_1 Depth Shifted (Shift Pairs in MATCH_RHOB set)
NPHI .V/V                  :  NPHI_1 Depth Shifted (Shift Pairs in MATCH_NPHI set)
~Parameter Information Block
#MNEM.UNIT            Value   Description
#---------- ----------------  -----------
PROJECT.            SANTAN_FE:  
~Other Information Block
# 
~A       DEPTH             GR             RT           RHOB           NPHI 
# ...
       3560.00        82.4906         2.0370         2.0807       0.497163
       3560.50        84.5377         2.0158         2.0730       0.485903
       3561.00        86.1340         1.9714         2.0659       0.475765
       3561.50        87.0660         1.9546         2.0608       0.470680
       3562.00        87.5961         1.9445         2.0568       0.470892
       3562.50        88.2069         1.9344         2.0529       0.477308
       3563.00        87.7244         1.9012         2.0486       0.489293
       3563.50        88.2981         1.8748         2.0442       0.500793
       3564.00        89.5035         1.8388         2.0419       0.504927
       3564.50        90.7696         1.7986         2.0429       0.498774
       3565.00        91.6165         1.8053         2.0459       0.483799
       3565.50        92.2463         1.8045         2.0490       0.467679
       3566.00        91.7580         1.8168         2.0510       0.458139
       3566.50        90.7408         1.8290         2.0526       0.454735
       3567.00        89.3551         1.8022         2.0572       0.455022
       3567.50        87.4708         1.8278         2.0708       0.455900
       3568.00        84.9769         1.8927         2.0954       0.450532
       3568.50        84.3683         1.8694         2.1261       0.437467
       3569.00        82.9707         1.8872         2.1543       0.423979
       3569.50        81.3595         1.7868         2.1748       0.415574
       3570.00        80.2130         1.7448         2.1877       0.414487
       3570.50        78.6231         1.7028         2.1957       0.420615
       3571.00        76.5341         1.6599         2.2001       0.429719
       3571.50        75.7672         1.6288         2.2017       0.438441
       3572.00        75.5996         1.6036         2.2021       0.447833
       3572.50        75.8996         1.5721         2.2036       0.455730
       3573.00        77.3633         1.5596         2.2066       0.458274
       3573.50        78.2821         1.5664         2.2087       0.458150
       3574.00        78.4281         1.5815         2.2085       0.457177
       3574.50        78.4951         1.5898         2.2087       0.452369
       3575.00        78.1360         1.5999         2.2124       0.447305
       3575.50        76.9421         1.6219         2.2182       0.446354
       3576.00        75.5293         1.6427         2.2230       0.445545
       3576.50        75.1655         1.6462         2.2254       0.442242
       3577.00        75.3667         1.6432         2.2238       0.439643
       3577.50        75.4846         1.6403         2.2164       0.440555
       3578.00        75.9759         1.6494         2.2037       0.445982
       3578.50        77.5021         1.6897         2.1903       0.454477
       3579.00        78.1342         1.7043         2.1796       0.463763
       3579.50        78.7865         1.6749         2.1721       0.471242
       3580.00        79.3052         1.6497         2.1683       0.473319
       3580.50        80.6879         1.6543         2.1693       0.472016
       3581.00        80.5971         1.7113         2.1736       0.474398
       3581.50        81.0149         1.7251         2.1775       0.480764
       3582.00        81.7777         1.7051         2.1800       0.485029
       3582.50        83.6788         1.6710         2.1824       0.486542
       3583.00        84.7357         1.6952         2.1843       0.489139
       3583.50        85.2878         1.7781         2.1851       0.490786
       3584.00        86.5264         1.7983         2.1844       0.487121
       3584.50        86.1929         1.8185         2.1822       0.482745
       3585.00        86.2777         1.8014         2.1787       0.482109
       3585.50        86.4779         1.7813         2.1760       0.478658
       3586.00        86.9373         1.7677         2.1744       0.466617
       3586.50        86.6484         1.7828         2.1703       0.451821
       3587.00        87.4655         1.8311         2.1622       0.442432
       3587.50        86.3700         1.8351         2.1542       0.439931
       3588.00        85.4896         1.8278         2.1523       0.443692
       3588.50        85.5987         1.8112         2.1579       0.453847
       3589.00        85.9261         1.7946         2.1664       0.471416
       3589.50        86.3169         1.8113         2.1734       0.491186
       3590.00        87.9421         1.8193         2.1774       0.500260
       3590.50        89.9279         1.8740         2.1718       0.494988
       3591.00        92.1488         1.8957         2.1375       0.489861
       3591.50        94.8445         1.8681         2.0605       0.494369
       3592.00        99.0534         1.8786         1.9559       0.502843
       3592.50       102.5379         2.0473         1.8620       0.511888
       3593.00       105.1851         2.0737         1.8078       0.525994
       3593.50       106.1549         2.1001         1.7945       0.541636
       3594.00       106.2617         2.2401         1.8074       0.548016
       3594.50       104.4363         2.3080         1.8415       0.543994
       3595.00       102.0674         2.2221         1.9009       0.539339
       3595.50        98.8671         1.9418         1.9812       0.535392
       3596.00        95.8151         1.6032         2.0635       0.524195
       3596.50        92.3545         1.5753         2.1306       0.504713
       3597.00        88.0617         1.5473         2.1758       0.483395
       3597.50        84.8780         1.5002         2.2018       0.463497
       3598.00        81.7705         1.5349         2.2144       0.446628
       3598.50        79.1804         1.5422         2.2204       0.437563
       3599.00        77.4674         1.5333         2.2246       0.437323
       3599.50        76.3976         1.5289         2.2286       0.439712
       3600.00        73.6289         1.5674         2.2317       0.438561
       3600.50        71.6007         1.5825         2.2337       0.430465
       3601.00        70.2716         1.5888         2.2360       0.415343
       3601.50        69.2838         1.5952         2.2406       0.399103
       3602.00        68.5793         1.6049         2.2475       0.387499
       3602.50        68.9326         1.6083         2.2544       0.383184
       3603.00        69.0073         1.6100         2.2574       0.386734
       3603.50        68.0429         1.6134         2.2549       0.393874
       3604.00        67.0422         1.6182         2.2490       0.387897
       3604.50        65.5405         1.6219         2.2423       0.379939
       3605.00        65.3741         1.6206         2.2361       0.376914
       3605.50        66.1942         1.6189         2.2316       0.378508
       3606.00        67.1050         1.6192         2.2307       0.385714
       3606.50        67.4568         1.6195         2.2324       0.406625
       3607.00        69.0878         1.6192         2.2332       0.427061
       3607.50        70.1611         1.6086         2.2325       0.442833
       3608.00        70.5471         1.5713         2.2338       0.454377
       3608.50        70.6269         1.6165         2.2394       0.459142
       3609.00        71.1445         1.6131         2.2470       0.459366
       3609.50        72.3756         1.6070         2.2526       0.458850
       3610.00        73.5881         1.5819         2.2571       0.457274
       3610.50        74.3330         1.5651         2.2627       0.453879
       3611.00        75.7734         1.5789         2.2668       0.451119
       3611.50        76.7425         1.6141         2.2672       0.449377
       3612.00        76.0124         1.6479         2.2621       0.445390
       3612.50        73.9373         1.6444         2.2555       0.440740
       3613.00        72.7423         1.6425         2.2508       0.437566
