~Version Information Block
VERS .                  2.0:  CWLS LOG ASCII STANDARD - VERSION 2.0
WRAP .                   NO:  One line per depth step
~Well Information Block
#MNEM.UNIT        Data Type   Information
#---------- ----------------  -----------
STRT .FT            5224.50:  START DEPTH
STOP .FT           13237.50:  STOP DEPTH
STEP .FT               0.50:  STEP
NULL .              -999.25:  NULL VALUE
COMP .                     :  COMPANY
WELL .               STA-32:  WELL
FLD  .                     :  FIELD
LOC  .                     :  LOCATION
CTRY .                     :  COUNTRY
STAT .                     :  STATE
CNTY .                     :  COUNTY
SRVC .                     :  SERVICE COMPANY
DATE .                     :  DATE
API  .                     :  API NUMBER
UWI  .                     :  UNIQUE WELL ID
~Curve Information Block
#MNEM.UNIT         API CODE   Curve Description
#---------- ----------------  -----------------
DEPTH.FT                   :  Depth
GR   .GAPI                 :  Gamma Ray
RT   .OHMM                 :  True Resistivity
RHOB .G/C3                 :  Bulk Density
NPHI .V/V                  :  Neutron Porosity
~Parameter Information Block
#MNEM.UNIT            Value   Description
#---------- ----------------  -----------
PROJECT.            SANTAN_FE:  
~Other Information Block
# 
~A       DEPTH             GR             RT           RHOB           NPHI 
# ...
       6294.50        60.8711         1.9521         2.3623       0.371827
       6295.00        63.9109         1.8499         2.3676       0.376330
       6295.50        70.3312         1.6748         2.3643       0.389823
       6296.00        75.5065         1.5898         2.3569       0.406665
       6296.50        81.5842         1.4956         2.3534       0.420002
       6297.00        82.2779         1.4122         2.3521       0.426723
       6297.50        85.0573         1.3634         2.3503       0.432038
       6298.00        88.0991         1.3227         2.3580       0.438765
       6298.50        86.0285         1.3096         2.3709       0.444297
       6299.00        84.7482         1.3195         2.3706       0.444346
       6299.50        84.5199         1.3612         2.3656       0.437770
       6300.00        86.1085         1.4226         2.3655       0.427653
       6300.50        86.1472         1.4454         2.3633       0.420287
       6301.00        87.3510         1.4049         2.3581       0.421658
       6301.50        90.7569         1.3511         2.3591       0.433583
       6302.00        91.4314         1.3213         2.3628       0.446528
       6302.50        88.1306         1.3045         2.3622       0.454572
       6303.00        90.5717         1.2617         2.3598       0.455529
       6303.50        89.4338         1.2370         2.3572       0.451992
       6304.00        91.9637         1.2201         2.3549       0.449015
       6304.50        88.7421         1.2069         2.3530       0.446186
       6305.00        90.9564         1.2215         2.3522       0.436159
       6305.50        90.9627         1.2375         2.3573       0.427040
       6306.00        92.0480         1.2522         2.3676       0.428777
       6306.50        87.5769         1.2809         2.3761       0.426152
       6307.00        83.2673         1.4455         2.3866       0.416216
       6307.50        67.8944         2.0263         2.3934       0.404665
       6308.00        62.2912         2.6803         2.3514       0.398943
       6308.50        67.8795         2.8697         2.2252       0.411284
       6309.00        72.0530         3.0574         2.0615       0.445785
       6309.50        70.2233         3.4339         1.9885       0.479604
       6310.00        69.1821         3.5159         2.0555       0.474892
       6310.50        65.5397         2.9846         2.2065       0.415142
       6311.00        70.8362         2.4134         2.3453       0.330638
       6311.50        74.8496         2.0280         2.4105       0.284730
       6312.00        82.4401         1.7861         2.4258       0.280957
       6312.50        85.9658         1.6781         2.4225       0.292553
       6313.00        87.2367         1.5739         2.4070       0.314985
       6313.50        90.4448         1.4958         2.3886       0.344402
       6314.00        95.0235         1.4210         2.3775       0.365445
       6314.50       101.6533         1.3701         2.3744       0.368855
       6315.00       101.2415         1.3771         2.3754       0.361464
       6315.50        96.5615         1.4182         2.3803       0.359251
       6316.00        88.2341         1.4371         2.3884       0.363913
       6316.50        84.6069         1.4623         2.3946       0.371971
       6317.00        83.8653         1.4444         2.3983       0.379283
       6317.50        82.1056         1.4581         2.3908       0.379020
       6318.00        77.9577         1.5267         2.3608       0.371647
       6318.50        74.1300         1.5825         2.3182       0.367924
       6319.00        74.5183         1.6187         2.2798       0.373350
       6319.50        80.4823         1.5603         2.2557       0.382449
       6320.00        77.8422         1.3943         2.2497       0.399855
       6320.50        83.7996         1.2839         2.2536       0.424923
       6321.00        83.8940         1.2398         2.2581       0.430933
       6321.50        81.5002         1.2160         2.2601       0.425115
       6322.00        81.0541         1.2202         2.2615       0.419875
       6322.50        77.3934         1.2460         2.2706       0.414373
       6323.00        78.6223         1.2605         2.2840       0.404913
       6323.50        81.2890         1.2693         2.2885       0.397445
       6324.00        77.8160         1.2736         2.2830       0.405469
       6324.50        76.1729         1.2608         2.2745       0.419757
       6325.00        76.4513         1.2762         2.2715       0.418201
       6325.50        82.7865         1.1608         2.2837       0.405620
       6326.00        85.0549         0.9387         2.3031       0.396629
       6326.50        82.3398         0.9042         2.3204       0.388453
       6327.00        83.4331         0.9807         2.3380       0.376216
       6327.50        72.6852         1.1317         2.3474       0.356066
       6328.00        67.2404         1.2942         2.3465       0.337789
       6328.50        64.2879         1.3609         2.3358       0.338375
       6329.00        65.7905         1.3053         2.3162       0.342047
       6329.50        68.6589         1.3485         2.2952       0.327423
       6330.00        68.3806         1.3667         2.2768       0.310987
       6330.50        65.6518         1.4749         2.2523       0.315435
       6331.00        61.3373         1.5862         2.2083       0.322180
       6331.50        59.1911         1.6722         2.1565       0.311757
       6332.00        58.6658         1.7270         2.1252       0.297750
       6332.50        55.0359         1.7785         2.1122       0.293481
       6333.00        56.1850         1.8078         2.1107       0.299383
       6333.50        55.1694         1.7732         2.1106       0.316942
       6334.00        51.7203         1.7629         2.1024       0.334278
       6334.50        49.2844         1.7537         2.0885       0.337018
       6335.00        49.4716         1.7337         2.0840       0.326211
       6335.50        49.8842         1.7122         2.0913       0.312916
       6336.00        50.8874         1.6908         2.1007       0.312481
       6336.50        48.0952         1.6692         2.1079       0.322776
       6337.00        45.5371         1.6507         2.1129       0.327276
       6337.50        44.6307         1.6426         2.1166       0.329673
       6338.00        45.6060         1.6380         2.1173       0.337375
       6338.50        47.1687         1.7058         2.1208       0.344103
       6339.00        53.5380         1.7883         2.1442       0.348905
       6339.50        58.8700         1.6746         2.1869       0.362728
       6340.00        63.2970         1.8408         2.2193       0.389413
       6340.50        63.7971         1.6849         2.2281       0.409767
       6341.00        67.6835         1.6101         2.2260       0.404295
       6341.50        67.0566         1.5752         2.2211       0.387713
       6342.00        70.6872         1.4941         2.2208       0.388846
       6342.50        67.7582         1.3911         2.2300       0.405601
       6343.00        68.4093         1.3032         2.2415       0.415960
       6343.50        75.4499         1.2063         2.2493       0.410549
       6344.00        74.1104         1.1882         2.2572       0.403446
       6344.50        74.6709         1.1677         2.2663       0.406064
       6345.00        77.6380         1.1262         2.2768       0.415177
       6345.50        78.9267         1.1069         2.2915       0.428679
       6346.00        79.1046         1.1000         2.3047       0.445766
       6346.50        78.5546         1.0937         2.3127       0.458993
       6347.00        77.4729         1.0950         2.3209       0.458362
       6347.50        78.2262         1.0958         2.3252       0.447977
