~Version Information Block
VERS .                  2.0:  CWLS LOG ASCII STANDARD - VERSION 2.0
WRAP .                   NO:  One line per depth step
~Well Information Block
#MNEM.UNIT        Data Type   Information
#---------- ----------------  -----------
STRT .FT             224.00:  START DEPTH
STOP .FT            7977.50:  STOP DEPTH
STEP .FT               0.50:  STEP
NULL .              -999.25:  NULL VALUE
COMP .                     :  COMPANY
WELL .               STA-22:  WELL
FLD  .                     :  FIELD
LOC  .                     :  LOCATION
CTRY .                     :  COUNTRY
STAT .                     :  STATE
CNTY .                     :  COUNTY
SRVC .                     :  SERVICE COMPANY
DATE .                     :  DATE
API  .                     :  API NUMBER
UWI  .                     :  UNIQUE WELL ID
~Curve Information Block
#MNEM.UNIT         API CODE   Curve Description
#---------- ----------------  -----------------
DEPTH.FT                   :  DEPTH
GR   .GAPI                 :  Gamma Ray
RT   .OHMM                 :  RESDE
RHOB .G/C3                 :  Bulk Density
NPHI .V/V                  :  Thermal Neutron Porosity (Ratio Method) in Selected Lithology
~Parameter Information Block
#MNEM.UNIT            Value   Description
#---------- ----------------  -----------
PROJECT.            SANTAN_FE:  
~Other Information Block
# 
~A       DEPTH             GR             RT           RHOB           NPHI 
# ...
       1294.00        81.8600         1.2289         1.9730       0.612900
       1294.50        81.8000         1.2200         1.9885       0.596300
       1295.00        82.0500         1.2223         1.9786       0.559000
       1295.50        82.2900         1.2400         1.9700       0.545200
       1296.00        82.3500         1.2388         1.9713       0.562000
       1296.50        81.2200         1.2312         1.9800       0.557000
       1297.00        79.2800         1.2400         1.9788       0.572200
       1297.50        77.7800         1.2412         1.9700       0.561900
       1298.00        76.9000         1.2500         1.9700       0.542900
       1298.50        77.4600         1.2512         1.9711       0.530100
       1299.00        78.7800         1.2600         1.9821       0.517200
       1299.50        80.1700         1.2600         2.0000       0.544300
       1300.00        82.3500         1.2600         2.0000       0.573700
       1300.50        83.2900         1.2600         1.9981       0.640700
       1301.00        82.1600         1.2600         1.9827       0.622600
       1301.50        83.8700         1.2613         2.0092       0.567600
       1302.00        83.1800         1.2700         2.0008       0.527600
       1302.50        84.7471         1.2687         2.0070       0.530300
       1303.00        84.9286         1.2600         1.9700       0.556800
       1303.50        85.1102         1.2600         1.9700       0.583900
       1304.00        85.2489         1.2600         1.9700       0.574400
       1304.50        84.7648         1.2614         1.9723       0.584700
       1305.00        84.2807         1.2673         2.0100       0.555400
       1305.50        83.9400         1.2500         2.0110       0.531300
       1306.00        83.9400         1.2500         2.0291       0.497800
       1306.50        83.9400         1.2500         2.0100       0.523600
       1307.00        83.9400         1.2514         2.0100       0.522900
       1307.50        83.9400         1.2586         2.0097       0.553500
       1308.00        83.9400         1.2500         1.9994       0.543400
       1308.50        81.0100         1.2500         1.9805       0.556700
       1309.00        78.5100         1.2500         2.0000       0.543200
       1309.50        78.7000         1.2515         2.0003       0.557000
       1310.00        81.1200         1.2600         2.0198       0.542400
       1310.50        82.0100         1.2600         2.0001       0.522500
       1311.00        81.7600         1.2615         2.0100       0.511500
       1311.50        80.5200         1.2700         2.0200       0.553800
       1312.00        80.3900         1.2700         2.0200       0.542500
       1312.50        80.4500         1.2685         2.0200       0.557500
       1313.00        79.4300         1.2585         2.0003       0.586200
       1313.50        78.2500         1.2485         1.9804       0.633700
       1314.00        77.0500         1.2400         1.9995       0.779800
       1314.50        78.8100         1.2400         1.9806       0.633700
       1315.00        77.8700         1.2400         1.9897       0.549400
       1315.50        77.2500         1.2416         1.9804       0.479100
       1316.00        75.5600         1.2516         1.9896       0.452800
       1316.50        75.1100         1.2600         1.9805       0.511000
       1317.00        74.1700         1.2632         1.9705       0.476200
       1317.50        71.0300         1.2800         1.9511       0.565800
       1318.00        70.3500         1.2784         1.9406       0.536100
       1318.50        70.8600         1.2700         1.9306       0.582300
       1319.00        73.1900         1.2683         1.9114       0.581100
       1319.50        74.8700         1.2617         1.8729       0.666600
       1320.00        74.1100         1.2717         1.8331       0.714200
       1320.50        72.2900         1.2783         1.8024       0.650700
       1321.00        71.2900         1.2734         1.7909       0.614500
       1321.50        73.3600         1.2815         1.7809       0.532500
       1322.00        76.1200         1.2400         1.7891       0.546200
       1322.50        76.8800         1.2262         1.7990       0.515500
       1323.00        75.8000         1.1548         1.8090       0.527400
       1323.50        76.2400         1.1300         1.8189       0.555700
       1324.00        77.6900         1.1300         1.8289       0.568400
       1324.50        78.9500         1.1264         1.8477       0.758200
       1325.00        78.7600         1.1100         1.8588       0.643900
       1325.50        77.7600         1.1046         1.8687       0.586400
       1326.00        76.9500         1.0800         1.8787       0.520500
       1326.50        75.6400         1.0800         1.8973       0.552700
       1327.00        75.1300         1.0763         1.9086       0.687300
       1327.50        74.6300         1.0600         1.9272       0.692700
       1328.00        75.7000         1.0582         1.9641       0.664600
       1328.50        76.7700         1.0500         1.9700       0.643100
       1329.00        78.2700         1.0519         1.9700       0.640000
       1329.50        78.7000         1.0600         1.9700       0.623100
       1330.00        78.5700         1.0562         1.9867       0.594800
       1330.50        78.0100         1.0400         1.9983       0.581700
       1331.00        77.2500         1.0400         1.9917       0.588300
       1331.50        77.0700         1.0342         1.9900       0.582200
       1332.00        76.8800         1.0100         1.9900       0.620500
       1332.50        77.2000         1.0139         1.9981       0.580600
       1333.00        77.5200         1.0300         2.0081       0.562000
       1333.50        78.8900         1.0300         2.0020       0.569500
       1334.00        79.9400         1.0300         2.0000       0.626700
       1334.50        80.6800         1.0280         2.0000       0.638000
       1335.00        80.3600         1.0200         2.0000       0.575200
       1335.50        80.3600         1.0200         1.9842       0.545200
       1336.00        80.6800         1.0180         1.9643       0.572500
       1336.50        80.8800         1.0100         1.9522       0.595900
       1337.00        80.7700         1.0100         1.9423       0.597700
       1337.50        81.8400         1.0059         1.9323       0.554400
       1338.00        83.0200         0.9900         1.9377       0.572200
       1338.50        83.9600         0.9838         1.9552       0.602800
       1339.00        83.7200         0.9600         1.9600       0.717100
       1339.50        82.8400         0.9579         1.9750       0.641100
       1340.00        82.5200         0.9479         1.9725       0.561700
       1340.50        82.2000         0.9400         1.9700       0.522000
       1341.00        82.1400         0.9570         1.9552       0.554400
       1341.50        81.2600         1.0307         1.9574       0.641300
       1342.00        80.2600         1.0786         1.9527       0.635500
       1342.50        78.7600         1.1229         1.9573       0.576000
       1343.00        75.5600         1.2067         1.9383       0.546900
       1343.50        70.6000         1.3443         1.9300       0.567800
       1344.00        65.3900         1.3578         1.9371       0.628200
       1344.50        60.2600         1.3456         1.9471       0.633000
       1345.00        54.7500         1.3256         1.9430       0.602700
       1345.50        46.6600         1.2945         1.9260       0.546200
       1346.00        39.8200         1.2333         1.9409       0.505700
       1346.50        35.2300         1.2078         1.9500       0.479800
       1347.00        35.1200         1.2067         1.9500       0.485900
