~Version Information Block
VERS .                  2.0:  CWLS LOG ASCII STANDARD - VERSION 2.0
WRAP .                   NO:  One line per depth step
~Well Information Block
#MNEM.UNIT        Data Type   Information
#---------- ----------------  -----------
STRT .FT            5000.50:  START DEPTH
STOP .FT           14504.00:  STOP DEPTH
STEP .FT               0.50:  STEP
NULL .              -999.25:  NULL VALUE
COMP .                     :  COMPANY
WELL .               STA-18:  WELL
FLD  .                     :  FIELD
LOC  .                     :  LOCATION
CTRY .                     :  COUNTRY
STAT .                     :  STATE
CNTY .                     :  COUNTY
SRVC .                     :  SERVICE COMPANY
DATE .                     :  DATE
API  .                     :  API NUMBER
UWI  .                     :  UNIQUE WELL ID
~Curve Information Block
#MNEM.UNIT         API CODE   Curve Description
#---------- ----------------  -----------------
DEPTH.FT                   :  DEPTH
GR   .GAPI                 :  Gamma Ray
RT   .OHMM                 :  SEDP
RHOB .G/C3                 :  Bulk Density
NPHI .V/V                  :  Neutron porosity
~Parameter Information Block
#MNEM.UNIT            Value   Description
#---------- ----------------  -----------
PROJECT.            SANTAN_FE:  
~Other Information Block
# 
~A       DEPTH             GR             RT           RHOB           NPHI 
# ...
       6284.50        65.4639         3.3500         2.2510       0.359100
       6285.00        79.6072         3.2200         2.2875       0.350900
       6285.50        79.2179         3.1000         2.3045       0.334900
       6286.00        68.5512         2.9700         2.2945       0.350300
       6286.50        75.6635         2.7800         2.2955       0.365400
       6287.00        74.1096         2.5900         2.3000       0.378500
       6287.50        70.0494         2.5100         2.3000       0.379500
       6288.00        76.3680         2.4400         2.2945       0.378000
       6288.50        83.5664         2.3300         2.2900       0.380200
       6289.00        89.0205         2.2100         2.3010       0.370600
       6289.50        90.3311         2.1300         2.3100       0.364600
       6290.00        87.5499         2.0700         2.3045       0.363200
       6290.50        83.5092         2.0000         2.3000       0.390000
       6291.00        88.6786         1.9400         2.3055       0.401700
       6291.50        90.6336         1.9100         2.3155       0.397900
       6292.00        93.1233         1.9000         2.3255       0.389000
       6292.50       110.7303         1.8600         2.3191       0.389600
       6293.00       108.3326         1.8100         2.3045       0.407500
       6293.50        88.3201         1.7600         2.3055       0.423600
       6294.00       102.1553         1.7500         2.3045       0.429600
       6294.50        99.8565         1.7500         2.3000       0.431500
       6295.00        99.8663         1.7500         2.3109       0.458900
       6295.50       105.3254         1.7500         2.3200       0.440700
       6296.00        96.6042         1.7600         2.3200       0.419000
       6296.50        91.8808         1.7400         2.3254       0.420900
       6297.00        88.7031         1.7400         2.3300       0.417300
       6297.50        86.2669         1.7300         2.3300       0.406400
       6298.00        90.9596         1.7500         2.3245       0.399200
       6298.50        91.2502         1.7600         2.3091       0.383700
       6299.00        94.1440         1.7500         2.3054       0.407800
       6299.50        93.0267         1.7100         2.3209       0.421600
       6300.00       111.0144         1.6800         2.3354       0.436700
       6300.50       108.9215         1.6200         2.3400       0.445300
       6301.00       106.3335         1.6200         2.3454       0.459400
       6301.50       101.4825         1.6200         2.3500       0.432200
       6302.00        98.7702         1.6700         2.3609       0.402600
       6302.50        90.9923         1.8300         2.3700       0.359200
       6303.00        73.9962         2.0700         2.3592       0.330000
       6303.50        77.4350         2.2100         2.3392       0.314100
       6304.00        81.0600         2.1900         2.3246       0.306200
       6304.50        85.0521         2.0100         2.3146       0.316200
       6305.00        89.3552         1.8800         2.2992       0.336700
       6305.50        85.9488         1.8800         2.2954       0.338500
       6306.00        89.7698         1.9600         2.3054       0.342600
       6306.50        91.9829         1.9900         2.3046       0.366900
       6307.00        96.5017         1.9400         2.2892       0.389100
       6307.50       110.9290         1.9100         2.2638       0.409100
       6308.00       104.6983         1.9300         2.2338       0.428400
       6308.50        92.3096         1.9700         2.2092       0.427900
       6309.00        96.5119         1.9800         2.2000       0.414600
       6309.50       100.4653         1.9900         2.2162       0.397700
       6310.00       104.2142         1.9800         2.2354       0.389800
       6310.50       112.3205         1.9700         2.2508       0.393600
       6311.00       111.0669         1.8900         2.2762       0.404400
       6311.50       101.1005         1.8600         2.3062       0.415600
       6312.00       101.5435         1.9100         2.3200       0.417400
       6312.50       104.8383         1.9200         2.3200       0.385000
       6313.00       106.3663         1.8700         2.3200       0.379900
       6313.50        97.5978         1.8900         2.3200       0.381000
       6314.00        90.6701         1.8600         2.3254       0.393700
       6314.50        97.8194         1.8600         2.3193       0.387400
       6315.00        97.8151         1.9000         2.3046       0.369900
       6315.50        90.2495         1.9700         2.2946       0.352300
       6316.00        81.4509         2.0300         2.2900       0.351300
       6316.50        84.3379         2.0800         2.3061       0.349400
       6317.00        92.5029         2.2000         2.3200       0.341000
       6317.50        88.9905         2.3600         2.3093       0.331700
       6318.00        88.8425         2.5400         2.2893       0.317200
       6318.50        90.8949         2.7200         2.2586       0.301400
       6319.00        88.5906         2.8500         2.2240       0.297100
       6319.50        88.2805         2.9900         2.2047       0.286700
       6320.00        89.0790         3.1400         2.1733       0.290700
       6320.50        88.1230         3.2800         2.1286       0.295300
       6321.00        90.3110         3.3800         2.0993       0.300000
       6321.50        89.9628         3.3900         2.0793       0.309700
       6322.00        77.3990         3.3400         2.0753       0.327900
       6322.50        69.6133         3.2700         2.0747       0.338700
       6323.00        64.7271         3.2600         2.0593       0.328400
       6323.50        62.9106         3.2700         2.0500       0.315300
       6324.00        61.8051         3.2900         2.0500       0.316900
       6324.50        60.2256         3.2900         2.0607       0.328100
       6325.00        60.6182         3.3000         2.0700       0.316100
       6325.50        65.2771         3.2700         2.0541       0.307000
       6326.00        61.6045         3.1900         2.0400       0.289900
       6326.50        56.7430         3.2000         2.0453       0.275200
       6327.00        53.8197         3.1700         2.0553       0.266800
       6327.50        55.2072         2.9600         2.0706       0.320700
       6328.00        61.2485         3.0400         2.0853       0.299800
       6328.50        60.8100         3.2000         2.0953       0.298800
       6329.00        55.6721         2.8800         2.1053       0.308500
       6329.50        48.2839         2.9000         2.1047       0.312200
       6330.00        46.3478         3.0500         2.0894       0.302100
       6330.50        48.5402         3.1200         2.0694       0.300800
       6331.00        51.8239         2.9700         2.0759       0.287200
       6331.50        53.6827         2.7100         2.0953       0.301000
       6332.00        51.8196         2.6200         2.1000       0.310900
       6332.50        56.1674         2.8200         2.0947       0.312300
       6333.00        58.3795         3.0400         2.0794       0.311000
       6333.50        48.2070         3.1200         2.0647       0.308000
       6334.00        42.3283         3.1100         2.0547       0.303300
       6334.50        39.5786         3.0900         2.0447       0.293900
       6335.00        37.6332         3.1700         2.0347       0.273500
       6335.50        36.1673         3.1800         2.0300       0.307900
       6336.00        35.5788         3.0700         2.0300       0.303200
       6336.50        34.1881         2.9700         2.0247       0.283400
       6337.00        26.4037         2.9000         2.0253       0.257300
       6337.50        22.6836         2.8400         2.0405       0.295100
