~Version Information Block
VERS .                  2.0:  CWLS LOG ASCII STANDARD - VERSION 2.0
WRAP .                   NO:  One line per depth step
~Well Information Block
#MNEM.UNIT        Data Type   Information
#---------- ----------------  -----------
STRT .FT             224.00:  START DEPTH
STOP .FT            7977.50:  STOP DEPTH
STEP .FT               0.50:  STEP
NULL .              -999.25:  NULL VALUE
COMP .                     :  COMPANY
WELL .               STA-22:  WELL
FLD  .                     :  FIELD
LOC  .                     :  LOCATION
CTRY .                     :  COUNTRY
STAT .                     :  STATE
CNTY .                     :  COUNTY
SRVC .                     :  SERVICE COMPANY
DATE .                     :  DATE
API  .                     :  API NUMBER
UWI  .                     :  UNIQUE WELL ID
~Curve Information Block
#MNEM.UNIT         API CODE   Curve Description
#---------- ----------------  -----------------
DEPTH.FT                   :  DEPTH
GR   .GAPI                 :  Gamma Ray
RT   .OHMM                 :  RESDE
RHOB .G/C3                 :  Bulk Density
NPHI .V/V                  :  Thermal Neutron Porosity (Ratio Method) in Selected Lithology
~Parameter Information Block
#MNEM.UNIT            Value   Description
#---------- ----------------  -----------
PROJECT.            SANTAN_FE:  
~Other Information Block
# 
~A       DEPTH             GR             RT           RHOB           NPHI 
# ...
       5306.50        86.0600         1.4500         2.3200       0.460000
       5307.00        81.9800         1.4464         2.3100       0.465300
       5307.50        79.6300         1.4259         2.3200       0.470000
       5308.00        77.4000         1.4032         2.3200       0.459100
       5308.50        79.9800         1.3850         2.3200       0.461100
       5309.00        84.1700         1.4054         2.3200       0.470000
       5309.50        88.7300         1.3994         2.3100       0.481400
       5310.00        91.3600         1.3468         2.3600       0.484200
       5310.50        93.8500         1.3366         2.3100       0.497700
       5311.00        96.7300         1.3300         2.3000       0.527900
       5311.50        99.0400         1.3262         2.2700       0.540000
       5312.00        99.1800         1.2997         2.2900       0.533800
       5312.50        98.6100         1.2529         2.3000       0.492500
       5313.00        98.4300         1.2345         2.3300       0.476300
       5313.50        98.3000         1.2400         2.3400       0.454300
       5314.00        97.9800         1.2499         2.3200       0.440000
       5314.50        97.2300         1.2341         2.3100       0.407000
       5315.00        96.3600         1.1992         2.3100       0.383300
       5315.50        95.1900         1.2744         2.3200       0.393600
       5316.00        93.0200         1.4452         2.3200       0.420600
       5316.50        89.4000         1.5139         2.2900       0.416100
       5317.00        85.5100         1.5603         2.2400       0.381800
       5317.50        82.4500         1.6291         2.2300       0.341400
       5318.00        79.7800         1.6638         2.2400       0.337200
       5318.50        77.3100         1.6700         2.2700       0.340000
       5319.00        74.3600         1.6293         2.2700       0.347400
       5319.50        72.0700         1.5144         2.2300       0.357500
       5320.00        71.5800         1.5000         2.2000       0.390400
       5320.50        73.1800         1.5809         2.2000       0.407700
       5321.00        72.8400         1.6692         2.1800       0.386700
       5321.50        68.8700         1.9340         2.1400       0.356400
       5322.00        61.3500         2.2497         2.1200       0.358000
       5322.50        55.0500         2.5679         2.1500       0.384100
       5323.00        49.0200         2.9271         2.1800       0.390000
       5323.50        44.8400         3.2660         2.2100       0.390000
       5324.00        41.1000         3.6372         2.2700       0.373400
       5324.50        40.2500         3.9991         2.3300       0.344800
       5325.00        39.8800         4.4645         2.3400       0.306000
       5325.50        41.2800         4.7650         2.3400       0.282800
       5326.00        41.4400         4.6087         2.3600       0.271300
       5326.50        42.2300         4.6618         2.4000       0.252500
       5327.00        41.6300         4.6548         2.4000       0.250000
       5327.50        42.0700         4.6689         2.4100       0.250000
       5328.00        43.2100         4.4916         2.3700       0.267700
       5328.50        46.7300         3.7926         2.3700       0.287700
       5329.00        50.8100         3.5420         2.3400       0.316600
       5329.50        52.8700         3.2621         2.3600       0.311100
       5330.00        53.3000         3.2477         2.3800       0.336600
       5330.50        52.9200         3.1347         2.4100       0.331100
       5331.00        55.6700         2.9805         2.3700       0.347700
       5331.50        57.6500         2.6897         2.3600       0.332300
       5332.00        57.6200         2.4827         2.3200       0.356600
       5332.50        53.6500         2.3998         2.3300       0.368800
       5333.00        51.0500         2.2214         2.3100       0.387700
       5333.50        51.8300         2.1029         2.3000       0.398800
       5334.00        58.8800         1.9338         2.3000       0.417700
       5334.50        66.4100         1.8737         2.3000       0.420000
       5335.00        69.9000         1.9305         2.3100       0.384600
       5335.50        71.7900         2.2089         2.3100       0.353400
       5336.00        71.9300         2.6358         2.3200       0.323400
       5336.50        72.0300         3.1326         2.3400       0.284600
       5337.00        64.1000         3.6867         2.3600       0.253400
       5337.50        55.4200         3.9319         2.3600       0.241200
       5338.00        48.1700         4.2734         2.3900       0.248900
       5338.50        45.8100         4.7255         2.3600       0.241200
       5339.00        44.7300         5.5185         2.2900       0.222300
       5339.50        43.6900         6.3120         2.2600       0.193400
       5340.00        42.7700         6.7206         2.3200       0.181200
       5340.50        40.6200         7.1182         2.3900       0.162300
       5341.00        36.4400         7.4362         2.2900       0.160000
       5341.50        30.4700         7.2137         2.1800       0.168800
       5342.00        26.3700         6.9274         2.1300       0.205400
       5342.50        25.2300         6.6148         2.1800       0.245400
       5343.00        26.5300         5.1732         2.1400       0.285400
       5343.50        26.7800         3.7589         1.9500       0.316500
       5344.00        27.1100         3.7135         1.8300       0.311200
       5344.50        26.4600         3.8726         1.8800       0.301200
       5345.00        26.0300         4.3370         2.0400       0.300000
       5345.50        25.5200         5.2615         2.2600       0.264600
       5346.00        26.2500         5.3563         2.2600       0.233500
       5346.50        27.5500         5.1400         2.1800       0.212300
       5347.00        29.2100         5.1667         2.2000       0.236500
       5347.50        29.2900         5.3614         2.1400       0.240000
       5348.00        28.6300         5.5900         2.2300       0.240000
       5348.50        26.9700         5.4739         2.2300       0.204600
       5349.00        26.0600         6.3525         2.3500       0.191200
       5349.50        25.7000         6.5200         2.4200       0.172300
       5350.00        26.0200         6.5402         2.5200       0.161200
       5350.50        27.2100         6.6448         2.5300       0.151200
       5351.00        28.9500         6.6068         2.4600       0.158800
       5351.50        31.8000         6.5656         2.4300       0.168800
       5352.00        34.4500         6.4021         2.4200       0.170000
       5352.50        36.5100         6.2879         2.4500       0.161200
       5353.00        37.6500         6.4937         2.3900       0.160000
       5353.50        37.3600         6.7671         2.3000       0.151200
       5354.00        36.6800         6.8183         2.3400       0.158800
       5354.50        35.2900         6.7163         2.4000       0.168900
       5355.00        34.9500         6.1496         2.5000       0.196600
       5355.50        36.2000         5.8762         2.5100       0.208800
       5356.00        38.3800         5.8413         2.4900       0.227700
       5356.50        40.0600         5.8994         2.4900       0.238800
       5357.00        40.2900         5.7204         2.4500       0.248900
       5357.50        41.4600         5.3037         2.4600       0.267700
       5358.00        42.8100         4.7592         2.4600       0.287700
       5358.50        44.9500         3.9440         2.4300       0.298800
       5359.00        47.4000         3.3406         2.3700       0.300000
       5359.50        50.5300         2.7482         2.3400       0.317700
