~Version Information Block
VERS .                  2.0:  CWLS LOG ASCII STANDARD - VERSION 2.0
WRAP .                   NO:  One line per depth step
~Well Information Block
#MNEM.UNIT        Data Type   Information
#---------- ----------------  -----------
STRT .FT             224.00:  START DEPTH
STOP .FT            7977.50:  STOP DEPTH
STEP .FT               0.50:  STEP
NULL .              -999.25:  NULL VALUE
COMP .                     :  COMPANY
WELL .               STA-22:  WELL
FLD  .                     :  FIELD
LOC  .                     :  LOCATION
CTRY .                     :  COUNTRY
STAT .                     :  STATE
CNTY .                     :  COUNTY
SRVC .                     :  SERVICE COMPANY
DATE .                     :  DATE
API  .                     :  API NUMBER
UWI  .                     :  UNIQUE WELL ID
~Curve Information Block
#MNEM.UNIT         API CODE   Curve Description
#---------- ----------------  -----------------
DEPTH.FT                   :  DEPTH
GR   .GAPI                 :  Gamma Ray
RT   .OHMM                 :  RESDE
RHOB .G/C3                 :  Bulk Density
NPHI .V/V                  :  Thermal Neutron Porosity (Ratio Method) in Selected Lithology
~Parameter Information Block
#MNEM.UNIT            Value   Description
#---------- ----------------  -----------
PROJECT.            SANTAN_FE:  
~Other Information Block
# 
~A       DEPTH             GR             RT           RHOB           NPHI 
# ...
       5788.00        67.6000         1.6893         2.3143       0.418300
       5788.50        73.8400         1.5955         2.3156       0.420900
       5789.00        80.1200         1.5286         2.3144       0.408700
       5789.50        84.5900         1.4711         2.3155       0.393300
       5790.00        87.9200         1.4324         2.3146       0.380600
       5790.50        90.1900         1.4390         2.3153       0.388000
       5791.00        92.2600         1.4400         2.3100       0.400200
       5791.50        93.1200         1.4237         2.3100       0.417300
       5792.00        92.5600         1.3813         2.2853       0.422300
       5792.50        91.6300         1.3554         2.2500       0.408000
       5793.00        89.6600         1.3500         2.2349       0.393000
       5793.50        87.1100         1.3241         2.2455       0.408200
       5794.00        84.7900         1.3100         2.2705       0.450800
       5794.50        82.9700         1.3100         2.2960       0.459300
       5795.00        82.3300         1.3257         2.3209       0.430600
       5795.50        82.5900         1.3496         2.3410       0.392600
       5796.00        84.9000         1.3600         2.3500       0.382100
       5796.50        90.1600         1.3520         2.3443       0.383800
       5797.00        95.2000         1.3293         2.3400       0.389800
       5797.50        98.9900         1.2974         2.3400       0.425100
       5798.00        99.6800         1.2673         2.3400       0.462000
       5798.50        99.3100         1.2646         2.3400       0.478200
       5799.00        97.2700         1.2838         2.3461       0.462200
       5799.50        92.7400         1.3222         2.3376       0.430300
       5800.00        86.5800         1.4703         2.3049       0.397400
       5800.50        76.8300         1.6504         2.2836       0.371400
       5801.00        67.6600         1.8027         2.2800       0.357100
       5801.50        60.3000         1.9177         2.2800       0.342400
       5802.00        58.7200         1.9858         2.2602       0.327600
       5802.50        59.4400         2.0174         2.2233       0.330500
       5803.00        61.8900         1.9903         2.2032       0.333300
       5803.50        64.2000         1.8446         2.2137       0.330800
       5804.00        66.2400         1.7718         2.2339       0.314100
       5804.50        67.2100         1.7249         2.2681       0.329500
       5805.00        68.5400         1.7100         2.3013       0.352700
       5805.50        70.6100         1.7100         2.3315       0.365400
       5806.00        72.3500         1.7203         2.3473       0.357400
       5806.50        72.8300         1.7421         2.3353       0.344500
       5807.00        72.5000         1.7569         2.3300       0.333800
       5807.50        72.1800         1.7678         2.3150       0.310200
       5808.00        71.2200         1.7874         2.3024       0.321400
       5808.50        70.6500         1.7900         2.2923       0.336600
       5809.00        70.4700         1.7582         2.2978       0.347200
       5809.50        71.1900         1.7120         2.2922       0.342400
       5810.00        72.1300         1.6512         2.2821       0.340000
       5810.50        73.3100         1.6169         2.2880       0.324000
       5811.00        75.0200         1.6060         2.3062       0.328100
       5811.50        77.0900         1.6000         2.3100       0.331600
       5812.00        78.5000         1.6000         2.3100       0.371800
       5812.50        80.3200         1.6000         2.3017       0.379400
       5813.00        80.8600         1.5701         2.3084       0.371400
       5813.50        81.2500         1.5600         2.3015       0.369000
       5814.00        80.8800         1.5692         2.3172       0.361200
       5814.50        81.0900         1.5497         2.3113       0.360000
       5815.00        81.9600         1.5160         2.3012       0.361500
       5815.50        83.5500         1.4781         2.2912       0.372300
       5816.00        84.9500         1.4700         2.2811       0.391900
       5816.50        83.3900         1.4627         2.2980       0.414500
       5817.00        81.6000         1.4410         2.3091       0.442300
       5817.50        80.0700         1.4084         2.3192       0.458800
       5818.00        80.7400         1.3774         2.3107       0.457400
       5818.50        84.4000         1.4058         2.3100       0.447700
       5819.00        86.5600         1.3237         2.3194       0.434500
       5819.50        88.7400         1.3356         2.3295       0.411200
       5820.00        84.6800         1.5947         2.3396       0.390800
       5820.50        75.5400         1.8901         2.3497       0.382800
       5821.00        64.2800         2.2073         2.3500       0.358900
       5821.50        53.5800         2.4952         2.3697       0.328300
       5822.00        47.1600         2.8030         2.3998       0.305900
       5822.50        43.7400         2.8900         2.4200       0.291300
       5823.00        44.0500         2.8857         2.4200       0.271300
       5823.50        50.1500         2.7026         2.3313       0.273100
       5824.00        54.8000         2.3198         2.3104       0.298200
       5824.50        61.3200         2.1087         2.2711       0.318200
       5825.00        65.4700         2.0541         2.2797       0.312900
       5825.50        69.9900         1.9866         2.2800       0.290900
       5826.00        70.7300         1.9671         2.2705       0.294100
       5826.50        69.9500         1.9248         2.2605       0.311900
       5827.00        70.2500         1.8871         2.2318       0.333000
       5827.50        71.6100         1.8559         2.2580       0.339600
       5828.00        72.3000         1.7800         2.2600       0.340000
       5828.50        72.3300         1.7477         2.2784       0.340000
       5829.00        72.7300         1.7336         2.2709       0.340000
       5829.50        74.1600         1.7041         2.3063       0.343800
       5830.00        76.0000         1.6711         2.3190       0.372000
       5830.50        77.2900         1.6300         2.3021       0.424900
       5831.00        78.2000         1.6257         2.2645       0.453100
       5831.50        78.1900         1.6000         2.2865       0.443400
       5832.00        79.6400         1.5990         2.3338       0.427900
       5832.50        81.5300         1.5865         2.3400       0.420800
       5833.00        84.0400         1.5472         2.3228       0.423500
       5833.50        86.1800         1.5100         2.3114       0.432600
       5834.00        89.2900         1.5076         2.3185       0.442500
       5834.50        92.5500         1.4391         2.3284       0.449100
       5835.00        94.4300         1.3801         2.3133       0.436600
       5835.50        94.4000         1.3604         2.2934       0.414100
       5836.00        93.7000         1.2927         2.2982       0.400200
       5836.50        91.8100         1.2900         2.3245       0.383300
       5837.00        89.8600         1.2715         2.3624       0.383200
       5837.50        90.7700         1.2156         2.3620       0.395100
       5838.00        93.2600         1.2100         2.3361       0.410700
       5838.50        97.1300         1.2187         2.2984       0.421800
       5839.00        98.7300         1.2285         2.2743       0.422600
       5839.50       100.1300         1.2300         2.2700       0.418700
       5840.00       105.9900         1.2055         2.2777       0.418300
       5840.50       113.1900         1.1281         2.3029       0.413100
       5841.00       119.2200         1.1022         2.3176       0.416900
