~Version Information Block
VERS .                  2.0:  CWLS LOG ASCII STANDARD - VERSION 2.0
WRAP .                   NO:  One line per depth step
~Well Information Block
#MNEM.UNIT        Data Type   Information
#---------- ----------------  -----------
STRT .FT            6114.50:  START DEPTH
STOP .FT           14965.50:  STOP DEPTH
STEP .FT               0.50:  STEP
NULL .              -999.25:  NULL VALUE
COMP .                     :  COMPANY
WELL .               STA-36:  WELL
FLD  .                     :  FIELD
LOC  .                     :  LOCATION
CTRY .                     :  COUNTRY
STAT .                     :  STATE
CNTY .                     :  COUNTY
SRVC .                     :  SERVICE COMPANY
DATE .                     :  DATE
API  .                     :  API NUMBER
UWI  .                     :  UNIQUE WELL ID
~Curve Information Block
#MNEM.UNIT         API CODE   Curve Description
#---------- ----------------  -----------------
DEPTH.FT                   :  Depth
GR   .GAPI                 :  Gamma Ray
RT   .OHMM                 :  True Resistivity
RHOB .G/C3                 :  Bulk Density
NPHI .V/V                  :  Neutron Porosity
~Parameter Information Block
#MNEM.UNIT            Value   Description
#---------- ----------------  -----------
PROJECT.            SANTAN_FE:  
~Other Information Block
# 
~A       DEPTH             GR             RT           RHOB           NPHI 
# ...
       7880.00        73.0860         0.7665         2.2163       0.423600
       7880.50        75.7490         0.7703         2.2233       0.410500
       7881.00        75.4764         0.7732         2.2323       0.396900
       7881.50        76.6341         0.7687         2.2417       0.395400
       7882.00        78.2614         0.7629         2.2485       0.398700
       7882.50        75.8212         0.7536         2.2536       0.409300
       7883.00        75.1061         0.7524         2.2578       0.428400
       7883.50        75.6166         0.7648         2.2610       0.442100
       7884.00        73.3739         0.7657         2.2616       0.445700
       7884.50        73.7569         0.7677         2.2600       0.438700
       7885.00        71.5971         0.7624         2.2592       0.425800
       7885.50        69.7111         0.7494         2.2581       0.419400
       7886.00        71.0501         0.7517         2.2534       0.427300
       7886.50        74.0679         0.7404         2.2451       0.436300
       7887.00        75.8701         0.7147         2.2384       0.427300
       7887.50        74.3433         0.6974         2.2375       0.405500
       7888.00        72.0766         0.6952         2.2385       0.398000
       7888.50        69.7124         0.6904         2.2368       0.412500
       7889.00        68.8318         0.6696         2.2303       0.440200
       7889.50        76.0219         0.6371         2.2203       0.448500
       7890.00        74.5628         0.6224         2.2154       0.437800
       7890.50        78.7073         0.6386         2.2214       0.439800
       7891.00        83.1379         0.6737         2.2322       0.451900
       7891.50        81.6207         0.7041         2.2396       0.456500
       7892.00        77.7212         0.7160         2.2445       0.456800
       7892.50        79.7472         0.7218         2.2501       0.452600
       7893.00        79.9854         0.7924         2.2577       0.438700
       7893.50        76.5482         0.9782         2.2698       0.412400
       7894.00        69.7777         1.2415         2.2822       0.381000
       7894.50        71.9152         1.4126         2.2819       0.369200
       7895.00        77.9345         1.3034         2.2765       0.382700
       7895.50        88.9503         1.0906         2.2801       0.396900
       7896.00        94.0568         1.0243         2.2800       0.404900
       7896.50       104.2272         0.9772         2.2668       0.413800
       7897.00       108.3226         0.9509         2.2544       0.416500
       7897.50       106.1884         0.9298         2.2468       0.412500
       7898.00       103.8165         0.9972         2.2467       0.410600
       7898.50        98.2864         1.0762         2.2545       0.413700
       7899.00        93.6046         1.0746         2.2612       0.410900
       7899.50        95.3494         1.0724         2.2646       0.395900
       7900.00        96.0294         1.0842         2.2632       0.389100
       7900.50        99.0318         1.0590         2.2583       0.394800
       7901.00       101.8129         1.0436         2.2572       0.409700
       7901.50       106.2613         1.0192         2.2566       0.427700
       7902.00       111.9925         1.0347         2.2414       0.431100
       7902.50       115.2789         1.0485         2.2176       0.425300
       7903.00       115.0364         1.0477         2.2044       0.424800
       7903.50       120.1116         1.0495         2.1972       0.421200
       7904.00       115.7740         1.0113         2.1891       0.414500
       7904.50       111.6752         0.9810         2.1874       0.425200
       7905.00       115.1510         0.9759         2.1968       0.444100
       7905.50       112.7691         0.9289         2.2074       0.451400
       7906.00       115.1324         0.9043         2.2113       0.452700
       7906.50       115.7949         0.8831         2.2122       0.454500
       7907.00       115.0473         0.8564         2.2125       0.452500
       7907.50       113.0082         0.8627         2.2120       0.450300
       7908.00       107.9853         0.9557         2.2139       0.444200
       7908.50       100.3662         1.0568         2.2156       0.428300
       7909.00        88.2328         1.2022         2.2144       0.402500
       7909.50        82.1322         1.3016         2.2107       0.373400
       7910.00        82.4469         1.3351         2.2023       0.363600
       7910.50        83.8910         1.3187         2.1950       0.375000
       7911.00        86.3264         1.2464         2.2019       0.388000
       7911.50        86.2997         1.1739         2.2276       0.392800
       7912.00        85.9808         1.0966         2.2631       0.380900
       7912.50        83.9872         1.0590         2.2904       0.368300
       7913.00        83.5727         1.0330         2.3017       0.380700
       7913.50        82.4816         1.0089         2.3039       0.402400
       7914.00        78.4527         0.9912         2.2988       0.413200
       7914.50        82.3270         0.9774         2.2919       0.420100
       7915.00        87.9942         0.9657         2.2916       0.432700
       7915.50        92.4745         0.9518         2.2925       0.438600
       7916.00        94.4389         0.9291         2.2873       0.440200
       7916.50        92.7892         0.9103         2.2764       0.439300
       7917.00        87.5190         0.8877         2.2636       0.435100
       7917.50        87.4923         0.9196         2.2573       0.435300
       7918.00        85.6793         0.9398         2.2643       0.443400
       7918.50        83.9463         0.9140         2.2781       0.449800
       7919.00        86.7226         0.8989         2.2802       0.448400
       7919.50        83.7876         0.8813         2.2668       0.438200
       7920.00        83.7468         0.8946         2.2568       0.423900
       7920.50        79.1990         0.9675         2.2606       0.411000
       7921.00        70.2612         1.1162         2.2642       0.406800
       7921.50        64.0675         1.2291         2.2589       0.410600
       7922.00        66.0827         1.2941         2.2517       0.406100
       7922.50        62.6140         1.3354         2.2437       0.398700
       7923.00        63.3033         1.3639         2.2338       0.391400
       7923.50        61.5119         1.3896         2.2357       0.384200
       7924.00        70.5105         1.4045         2.2421       0.385400
       7924.50        79.7439         1.4171         2.2371       0.400900
       7925.00        81.6489         1.4274         2.2260       0.423200
       7925.50        82.2393         1.4145         2.2087       0.433800
       7926.00        82.0652         1.3921         2.1796       0.432900
       7926.50        78.2544         1.4273         2.1423       0.435700
       7927.00        75.3887         1.5318         2.1138       0.442800
       7927.50        71.5023         1.5279         2.1122       0.438300
       7928.00        71.2804         1.4179         2.1379       0.422800
       7928.50        72.6885         1.2979         2.1699       0.414100
       7929.00        76.9691         1.2661         2.1907       0.410400
       7929.50        79.1678         1.2418         2.2012       0.406200
       7930.00        76.0072         1.2164         2.2051       0.408500
       7930.50        72.5500         1.2085         2.2046       0.408800
       7931.00        74.1058         1.1774         2.2084       0.404900
       7931.50        73.5003         1.1548         2.2132       0.403100
       7932.00        72.3281         1.1334         2.2129       0.396100
       7932.50        77.0230         1.0954         2.2154       0.387200
       7933.00        74.1356         1.0732         2.2259       0.391000
