~Version Information Block
VERS .                  2.0:  CWLS LOG ASCII STANDARD - VERSION 2.0
WRAP .                   NO:  One line per depth step
~Well Information Block
#MNEM.UNIT        Data Type   Information
#---------- ----------------  -----------
STRT .FT            4880.50:  START DEPTH
STOP .FT           10428.00:  STOP DEPTH
STEP .FT               0.50:  STEP
NULL .              -999.25:  NULL VALUE
COMP .                     :  COMPANY
WELL .                STA-3:  WELL
FLD  .                     :  FIELD
LOC  .                     :  LOCATION
CTRY .                     :  COUNTRY
STAT .                     :  STATE
CNTY .                     :  COUNTY
SRVC .                     :  SERVICE COMPANY
DATE .                     :  DATE
API  .                     :  API NUMBER
UWI  .                     :  UNIQUE WELL ID
~Curve Information Block
#MNEM.UNIT         API CODE   Curve Description
#---------- ----------------  -----------------
DEPTH.FT                   :  DEPTH
GR   .GAPI                 :  Gamma Ray
RT   .OHMM                 :  Deep resistivity
RHOB .G/C3                 :  Bulk Density
NPHI .V/V                  :  Neutron porosity
DT   .US/F                 :  Sonic
~Parameter Information Block
#MNEM.UNIT            Value   Description
#---------- ----------------  -----------
PROJECT.            SANTAN_FE:  
~Other Information Block
# 
~A       DEPTH             GR             RT           RHOB           NPHI             DT 
# ...
       5726.00       109.1243         1.2468         2.3070       0.368400       116.5000
       5726.50       111.1299         1.1934         2.3121       0.369600       115.4000
       5727.00       109.0797         1.1771         2.3039       0.358200       115.4000
       5727.50       108.8554         1.1616         2.3059       0.356200       116.0500
       5728.00       109.7625         1.1101         2.3187       0.379200       116.9500
       5728.50       111.7920         1.0846         2.3268       0.397900       117.1000
       5729.00       111.0922         1.1003         2.3224       0.394200       117.4500
       5729.50       108.0675         1.0979         2.2922       0.387700       118.0000
       5730.00       106.1800         1.0846         2.2843       0.394000       118.9000
       5730.50       104.9860         1.0914         2.2752       0.381000       118.8000
       5731.00       100.1911         1.1161         2.2559       0.386800       118.8000
       5731.50        98.8753         1.1683         2.2504       0.388200       119.2000
       5732.00        97.2505         1.1625         2.2570       0.397200       119.6500
       5732.50       101.5308         1.1260         2.2622       0.389800       120.0000
       5733.00       101.0368         1.0977         2.2655       0.379900       121.7000
       5733.50        99.1106         1.0662         2.2611       0.373100       121.5500
       5734.00        98.9149         1.0044         2.2596       0.386300       123.2000
       5734.50        98.0372         0.9809         2.2496       0.383200       123.3500
       5735.00        94.6897         0.9912         2.2476       0.407900       122.4500
       5735.50        87.9017         1.0038         2.2404       0.388800       118.9000
       5736.00        81.2296         1.0350         2.2560       0.366600       106.3000
       5736.50        75.1891         1.3350         2.2816       0.333700        92.4000
       5737.00        70.6664         2.6723         2.2660       0.314700        88.5000
       5737.50        70.4008         2.4691         2.2437       0.335600        91.4500
       5738.00        72.8411         1.6431         2.2011       0.346400        98.4000
       5738.50        76.5282         1.3464         2.1817       0.372100       112.1000
       5739.00        74.3376         1.3285         2.1718       0.352400       113.6000
       5739.50        76.7438         1.3459         2.1768       0.339400       112.5000
       5740.00        80.0879         1.3321         2.1829       0.329000       111.7500
       5740.50        84.1215         1.2337         2.1867       0.343800       110.5500
       5741.00        80.9606         1.1734         2.1919       0.338600       111.1000
       5741.50        78.0554         1.1773         2.1981       0.347700       110.4500
       5742.00        74.1608         1.2134         2.2213       0.343500       110.5000
       5742.50        78.1720         1.1590         2.2161       0.355300       111.5000
       5743.00        81.4878         1.1178         2.2060       0.333000       113.5000
       5743.50        88.4361         1.0817         2.2015       0.335200       115.0000
       5744.00        91.0351         1.0642         2.1969       0.337700       116.8000
       5744.50        89.4898         1.0152         2.1989       0.342000       117.0000
       5745.00        84.4454         0.9829         2.1934       0.355400       116.8000
       5745.50        85.9047         0.9930         2.1973       0.382600       116.4500
       5746.00        84.3885         1.0040         2.1992       0.403900       115.4000
       5746.50        86.7652         0.9982         2.2035       0.404900       115.1000
       5747.00        81.5279         0.9892         2.2078       0.376500       114.9000
       5747.50        85.6379         0.9852         2.2030       0.362900       115.2000
       5748.00        85.1354         0.9687         2.2160       0.358100       116.0000
       5748.50        87.8621         0.9550         2.2047       0.359700       117.1000
       5749.00        86.1375         0.9833         2.2076       0.356200       117.8500
       5749.50        87.1122         1.0242         2.1854       0.362100       118.0000
       5750.00        84.7255         1.0143         2.1877       0.371100       117.8000
       5750.50        77.1637         1.0157         2.1862       0.366800       117.3000
       5751.00        68.4844         1.1191         2.1761       0.373000       115.0500
       5751.50        65.7107         1.2022         2.1751       0.360600       114.5000
       5752.00        66.6211         1.2228         2.1876       0.374900       114.5000
       5752.50        75.2552         1.1957         2.1941       0.370400       114.7000
       5753.00        78.6555         1.2123         2.2000       0.386900       114.8500
       5753.50        82.1779         1.1993         2.2110       0.394200       115.7000
       5754.00        80.5568         1.1687         2.2243       0.386000       116.4000
       5754.50        79.6458         1.1504         2.2255       0.366300       115.7000
       5755.00        77.7847         1.1843         2.2318       0.356400       114.0500
       5755.50        77.0861         1.2872         2.2287       0.364300       112.8500
       5756.00        74.1522         1.4129         2.2202       0.372500       111.3000
       5756.50        75.4010         1.3965         2.2188       0.364600       110.6500
       5757.00        77.1310         1.3614         2.2189       0.357300       111.5000
       5757.50        81.6147         1.3217         2.2311       0.354500       111.5000
       5758.00        82.1717         1.3539         2.2355       0.357800       112.0000
       5758.50        80.5828         1.3332         2.2316       0.344700       112.9500
       5759.00        80.9747         1.3252         2.2147       0.346100       113.1000
       5759.50        81.9159         1.3297         2.2207       0.339700       113.1500
       5760.00        80.3509         1.3268         2.2292       0.346200       112.6500
       5760.50        77.6209         1.3174         2.2286       0.338800       112.3000
       5761.00        73.4712         1.3550         2.2169       0.345900       111.6500
       5761.50        72.0597         1.4622         2.2156       0.349400       112.4000
       5762.00        76.1723         1.4441         2.2193       0.353100       114.0000
       5762.50        75.8469         1.3213         2.2325       0.353500       115.0000
       5763.00        80.7579         1.1973         2.2296       0.367000       115.5000
       5763.50        79.5639         1.1355         2.2338       0.390500       118.4000
       5764.00        84.1204         1.0984         2.2344       0.410500       118.1500
       5764.50        82.2398         1.0180         2.2363       0.403600       117.7000
       5765.00        79.3464         1.1196         2.2331       0.387700       116.7000
       5765.50        77.9298         1.3123         2.2117       0.360200       114.6500
       5766.00        73.6454         1.3936         2.1998       0.355900       112.4500
       5766.50        70.9955         1.4442         2.1958       0.355600       110.8000
       5767.00        67.1621         1.5995         2.2058       0.363300       110.9500
       5767.50        70.6235         1.5101         2.2121       0.365700       111.0000
       5768.00        74.6808         1.3209         2.2194       0.364100       112.6000
       5768.50        83.6545         1.3453         2.2328       0.372400       114.9500
       5769.00        84.4236         1.3349         2.2392       0.366300       114.5500
       5769.50        90.4978         1.3125         2.2447       0.366100       114.0000
       5770.00        88.1265         1.3516         2.2447       0.380900       113.8000
