~Version Information Block
VERS .                  2.0:  CWLS LOG ASCII STANDARD - VERSION 2.0
WRAP .                   NO:  One line per depth step
~Well Information Block
#MNEM.UNIT        Data Type   Information
#---------- ----------------  -----------
STRT .FT            4582.50:  START DEPTH
STOP .FT           10844.50:  STOP DEPTH
STEP .FT               0.50:  STEP
NULL .              -999.25:  NULL VALUE
COMP .                     :  COMPANY
WELL .               STA-34:  WELL
FLD  .                     :  FIELD
LOC  .                     :  LOCATION
CTRY .                     :  COUNTRY
STAT .                     :  STATE
CNTY .                     :  COUNTY
SRVC .                     :  SERVICE COMPANY
DATE .                     :  DATE
API  .                     :  API NUMBER
UWI  .                     :  UNIQUE WELL ID
~Curve Information Block
#MNEM.UNIT         API CODE   Curve Description
#---------- ----------------  -----------------
DEPTH.FT                   :  Depth
GR   .GAPI                 :  Gamma Ray
RT   .OHMM                 :  True Resistivity
RHOB .G/C3                 :  Bulk Density
NPHI .V/V                  :  Neutron Porosity
~Parameter Information Block
#MNEM.UNIT            Value   Description
#---------- ----------------  -----------
PROJECT.            SANTAN_FE:  
~Other Information Block
# 
~A       DEPTH             GR             RT           RHOB           NPHI 
# ...
       5010.50        91.8317         1.1945         2.1992       0.456300
       5011.00       101.9176         1.1099         2.1558       0.463600
       5011.50        97.9084         1.1171         2.1477       0.444500
       5012.00        91.0056         1.1723         2.1801       0.408500
       5012.50        80.7052         1.2660         2.2132       0.378000
       5013.00        74.8477         1.4198         2.2285       0.360600
       5013.50        73.4525         1.4906         2.2350       0.353500
       5014.00        71.6226         1.5712         2.2350       0.346400
       5014.50        72.0443         1.6806         2.2343       0.338100
       5015.00        71.7658         1.7119         2.2396       0.340600
       5015.50        67.4490         1.7726         2.2435       0.354400
       5016.00        63.9279         1.9242         2.2366       0.363800
       5016.50        60.6398         2.3786         2.2164       0.357800
       5017.00        55.4598         3.3275         2.1933       0.332300
       5017.50        43.7180         3.9500         2.2071       0.292700
       5018.00        36.0576         5.3912         2.2827       0.254500
       5018.50        36.5250         5.8051         2.3751       0.226400
       5019.00        36.0517         7.4430         2.4304       0.208800
       5019.50        38.7580         8.8173         2.4464       0.197300
       5020.00        37.5099         9.5904         2.4371       0.184500
       5020.50        39.8498        10.0416         2.4310       0.171000
       5021.00        36.0435         9.6663         2.4449       0.162900
       5021.50        29.1146         9.8693         2.4645       0.161200
       5022.00        23.1241         9.9570         2.4801       0.166300
       5022.50        22.7107         9.6528         2.4773       0.180000
       5023.00        21.8454         8.4426         2.4379       0.189300
       5023.50        23.8475         8.6027         2.3974       0.181000
       5024.00        22.6055         8.6125         2.4136       0.161900
       5024.50        23.6867         8.0154         2.4810       0.151100
       5025.00        31.1191         6.9524         2.5411       0.160200
       5025.50        39.8816         6.2164         2.5486       0.183800
       5026.00        42.6647         6.2962         2.5085       0.189500
       5026.50        37.6357         6.9711         2.4693       0.179600
       5027.00        27.8171         7.5049         2.4801       0.176100
       5027.50        22.9854         7.4061         2.5197       0.181200
       5028.00        25.8367         7.1547         2.5305       0.191300
       5028.50        32.5541         6.3997         2.5155       0.195500
       5029.00        36.9860         5.9968         2.5034       0.194300
       5029.50        34.5006         6.3473         2.4886       0.182700
       5030.00        31.5716         6.6572         2.4888       0.161300
       5030.50        30.0901         5.8382         2.5234       0.139500
       5031.00        35.2244         7.0820         2.5554       0.135100
       5031.50        35.9094         6.7631         2.5622       0.149300
       5032.00        35.1281         6.2235         2.5546       0.163000
       5032.50        38.1062         6.1067         2.5455       0.172200
       5033.00        40.2804         5.7666         2.5339       0.180700
       5033.50        35.5132         6.5580         2.5174       0.173600
       5034.00        26.6026         7.7767         2.5238       0.146300
       5034.50        20.9692         8.3098         2.5710       0.117200
       5035.00        23.1174         8.6315         2.6174       0.107900
       5035.50        31.1755         6.6224         2.6157       0.128900
       5036.00        39.8079         5.0561         2.5919       0.185900
       5036.50        46.6822         4.1863         2.5367       0.246200
       5037.00        48.8788         3.5623         2.4488       0.272700
       5037.50        47.3487         3.7749         2.4276       0.281500
       5038.00        45.0989         3.8991         2.4382       0.271600
       5038.50        47.0715         3.6886         2.4587       0.247600
       5039.00        48.5752         3.5800         2.4821       0.229000
       5039.50        50.8487         3.6603         2.4998       0.224500
       5040.00        47.6974         3.2653         2.5005       0.227900
       5040.50        45.0580         2.7496         2.4846       0.241000
       5041.00        48.4078         2.8366         2.4676       0.276600
       5041.50        50.5159         2.8746         2.4512       0.308400
       5042.00        51.1367         3.5801         2.4290       0.288100
       5042.50        42.4717         4.1071         2.4186       0.240100
       5043.00        33.0179         4.4774         2.4417       0.181800
       5043.50        26.1159         5.8827         2.4837       0.156100
       5044.00        21.2428         6.5757         2.5136       0.168700
       5044.50        27.3010         5.9681         2.5247       0.190600
       5045.00        30.8334         5.5249         2.5149       0.193300
       5045.50        29.6192         5.8798         2.5042       0.188100
       5046.00        27.3489         6.1417         2.5088       0.198800
       5046.50        28.7824         6.1234         2.5045       0.213000
       5047.00        25.9194         6.1176         2.4657       0.208900
       5047.50        22.4349         6.0624         2.4352       0.196800
       5048.00        20.1332         5.9409         2.4496       0.196000
       5048.50        18.5586         5.8712         2.4756       0.199900
       5049.00        19.6268         5.8322         2.4805       0.198100
       5049.50        23.2735         5.7769         2.4692       0.202900
       5050.00        31.1049         5.1204         2.4626       0.212900
       5050.50        33.5222         4.3160         2.4568       0.209000
       5051.00        30.5653         4.5629         2.4581       0.183600
       5051.50        27.5975         5.4458         2.4808       0.154300
       5052.00        25.4242         6.0264         2.5404       0.134000
       5052.50        25.7631         6.5981         2.5767       0.132100
       5053.00        28.2002         6.8284         2.5672       0.137100
       5053.50        27.7630         7.2120         2.5359       0.132500
       5054.00        22.0888         9.1094         2.5298       0.126400
       5054.50        20.9303        10.7480         2.5539       0.123800
       5055.00        25.7040        10.8693         2.5628       0.121600
       5055.50        32.2426        10.5531         2.5435       0.116200
       5056.00        35.4604        10.5731         2.5244       0.113800
       5056.50        33.9440        10.4590         2.5362       0.121300
       5057.00        35.1948        10.1694         2.5517       0.139200
       5057.50        30.1810         9.7688         2.5261       0.159700
       5058.00        24.6199         8.7859         2.4701       0.181800
       5058.50        21.6185         8.0501         2.4301       0.205400
       5059.00        21.5583         7.3543         2.4024       0.225600
       5059.50        22.7834         6.7533         2.3855       0.239700
       5060.00        23.2382         6.3065         2.3830       0.246900
       5060.50        24.2549         6.0247         2.3868       0.240300
       5061.00        24.7401         5.9428         2.3940       0.219300
       5061.50        22.4499         6.5547         2.4141       0.193900
       5062.00        19.9936         7.3218         2.4367       0.175600
       5062.50        21.1487         7.3194         2.4422       0.177600
       5063.00        23.8183         6.9321         2.4394       0.194000
       5063.50        24.9279         6.8743         2.4374       0.202300
