~Version Information Block
VERS .                  2.0:  CWLS LOG ASCII STANDARD - VERSION 2.0
WRAP .                   NO:  One line per depth step
~Well Information Block
#MNEM.UNIT        Data Type   Information
#---------- ----------------  -----------
STRT .FT            6091.50:  START DEPTH
STOP .FT           14295.50:  STOP DEPTH
STEP .FT               0.50:  STEP
NULL .              -999.25:  NULL VALUE
COMP .                     :  COMPANY
WELL .               STA-35:  WELL
FLD  .                     :  FIELD
LOC  .                     :  LOCATION
CTRY .                     :  COUNTRY
STAT .                     :  STATE
CNTY .                     :  COUNTY
SRVC .                     :  SERVICE COMPANY
DATE .                     :  DATE
API  .                     :  API NUMBER
UWI  .                     :  UNIQUE WELL ID
~Curve Information Block
#MNEM.UNIT         API CODE   Curve Description
#---------- ----------------  -----------------
DEPTH.FT                   :  Depth
GR   .GAPI                 :  Gamma Ray
RT   .OHMM                 :  True Resistivity
RHOB .G/C3                 :  Bulk Density
NPHI .V/V                  :  Neutron Porosity
~Parameter Information Block
#MNEM.UNIT            Value   Description
#---------- ----------------  -----------
PROJECT.            SANTAN_FE:  
~Other Information Block
# 
~A       DEPTH             GR             RT           RHOB           NPHI 
# ...
      13153.50        89.7454         3.8842         2.5924       0.163700
      13154.00        88.7740         4.0150         2.5953       0.158800
      13154.50        84.9568         4.0666         2.6059       0.157700
      13155.00        84.6354         4.1020         2.6120       0.162700
      13155.50        87.8384         4.1119         2.6171       0.168900
      13156.00        85.0246         3.9866         2.6163       0.170400
      13156.50        85.6882         3.9340         2.6068       0.171800
      13157.00        85.1312         3.9097         2.6016       0.174400
      13157.50        90.7196         3.8976         2.6093       0.173000
      13158.00        88.9419         3.9480         2.6187       0.169500
      13158.50        90.9047         3.9861         2.6192       0.169800
      13159.00        90.8074         3.9747         2.6193       0.169800
      13159.50        89.4801         4.0255         2.6230       0.165000
      13160.00        85.9735         4.1123         2.6174       0.158300
      13160.50        84.9238         4.2317         2.6065       0.152300
      13161.00        86.3745         4.3118         2.6015       0.149600
      13161.50        84.8233         4.3882         2.6052       0.152200
      13162.00        85.9316         4.4134         2.6150       0.158900
      13162.50        89.9954         4.2953         2.6269       0.163800
      13163.00        87.1313         4.1898         2.6375       0.162600
      13163.50        87.2946         4.0763         2.6427       0.162400
      13164.00        90.3950         3.8191         2.6363       0.170100
      13164.50        91.3254         3.7554         2.6277       0.180800
      13165.00        90.5392         3.7534         2.6206       0.183500
      13165.50        94.3991         3.6157         2.6174       0.181100
      13166.00        95.7704         3.5101         2.6224       0.181700
      13166.50        95.6280         3.4860         2.6299       0.182300
      13167.00        92.3407         3.5274         2.6382       0.182100
      13167.50        90.2911         3.5644         2.6416       0.182200
      13168.00        91.7875         3.6001         2.6349       0.179400
      13168.50        86.1889         3.6584         2.6287       0.173200
      13169.00        84.9309         3.7542         2.6268       0.165300
      13169.50        83.8357         3.8425         2.6267       0.159500
      13170.00        87.9969         3.9380         2.6354       0.160300
      13170.50        88.0092         3.8397         2.6406       0.162700
      13171.00        86.7609         3.8786         2.6293       0.162400
      13171.50        89.1088         3.9172         2.6215       0.161500
      13172.00        87.6683         4.0120         2.6309       0.163000
      13172.50        88.2376         3.9757         2.6359       0.165700
      13173.00        88.3775         3.9217         2.6251       0.165100
      13173.50        85.0916         3.9987         2.6163       0.163300
      13174.00        83.6186         3.9284         2.6171       0.164600
      13174.50        84.9474         3.9973         2.6203       0.167700
      13175.00        86.2827         4.0130         2.6147       0.169600
      13175.50        83.2673         4.0601         2.6097       0.167900
      13176.00        81.8388         4.1140         2.6160       0.162000
      13176.50        82.6925         4.2050         2.6212       0.157500
      13177.00        80.3394         4.3139         2.6195       0.161000
      13177.50        87.7767         4.1701         2.6206       0.165200
      13178.00        87.5704         4.1253         2.6245       0.163200
      13178.50        84.8876         4.2001         2.6216       0.163600
      13179.00        85.2278         4.1581         2.6177       0.166500
      13179.50        86.0031         4.1232         2.6246       0.161400
      13180.00        80.5515         4.2262         2.6314       0.154600
      13180.50        81.3205         4.2890         2.6250       0.157100
      13181.00        86.4323         4.2292         2.6195       0.160800
      13181.50        89.7358         4.1154         2.6201       0.157300
      13182.00        87.5416         4.1282         2.6188       0.154000
      13182.50        89.0401         4.0516         2.6274       0.157100
      13183.00        88.0993         4.0154         2.6405       0.159600
      13183.50        86.4950         4.0576         2.6357       0.158400
      13184.00        81.3721         4.1943         2.6216       0.156900
      13184.50        83.0439         4.1797         2.6143       0.159500
      13185.00        87.7164         4.0610         2.6062       0.167800
      13185.50        85.9502         4.1163         2.5972       0.171800
      13186.00        79.0176         4.2384         2.5994       0.168700
      13186.50        81.1847         4.2338         2.6130       0.164400
      13187.00        84.9942         4.3039         2.6274       0.160700
      13187.50        84.0244         4.5085         2.6309       0.153200
      13188.00        78.6236         4.6624         2.6278       0.144900
      13188.50        75.4753         4.6639         2.6275       0.142300
      13189.00        78.4595         4.5776         2.6219       0.146000
      13189.50        81.8030         4.4861         2.6133       0.148800
      13190.00        77.1378         4.4985         2.6153       0.148800
      13190.50        78.8985         4.3776         2.6215       0.151500
      13191.00        81.3232         4.2408         2.6240       0.158000
      13191.50        86.4660         4.0526         2.6209       0.165300
      13192.00        89.4836         3.8478         2.6180       0.170700
      13192.50        87.9254         3.8276         2.6192       0.170600
      13193.00        89.6585         3.8197         2.6173       0.167300
      13193.50        87.0869         3.8030         2.6173       0.163200
      13194.00        88.4784         3.8302         2.6234       0.160500
      13194.50        92.0219         3.8976         2.6223       0.160900
      13195.00        88.3250         3.9920         2.6136       0.162300
      13195.50        86.4206         4.0479         2.6089       0.163800
      13196.00        90.9292         4.0256         2.6074       0.165800
      13196.50        92.2651         4.0480         2.6037       0.165400
      13197.00        91.0963         4.0903         2.6011       0.162100
      13197.50        86.2241         4.2512         2.6014       0.156500
      13198.00        82.1753         4.4066         2.6021       0.149300
      13198.50        78.1462         4.5674         2.6015       0.141700
      13199.00        76.4429         4.6975         2.6046       0.136100
      13199.50        72.4573         4.7232         2.6139       0.136500
      13200.00        75.5370         4.5902         2.6207       0.144500
      13200.50        81.8852         4.3322         2.6196       0.156700
      13201.00        87.7868         4.0905         2.6171       0.167700
      13201.50        88.6966         3.9960         2.6148       0.172800
      13202.00        91.9233         3.9831         2.6054       0.174800
      13202.50        91.3381         3.9894         2.5943       0.177700
      13203.00        93.1535         3.9668         2.5919       0.179400
      13203.50        91.1871         3.9590         2.6027       0.178500
      13204.00        90.5453         3.9102         2.6183       0.176500
      13204.50        91.1319         3.9212         2.6249       0.171600
      13205.00        90.5797         3.9534         2.6218       0.167300
      13205.50        88.4578         4.0153         2.6173       0.165800
      13206.00        88.0588         4.1136         2.6122       0.165500
      13206.50        83.0842         4.1196         2.6076       0.164100
