~Version Information Block
VERS .                  2.0:  CWLS LOG ASCII STANDARD - VERSION 2.0
WRAP .                   NO:  One line per depth step
~Well Information Block
#MNEM.UNIT        Data Type   Information
#---------- ----------------  -----------
STRT .FT            5224.50:  START DEPTH
STOP .FT           13237.50:  STOP DEPTH
STEP .FT               0.50:  STEP
NULL .              -999.25:  NULL VALUE
COMP .                     :  COMPANY
WELL .               STA-32:  WELL
FLD  .                     :  FIELD
LOC  .                     :  LOCATION
CTRY .                     :  COUNTRY
STAT .                     :  STATE
CNTY .                     :  COUNTY
SRVC .                     :  SERVICE COMPANY
DATE .                     :  DATE
API  .                     :  API NUMBER
UWI  .                     :  UNIQUE WELL ID
~Curve Information Block
#MNEM.UNIT         API CODE   Curve Description
#---------- ----------------  -----------------
DEPTH.FT                   :  Depth
GR   .GAPI                 :  Gamma Ray
RT   .OHMM                 :  True Resistivity
RHOB .G/C3                 :  Bulk Density
NPHI .V/V                  :  Neutron Porosity
~Parameter Information Block
#MNEM.UNIT            Value   Description
#---------- ----------------  -----------
PROJECT.            SANTAN_FE:  
~Other Information Block
# 
~A       DEPTH             GR             RT           RHOB           NPHI 
# ...
      10521.00        38.9431         4.9126         2.5935       0.076700
      10521.50        33.8300         4.8936         2.6027       0.073400
      10522.00        28.8339         4.7175         2.5847       0.076200
      10522.50        32.0179         4.6062         2.5773       0.088900
      10523.00        36.6030         4.0110         2.5739       0.112900
      10523.50        44.8057         3.3624         2.5464       0.136800
      10524.00        52.7565         3.1508         2.5128       0.147400
      10524.50        55.8219         3.1059         2.5006       0.149700
      10525.00        61.0834         3.0572         2.5060       0.154500
      10525.50        65.7606         2.9913         2.5120       0.160600
      10526.00        70.5012         2.9157         2.5132       0.167000
      10526.50        71.8269         2.8091         2.5222       0.172600
      10527.00        75.1235         2.7521         2.5502       0.172700
      10527.50        76.2898         2.7433         2.5726       0.170000
      10528.00        75.5938         2.7412         2.5661       0.171700
      10528.50        74.4093         2.6912         2.5445       0.178600
      10529.00        75.5929         2.6285         2.5285       0.187900
      10529.50        77.4592         2.5953         2.5296       0.195000
      10530.00        84.8527         2.5625         2.5445       0.195000
      10530.50        81.1649         2.5870         2.5589       0.191400
      10531.00        83.2575         2.5203         2.5647       0.194000
      10531.50        82.5012         2.4112         2.5581       0.203600
      10532.00        84.1158         2.4491         2.5464       0.211300
      10532.50        86.5258         2.4633         2.5435       0.213600
      10533.00        84.6675         2.4219         2.5443       0.212300
      10533.50        83.4365         2.5049         2.5399       0.208300
      10534.00        85.4355         2.5290         2.5396       0.205300
      10534.50        85.8349         2.4224         2.5468       0.209500
      10535.00        87.6081         2.3793         2.5521       0.215300
      10535.50        87.3053         2.3920         2.5554       0.209900
      10536.00        84.1504         2.4700         2.5575       0.200900
      10536.50        84.7270         2.4472         2.5488       0.201000
      10537.00        86.3926         2.4719         2.5361       0.203700
      10537.50        87.1220         2.4748         2.5254       0.200600
      10538.00        85.8908         2.4984         2.5164       0.194500
      10538.50        82.2454         2.6445         2.5206       0.189700
      10539.00        87.6249         2.6911         2.5335       0.188400
      10539.50        87.6123         2.7068         2.5354       0.189400
      10540.00        86.2961         2.7493         2.5264       0.190000
      10540.50        84.0608         2.7847         2.5198       0.187200
      10541.00        83.6558         2.8245         2.5248       0.182700
      10541.50        79.4167         2.8730         2.5424       0.178300
      10542.00        78.9204         2.9161         2.5561       0.173400
      10542.50        73.0521         2.9719         2.5548       0.169100
      10543.00        75.2021         3.0191         2.5525       0.165700
      10543.50        75.9060         3.0558         2.5672       0.164100
      10544.00        73.7665         3.0892         2.5756       0.164700
      10544.50        78.0014         3.1152         2.5580       0.166200
      10545.00        78.4000         3.1284         2.5356       0.167700
      10545.50        78.5275         3.0999         2.5311       0.168800
      10546.00        78.7623         3.0579         2.5406       0.168700
      10546.50        77.8123         3.0378         2.5455       0.167500
      10547.00        77.1165         3.0455         2.5467       0.169200
      10547.50        75.0764         3.0370         2.5458       0.176200
      10548.00        78.5280         2.9943         2.5511       0.185800
      10548.50        86.2002         2.8531         2.5638       0.194700
      10549.00        87.4892         2.6873         2.5779       0.201700
      10549.50        90.1283         2.5726         2.5861       0.205600
      10550.00        89.3687         2.4636         2.5869       0.206000
      10550.50        89.7314         2.4055         2.5845       0.207300
      10551.00        86.4815         2.3514         2.5833       0.212300
      10551.50        89.7466         2.2886         2.5832       0.216700
      10552.00        91.5926         2.2138         2.5811       0.216200
      10552.50        90.2387         2.1931         2.5791       0.215400
      10553.00        89.5356         2.1889         2.5815       0.221700
      10553.50        88.8610         2.1534         2.5829       0.224700
      10554.00        89.6419         2.1565         2.5769       0.216200
      10554.50        93.7935         2.2322         2.5669       0.206600
      10555.00        91.2380         2.3300         2.5605       0.205000
      10555.50        90.9031         2.4143         2.5633       0.210400
      10556.00        92.3631         2.3073         2.5645       0.217700
      10556.50        92.9309         2.3106         2.5556       0.221300
      10557.00        91.9839         2.3284         2.5468       0.223200
      10557.50        92.9988         2.3473         2.5456       0.228400
      10558.00        96.4868         2.3227         2.5491       0.233100
      10558.50        94.9746         2.2776         2.5520       0.235300
      10559.00        94.8595         2.2595         2.5561       0.235100
      10559.50        94.7090         2.2243         2.5656       0.228900
      10560.00        91.3827         2.2292         2.5702       0.222000
      10560.50        91.0789         2.2088         2.5654       0.224600
      10561.00        96.0480         2.1876         2.5576       0.234000
      10561.50        95.1572         2.1768         2.5469       0.237600
      10562.00        97.8607         2.2048         2.5416       0.237400
      10562.50        94.1674         2.2339         2.5590       0.239700
      10563.00        96.6011         2.2328         2.5737       0.240300
      10563.50        97.8095         2.2714         2.5631       0.234600
      10564.00        95.2602         2.2774         2.5497       0.228200
      10564.50        94.0074         2.3640         2.5477       0.226600
      10565.00        93.7955         2.3883         2.5484       0.224600
      10565.50        95.9227         2.3659         2.5421       0.218800
      10566.00        91.2064         2.4129         2.5390       0.217700
      10566.50        92.3809         2.4513         2.5474       0.223800
      10567.00        91.0368         2.4619         2.5533       0.227400
      10567.50        93.3409         2.4496         2.5534       0.225900
      10568.00        88.3590         2.4534         2.5543       0.222200
      10568.50        91.9789         2.4667         2.5557       0.215200
      10569.00        91.6384         2.4720         2.5530       0.206100
      10569.50        93.3472         2.5247         2.5458       0.198900
      10570.00        93.1247         2.5805         2.5462       0.195700
      10570.50        89.6513         2.6036         2.5588       0.195400
      10571.00        85.6724         2.5755         2.5669       0.197600
      10571.50        85.3058         2.5379         2.5624       0.202900
      10572.00        82.2501         2.4917         2.5567       0.208300
      10572.50        84.5667         2.4403         2.5578       0.213200
      10573.00        90.0894         2.3920         2.5618       0.222000
      10573.50        95.5485         2.3152         2.5602       0.232900
      10574.00        95.1047         2.2887         2.5565       0.238400
