~Version Information Block
VERS .                  2.0:  CWLS LOG ASCII STANDARD - VERSION 2.0
WRAP .                   NO:  One line per depth step
~Well Information Block
#MNEM.UNIT        Data Type   Information
#---------- ----------------  -----------
STRT .FT            3742.00:  START DEPTH
STOP .FT            8440.00:  STOP DEPTH
STEP .FT               0.50:  STEP
NULL .              -999.25:  NULL VALUE
COMP .                     :  COMPANY
WELL .                STA-2:  WELL
FLD  .                     :  FIELD
LOC  .                     :  LOCATION
CTRY .                     :  COUNTRY
STAT .                     :  STATE
CNTY .                     :  COUNTY
SRVC .                     :  SERVICE COMPANY
DATE .                     :  DATE
API  .                     :  API NUMBER
UWI  .                     :  UNIQUE WELL ID
~Curve Information Block
#MNEM.UNIT         API CODE   Curve Description
#---------- ----------------  -----------------
DEPTH.FT                   :  DEPTH
GR   .GAPI                 :  Gamma Ray
RT   .OHMM                 :  Deep resistivity
RHOB .G/C3                 :  Bulk Density
NPHI .V/V                  :  Neutron porosity
DT   .US/F                 :  Sonic
~Parameter Information Block
#MNEM.UNIT            Value   Description
#---------- ----------------  -----------
PROJECT.            SANTAN_FE:  
~Other Information Block
# 
~A       DEPTH             GR             RT           RHOB           NPHI             DT 
# ...
       5744.50        57.6400         0.8400         2.1200       0.320000       113.1000
       5745.00        58.8000         1.0200         2.1000       0.340000       112.9500
       5745.50        61.2800         0.9800         2.0900       0.350000       110.1000
       5746.00        66.9700         0.8800         2.1100       0.370000       110.2000
       5746.50        72.2700         1.0100         2.1500       0.360000       110.0500
       5747.00        72.9400         0.7800         2.1900       0.350000       110.9000
       5747.50        73.8200         0.7500         2.2000       0.360000       113.6000
       5748.00        71.4600         0.7800         2.2000       0.350000       116.9500
       5748.50        74.9400         0.7600         2.2000       0.380000       120.4500
       5749.00        71.9900         0.7600         2.2000       0.370000       124.8000
       5749.50        72.9900         0.6900         2.2000       0.370000       126.7000
       5750.00        74.0800         0.6400         2.1900       0.370000       126.9500
       5750.50        76.9700         0.6400         2.1900       0.360000       127.6000
       5751.00        80.2600         0.6200         2.1900       0.380000       128.0000
       5751.50        83.5000         0.5700         2.2000       0.390000       128.3500
       5752.00        83.7700         0.6000         2.2000       0.390000       127.0000
       5752.50        82.3300         0.7000         2.2200       0.370000       123.5000
       5753.00        77.2400         0.9100         2.2400       0.360000       118.5500
       5753.50        75.1300         1.0000         2.2500       0.330000       113.8500
       5754.00        71.3200         1.2400         2.2600       0.340000       110.2000
       5754.50        69.9600         1.4000         2.2500       0.340000       108.9500
       5755.00        63.6500         1.2600         2.2400       0.350000       109.7000
       5755.50        66.7600         1.1400         2.2400       0.340000       109.3000
       5756.00        68.3100         1.1400         2.2500       0.330000       109.0000
       5756.50        71.7700         1.3400         2.2400       0.360000       109.1500
       5757.00        68.1300         1.3400         2.2400       0.370000       109.3500
       5757.50        72.0500         1.2600         2.2500       0.360000       109.6000
       5758.00        80.1600         1.1600         2.2600       0.340000       111.7000
       5758.50        85.0800         1.0600         2.2700       0.350000       113.4500
       5759.00        85.5400         1.0400         2.2800       0.380000       115.4000
       5759.50        83.7300         1.0500         2.3000       0.380000       117.1000
       5760.00        86.4000         1.0600         2.3000       0.390000       117.7500
       5760.50        88.0600         1.0900         2.3100       0.360000       117.7000
       5761.00        91.5700         1.0500         2.3200       0.350000       117.9500
       5761.50        90.0700         1.0600         2.3300       0.350000       119.4000
       5762.00        87.6700         1.0800         2.3400       0.360000       118.8000
       5762.50        89.3700         1.0500         2.3500       0.370000       118.5000
       5763.00        93.9100         1.0700         2.3700       0.370000       118.7500
       5763.50        95.3500         1.0500         2.3700       0.380000       117.8000
       5764.00        93.0200         1.0300         2.3600       0.410000       117.8000
       5764.50        93.5900         1.0100         2.3400       0.430000       117.5000
       5765.00       100.1000         1.0900         2.3400       0.430000       117.3500
       5765.50       104.6600         1.0700         2.3600       0.410000       117.6000
       5766.00       107.2900         1.0700         2.3600       0.390000       117.6000
       5766.50       107.2300         1.0800         2.3500       0.380000       117.7000
       5767.00       104.7000         1.0700         2.3600       0.380000       117.4500
       5767.50       102.7900         1.0600         2.3800       0.380000       118.3000
       5768.00       101.4100         1.1000         2.3800       0.370000       119.3000
       5768.50       100.9100         1.0700         2.3700       0.390000       120.2000
       5769.00       100.4600         1.1200         2.3800       0.380000       120.7000
       5769.50       103.7000         1.0900         2.3700       0.400000       120.5000
       5770.00       110.6400         1.0500         2.3800       0.370000       120.9000
       5770.50       113.5400         1.0500         2.3700       0.380000       121.3000
       5771.00       115.0100         1.0300         2.3900       0.380000       121.4000
       5771.50       112.3500         1.0100         2.4100       0.410000       121.6500
       5772.00       109.6800         1.0300         2.4200       0.390000       121.6000
       5772.50       107.5800         1.0300         2.4100       0.390000       121.5000
       5773.00       108.5200         1.0100         2.4000       0.380000       122.1000
       5773.50       109.5500         1.0200         2.4000       0.400000       123.5000
       5774.00       106.6300         1.0400         2.3900       0.430000       123.2000
       5774.50        99.9500         0.8200         2.3900       0.430000       125.4000
       5775.00        91.4100         0.8300         2.4100       0.400000       125.8500
       5775.50        81.4100         0.8500         2.4200       0.350000       120.9000
       5776.00        74.5700         1.0200         2.4100       0.320000       111.7500
       5776.50        73.1600         2.0900         2.3700       0.320000       107.1000
       5777.00        77.3200         1.7500         2.3400       0.320000       103.9000
       5777.50        84.4600         1.7700         2.3000       0.340000       109.1000
       5778.00        89.8000         1.2900         2.2700       0.360000       113.0000
       5778.50        91.9100         1.1900         2.2400       0.370000       116.0000
       5779.00        95.3500         1.1700         2.2500       0.370000       114.9000
       5779.50        93.1600         1.0600         2.3100       0.350000       114.1000
       5780.00        89.2500         0.9600         2.3300       0.330000       113.1000
       5780.50        81.4900         1.0200         2.3300       0.310000       111.1500
       5781.00        82.1500         1.1100         2.3500       0.290000       109.7000
       5781.50        84.3500         1.1200         2.3300       0.300000       109.7000
       5782.00        83.1200         1.2300         2.3000       0.320000       110.7000
       5782.50        84.2500         1.1700         2.2600       0.330000       111.7000
       5783.00        82.8100         1.1600         2.2500       0.330000       115.5000
       5783.50        86.8800         1.2500         2.2400       0.330000       116.2000
       5784.00        83.3900         1.3300         2.2200       0.350000       117.5000
       5784.50        85.1300         0.8700         2.1900       0.360000       118.9000
       5785.00        83.1700         0.9700         2.1800       0.370000       119.2000
       5785.50        84.2300         1.0800         2.1600       0.360000       118.2500
       5786.00        82.8700         1.0300         2.1500       0.340000       117.9000
       5786.50        76.8700         1.0600         2.1200       0.340000       116.0000
       5787.00        70.7100         1.4800         2.1000       0.330000       115.3000
       5787.50        63.4800         1.2900         2.0900       0.320000       114.1000
       5788.00        65.5500         1.2200         2.1100       0.310000       112.4000
       5788.50        61.3000         1.5900         2.1300       0.300000       111.6000
