~Version Information Block
VERS .                  2.0:  CWLS LOG ASCII STANDARD - VERSION 2.0
WRAP .                   NO:  One line per depth step
~Well Information Block
#MNEM.UNIT        Data Type   Information
#---------- ----------------  -----------
STRT .FT            3811.50:  START DEPTH
STOP .FT            9515.50:  STOP DEPTH
STEP .FT               0.50:  STEP
NULL .              -999.25:  NULL VALUE
COMP .                     :  COMPANY
WELL .                STA-6:  WELL
FLD  .                     :  FIELD
LOC  .                     :  LOCATION
CTRY .                     :  COUNTRY
STAT .                     :  STATE
CNTY .                     :  COUNTY
SRVC .                     :  SERVICE COMPANY
DATE .                     :  DATE
API  .                     :  API NUMBER
UWI  .                     :  UNIQUE WELL ID
~Curve Information Block
#MNEM.UNIT         API CODE   Curve Description
#---------- ----------------  -----------------
DEPTH.FT                   :  DEPTH
GR   .GAPI                 :  Gamma Ray
RT   .OHMM                 :  Deep resistivity
RHOB .G/C3                 :  Bulk Density
NPHI .V/V                  :  Neutron porosity
DT   .US/F                 :  Sonic
~Parameter Information Block
#MNEM.UNIT            Value   Description
#---------- ----------------  -----------
PROJECT.            SANTAN_FE:  
~Other Information Block
# 
~A       DEPTH             GR             RT           RHOB           NPHI             DT 
# ...
       5146.50        94.8000         1.6800         2.2600       0.370000       127.9000
       5147.00        93.9200         1.6300         2.2700       0.380000       126.1500
       5147.50        96.6000         1.6100         2.2600       0.390000       125.4000
       5148.00       100.6800         1.6600         2.2700       0.410000       124.8000
       5148.50       107.6000         1.5400         2.2700       0.420000       124.0000
       5149.00       107.9300         1.5700         2.2800       0.420000       123.5000
       5149.50       107.5200         1.5800         2.3000       0.420000       124.2500
       5150.00       105.7700         1.5600         2.3100       0.420000       122.4000
       5150.50       100.6600         1.5900         2.3100       0.410000       120.4000
       5151.00        92.1700         1.6300         2.2900       0.400000       120.3500
       5151.50        85.6900         1.7500         2.2300       0.370000       122.6000
       5152.00        78.5700         1.8800         2.1800       0.360000       125.5500
       5152.50        75.1500         1.8700         2.1600       0.350000       127.9000
       5153.00        73.9600         1.8500         2.1500       0.350000       128.2000
       5153.50        80.0700         1.9700         2.1500       0.360000       126.2500
       5154.00        84.1400         2.1500         2.1200       0.370000       125.9000
       5154.50        86.1600         2.2000         2.0300       0.360000       124.8000
       5155.00        86.1100         2.4300         1.9300       0.400000       125.1500
       5155.50        87.4100         2.8700         1.8700       0.440000       126.8500
       5156.00        87.3800         3.4900         1.9100       0.460000       124.1500
       5156.50        90.5600         3.8500         1.9800       0.450000       125.6000
       5157.00        95.6100         2.9400         2.0800       0.440000       124.7000
       5157.50       101.5100         2.6800         2.1300       0.420000       122.5000
       5158.00        99.1400         2.4700         2.1600       0.400000       124.3500
       5158.50        89.6300         1.9900         2.1800       0.360000       125.6000
       5159.00        85.2500         1.9900         2.1900       0.360000       125.1000
       5159.50        84.6800         1.8600         2.2200       0.340000       124.4500
       5160.00        83.3400         1.8600         2.2600       0.350000       122.4500
       5160.50        79.9600         1.8900         2.2700       0.340000       119.0000
       5161.00        77.2300         1.9200         2.2600       0.360000       118.9000
       5161.50        73.5100         1.9600         2.2400       0.350000       121.3000
       5162.00        73.9600         1.9800         2.2200       0.330000       121.1000
       5162.50        79.9300         1.9600         2.2300       0.340000       120.9000
       5163.00        87.9800         1.9900         2.2400       0.330000       121.7000
       5163.50        90.9500         2.0100         2.2500       0.340000       118.0000
       5164.00        87.6200         2.0000         2.2400       0.330000       117.1000
       5164.50        91.4000         2.0100         2.2600       0.330000       117.1000
       5165.00        87.5400         2.0000         2.2700       0.340000       116.6500
       5165.50        89.0100         2.0200         2.2800       0.330000       117.7000
       5166.00        83.4700         2.0000         2.3000       0.330000       117.5000
       5166.50        89.0900         1.9900         2.3000       0.340000       118.7000
       5167.00        87.9700         1.9800         2.3100       0.350000       117.0000
       5167.50        93.8600         1.9600         2.3100       0.360000       116.0000
       5168.00        92.0000         1.9900         2.3200       0.350000       116.3000
       5168.50        92.3600         1.8900         2.3000       0.370000       116.5500
       5169.00        89.4200         1.8700         2.2900       0.390000       117.3000
       5169.50        90.2700         1.7600         2.2800       0.380000       122.0000
       5170.00        93.6200         1.7200         2.2900       0.360000       123.0000
       5170.50        94.7800         1.7400         2.2900       0.370000       124.1000
       5171.00        99.5000         1.7500         2.2900       0.410000       125.1500
       5171.50        96.9300         1.7300         2.3000       0.430000       123.8500
       5172.00        97.2600         1.7000         2.3100       0.420000       123.2000
       5172.50        95.8100         1.6300         2.3000       0.400000       121.8000
       5173.00       102.6900         1.6200         2.3000       0.390000       122.7000
       5173.50       107.5900         1.5800         2.3100       0.420000       122.5500
       5174.00       109.3400         1.5700         2.3000       0.420000       122.4000
       5174.50       110.3400         1.5400         2.3000       0.430000       124.0000
       5175.00       112.0100         1.5000         2.2900       0.410000       123.6500
       5175.50       111.7400         1.4800         2.2900       0.420000       123.6500
       5176.00       110.7400         1.4800         2.3000       0.440000       123.6000
       5176.50       110.3400         1.4600         2.3000       0.420000       123.6000
       5177.00       111.4900         1.4300         2.3000       0.410000       124.0500
       5177.50       113.4600         1.4300         2.3000       0.390000       124.0500
       5178.00       112.6900         1.4000         2.3000       0.420000       124.7000
       5178.50       115.4700         1.4000         2.3000       0.410000       125.0500
       5179.00       121.9100         1.4200         2.3000       0.440000       124.9000
       5179.50       125.3900         1.4100         2.3000       0.430000       125.0000
       5180.00       119.7900         1.4100         2.3100       0.440000       124.9000
       5180.50       107.1400         1.4100         2.3100       0.440000       125.1500
       5181.00       104.7700         1.4300         2.3200       0.430000       124.3000
       5181.50       103.2000         1.4800         2.2800       0.400000       121.5000
       5182.00        98.8300         1.5700         2.2300       0.360000       121.3500
       5182.50        88.7300         1.7300         2.1900       0.350000       121.2000
       5183.00        77.6900         1.8100         2.1700       0.330000       121.8000
       5183.50        74.9000         1.8600         2.1700       0.320000       123.3000
       5184.00        72.2900         1.9400         2.1600       0.310000       124.5000
       5184.50        82.5200         1.9400         2.1600       0.350000       123.7500
       5185.00        82.9400         1.8300         2.1700       0.380000       124.4500
       5185.50        87.6200         1.7000         2.1700       0.410000       125.5500
       5186.00        85.1300         1.6700         2.1600       0.400000       126.6000
       5186.50        90.9500         1.6300         2.1500       0.400000       126.8000
       5187.00        92.8000         1.6200         2.1500       0.420000       127.9000
       5187.50        97.2900         1.6000         2.1600       0.440000       128.8500
       5188.00        98.5800         1.5700         2.1600       0.440000       129.3000
       5188.50       104.0900         1.5300         2.1700       0.450000       129.9000
       5189.00       104.3900         1.5300         2.1900       0.440000       129.5000
       5189.50       100.5700         1.5300         2.2000       0.430000       128.2500
       5190.00        97.2400         1.5300         2.2000       0.420000       128.4000
       5190.50        98.2800         1.4800         2.2000       0.440000       130.1500
