~Version Information Block
VERS .                  2.0:  CWLS LOG ASCII STANDARD - VERSION 2.0
WRAP .                   NO:  One line per depth step
~Well Information Block
#MNEM.UNIT        Data Type   Information
#---------- ----------------  -----------
STRT .FT               0.00:  START DEPTH
STOP .FT           10065.00:  STOP DEPTH
STEP .FT               0.50:  STEP
NULL .              -999.25:  NULL VALUE
COMP .                     :  COMPANY
WELL .               STA-38:  WELL
FLD  .                     :  FIELD
LOC  .                     :  LOCATION
CTRY .                     :  COUNTRY
STAT .                     :  STATE
CNTY .                     :  COUNTY
SRVC .                     :  SERVICE COMPANY
DATE .                     :  DATE
API  .                     :  API NUMBER
UWI  .                     :  UNIQUE WELL ID
~Curve Information Block
#MNEM.UNIT         API CODE   Curve Description
#---------- ----------------  -----------------
DEPTH.FT                   :  Depth
TVDSS.FT                   :  Reference TVD sub-sea log.
GR   .GAPI                 :  Gamma Ray
RT   .OHMM                 :  True Resistivity
RXO  .OHMM                 :  Flushed Zone Resistivity
NPHI .V/V                  :  Neutron Porosity
RHOB .G/C3                 :  Bulk Density
VCALCITE.V/V                  :  Calcite Volume Fraction
VQUARTZ.V/V                  :  Quartz Volume Fraction
VSH  .V/V                  :  Wet Cl/Sh 1 Volume Fraction
VCOAL.V/V                  :  Coal Volume Fraction
VORGSH.V/V                  :  Organic Shale Volume Fraction
VGAS .V/V                  :  X Gas Volume Fraction
VOIL .V/V                  :  X Oil Volume Fraction
VWATER.V/V                  :  X Water Volume Fraction
PHIT .V/V                  :  Total Porosity
PHIE .V/V                  :  Limited Effective Porosity
SWE  .V/V                  :  Effective Water Saturation
PERM .MD                   :  Permeability
~Parameter Information Block
#MNEM.UNIT            Value   Description
#---------- ----------------  -----------
PROJECT.            SANTAN_FE:  
~Other Information Block
# 
~A       DEPTH          TVDSS             GR             RT            RXO           NPHI           RHOB       VCALCITE        VQUARTZ            VSH          VCOAL         VORGSH           VGAS           VOIL         VWATER           PHIT           PHIE            SWE           PERM 
# ...
       6303.50      4940.5168        69.9847         1.0110         0.9862       0.426400         2.2781       0.000000       0.133551         0.7736         0.0000         0.0000      0.0000000       0.000000       0.092846       0.092846       0.066303         1.0000         0.7792
       6304.00      4940.8925        66.3088         1.0766         1.0752       0.433000         2.2786       0.000000       0.177854         0.7215         0.0000         0.0000      0.0000000       0.000000       0.100621       0.100621       0.083260         1.0000         1.2416
       6304.50      4941.2684        62.7103         1.2364         1.2315       0.411100         2.2826       0.000000       0.238488         0.6551         0.0000         0.0000      0.0000000       0.000000       0.106398       0.106398       0.105344         1.0000         2.2181
       6305.00      4941.6444        59.0801         1.3580         1.3428       0.372100         2.2742       0.000000       0.288318         0.5912         0.0000         0.0000      0.0000000       0.002828       0.117616       0.120444       0.120444         0.9765         3.2981
       6305.50      4942.0205        58.1943         1.4326         1.4092       0.369600         2.2731       0.000000       0.298844         0.5782         0.0000         0.0000      0.0000000       0.005602       0.117352       0.122954       0.122954         0.9544         3.5229
       6306.00      4942.3966        58.0589         1.4535         1.4120       0.374500         2.2582       0.000000       0.290640         0.5784         0.0000         0.0000      0.0000000       0.009487       0.121434       0.130921       0.130921         0.9275         4.3432
       6306.50      4942.7729        60.8176         1.4221         1.3599       0.396800         2.2542       0.000000       0.250741         0.6239         0.0000         0.0000      0.0000000       0.010729       0.114598       0.125327       0.115861         0.9144         2.9240
       6307.00      4943.1492        64.3667         1.3720         1.3178       0.397800         2.2437       0.000000       0.204851         0.6738         0.0000         0.0000      0.0000000       0.012371       0.108939       0.121310       0.099063         0.8980         1.8807
       6307.50      4943.5256        65.4632         1.3425         1.2861       0.401400         2.2478       0.000000       0.193579         0.6901         0.0000         0.0000      0.0000000       0.010555       0.105803       0.116358       0.093655         0.9093         1.6316
       6308.00      4943.9021        66.4183         1.3225         1.2681       0.387000         2.2408       0.000000       0.183338         0.6990         0.0000         0.0000      0.0000000       0.011080       0.106610       0.117690       0.090697         0.9059         1.5096
       6308.50      4944.2787        67.2202         1.3082         1.2555       0.378300         2.2398       0.000000       0.177322         0.7095         0.0000         0.0000      0.0083539       0.001358       0.103506       0.113218       0.087226         0.9142         1.3780
       6309.00      4944.6554        70.1330         1.3003         1.2487       0.383000         2.2435       0.000000       0.145469         0.7515         0.0000         0.0000      0.0092571       0.000000       0.093770       0.103027       0.073445         0.9101         0.9594
       6309.50      4945.0321        71.9992         1.3211         1.2448       0.377900         2.2467       0.000000       0.127890         0.7757         0.0000         0.0000      0.0092083       0.000000       0.087201       0.096409       0.065617         0.9045         0.7627
       6310.00      4945.4089        74.4207         1.3086         1.2337       0.394000         2.2567       0.000000       0.101349         0.8136         0.0000         0.0000      0.0072980       0.000000       0.077758       0.085056       0.053531         0.9142         0.5070
       6310.50      4945.7858        74.4454         1.2855         1.2021       0.410300         2.2502       0.000000       0.091516         0.8179         0.0000         0.0000      0.0012356       0.006977       0.082380       0.090592       0.052175         0.9093         0.4827
       6311.00      4946.1628        73.5137         1.2259         1.1552       0.411000         2.2531       0.000000       0.102806         0.8048         0.0000         0.0000      0.0000000       0.005797       0.086600       0.092397       0.056315         0.9373         0.5598
       6311.50      4946.5399        72.3522         1.1805         1.1324       0.402900         2.2541       0.000000       0.118559         0.7861         0.0000         0.0000      0.0000000       0.003940       0.091426       0.095366       0.062284         0.9587         0.6852
       6312.00      4946.9171        74.0913         1.1432         1.0877       0.407400         2.2654       0.000000       0.103814         0.8113         0.0000         0.0000      0.0000000       0.000842       0.084031       0.084873       0.054249         0.9901         0.5203
       6312.50      4947.2943        76.4043         1.1301         1.0765       0.442000         2.2747       0.000000       0.072564         0.8540         0.0000         0.0000      0.0000000       0.000011       0.073419       0.073430       0.040911         0.9998         0.3120
       6313.00      4947.6716        75.5050         1.1086         1.0618       0.461600         2.2795       0.000000       0.076972         0.8490         0.0000         0.0000      0.0000000       0.000000       0.074056       0.074056       0.042465         1.0000         0.3323
       6313.50      4948.0490        74.6459         1.0991         1.0540       0.445200         2.2822       0.000000       0.090746         0.8336         0.0000         0.0000      0.0000000       0.000000       0.075699       0.075699       0.047256         1.0000         0.4013
       6314.00      4948.4265        73.9827         1.0812         1.0495       0.439700         2.2900       0.000000       0.100642         0.8250         0.0000         0.0000      0.0000000       0.000000       0.074364       0.074364       0.049936         1.0000         0.4443
       6314.50      4948.8041        74.8800         1.0317         1.0110       0.440400         2.2939       0.000000       0.088283         0.8401         0.0000         0.0000      0.0000000       0.000000       0.071664       0.071664       0.045230         1.0000         0.3710
       6315.00      4949.1818        75.4036         1.0093         0.9872       0.442800         2.3030       0.000000       0.083332         0.8496         0.0000         0.0000      0.0000000       0.000000       0.067095       0.067095       0.042277         1.0000         0.3298
       6315.50      4949.5595        76.1927         1.0130         0.9791       0.451900         2.2990       0.000000       0.071322         0.8619         0.0000         0.0000      0.0000000       0.000000       0.066824       0.066824       0.038496         1.0000         0.2824
       6316.00      4949.9373        79.2328         0.9666         0.9497       0.450400         2.3034       0.000000       0.039537         0.9015         0.0000         0.0000      0.0000000       0.000000       0.058953       0.058953       0.026532         1.0000         0.1667
       6316.50      4950.3152        82.1170         0.9509         0.9352       0.463900         2.2987       0.000000       0.003699         0.9418         0.0000         0.0000      0.0000000       0.000000       0.054526       0.054526       0.014881         1.0000         0.0947
       6317.00      4950.6932        81.8544         0.9230         0.9202       0.459800         2.3024       0.000000       0.007649         0.9376         0.0000         0.0000      0.0000000       0.000000       0.054776       0.054776       0.016066         1.0000         0.1005
       6317.50      4951.0713        80.5775         0.9097         0.9116       0.479000         2.3002       0.000000       0.013430         0.9275         0.0000         0.0000      0.0000000       0.000000       0.059081       0.059081       0.018943         1.0000         0.1160
