~Version Information Block
VERS .                  2.0:  CWLS LOG ASCII STANDARD - VERSION 2.0
WRAP .                   NO:  One line per depth step
~Well Information Block
#MNEM.UNIT        Data Type   Information
#---------- ----------------  -----------
STRT .FT               0.00:  START DEPTH
STOP .FT           10065.00:  STOP DEPTH
STEP .FT               0.50:  STEP
NULL .              -999.25:  NULL VALUE
COMP .                     :  COMPANY
WELL .               STA-38:  WELL
FLD  .                     :  FIELD
LOC  .                     :  LOCATION
CTRY .                     :  COUNTRY
STAT .                     :  STATE
CNTY .                     :  COUNTY
SRVC .                     :  SERVICE COMPANY
DATE .                     :  DATE
API  .                     :  API NUMBER
UWI  .                     :  UNIQUE WELL ID
~Curve Information Block
#MNEM.UNIT         API CODE   Curve Description
#---------- ----------------  -----------------
DEPTH.FT                   :  Depth
TVDSS.FT                   :  Reference TVD sub-sea log.
GR   .GAPI                 :  Gamma Ray
RT   .OHMM                 :  True Resistivity
RXO  .OHMM                 :  Flushed Zone Resistivity
NPHI .V/V                  :  Neutron Porosity
RHOB .G/C3                 :  Bulk Density
VCALCITE.V/V                  :  Calcite Volume Fraction
VQUARTZ.V/V                  :  Quartz Volume Fraction
VSH  .V/V                  :  Wet Cl/Sh 1 Volume Fraction
VCOAL.V/V                  :  Coal Volume Fraction
VORGSH.V/V                  :  Organic Shale Volume Fraction
VGAS .V/V                  :  X Gas Volume Fraction
VOIL .V/V                  :  X Oil Volume Fraction
VWATER.V/V                  :  X Water Volume Fraction
PHIT .V/V                  :  Total Porosity
PHIE .V/V                  :  Limited Effective Porosity
SWE  .V/V                  :  Effective Water Saturation
PERM .MD                   :  Permeability
~Parameter Information Block
#MNEM.UNIT            Value   Description
#---------- ----------------  -----------
PROJECT.            SANTAN_FE:  
~Other Information Block
# 
~A       DEPTH          TVDSS             GR             RT            RXO           NPHI           RHOB       VCALCITE        VQUARTZ            VSH          VCOAL         VORGSH           VGAS           VOIL         VWATER           PHIT           PHIE            SWE           PERM 
# ...
       9000.50      7423.8284        87.2210         1.9293         1.9038       0.277100         2.5202       0.000000       0.072078         0.9062         0.0000         0.0000      0.0026518       0.000000       0.019054       0.021705       0.018080         0.8778         0.1112
       9001.00      7424.2086        87.0691         1.8271         1.8268       0.276400         2.5163       0.000000       0.071698         0.9042         0.0000         0.0000      0.0025525       0.000000       0.021532       0.024084       0.018543         0.8946         0.1137
       9001.50      7424.5887        86.8032         1.7600         1.8002       0.266000         2.5107       0.000000       0.074087         0.8989         0.0000         0.0000      0.0029233       0.000000       0.024098       0.027021       0.019787         0.9060         0.1209
       9002.00      7424.9687        83.7322         2.1394         1.9014       0.264800         2.5024       0.000000       0.103974         0.8630         0.0000         0.0000      0.0054234       0.000000       0.027607       0.033031       0.028491         0.8358         0.1824
       9002.50      7425.3487        79.9841         2.5944         2.1716       0.253400         2.4994       0.000000       0.146617         0.8172         0.0000         0.0000      0.0080660       0.000000       0.028133       0.036199       0.036199         0.7772         0.2563
       9003.00      7425.7286        73.9484         3.2595         2.6620       0.240300         2.4943       0.000000       0.213752         0.7445         0.0000         0.0000      0.0119351       0.000000       0.029781       0.041716       0.041716         0.7139         0.3224
       9003.50      7426.1085        67.0109         3.8656         3.3782       0.225200         2.4678       0.000000       0.280499         0.6611         0.0000         0.0000      0.0182460       0.002668       0.037499       0.058413       0.058413         0.6420         0.6019
       9004.00      7426.4884        55.8084         4.9639         4.7206       0.219600         2.4082       0.000000       0.373874         0.5284         0.0000         0.0000      0.0149262       0.030011       0.052765       0.097702       0.097702         0.5401         1.8146
       9004.50      7426.8681        43.2086         7.6614         7.1554       0.229400         2.3135       0.000000       0.462640         0.3818         0.0000         0.0000      0.0066283       0.084672       0.064283       0.155583       0.155583         0.4132         8.3023
       9005.00      7427.2479        31.7326        10.0284         9.7992       0.234100         2.2181       0.000000       0.541057         0.2486         0.0000         0.0000      0.0068308       0.130288       0.073229       0.210347       0.210347         0.3481        34.9995
       9005.50      7427.6275        25.5340        11.1425        12.5493       0.233300         2.1589       0.000000       0.581737         0.1769         0.0000         0.0000      0.0122781       0.155912       0.073143       0.241333       0.241333         0.3250        78.9968
       9006.00      7428.0071        22.5354        12.2443        15.5787       0.225900         2.1236       0.000000       0.601233         0.1423         0.0000         0.0000      0.0231717       0.164877       0.068435       0.256484       0.256484         0.3074       117.6203
       9006.50      7428.3867        21.5235        13.1031        18.0640       0.235200         2.1122       0.000000       0.605076         0.1310         0.0000         0.0000      0.0157125       0.184176       0.064010       0.263899       0.261442         0.2930       133.9847
       9007.00      7428.7662        19.6487        13.6880        18.5201       0.245300         2.1056       0.000000       0.619187         0.1091         0.0000         0.0000      0.0037024       0.202747       0.065300       0.271749       0.269387         0.2871       165.0831
       9007.50      7429.1456        18.4478        12.9355        17.1520       0.252200         2.1019       0.000000       0.627881         0.0959         0.0000         0.0000      0.0000000       0.206300       0.069892       0.276192       0.274156         0.2979       187.1202
       9008.00      7429.5250        16.9478        12.0164        15.3647       0.243500         2.1019       0.000000       0.645236         0.0766         0.0000         0.0000      0.0000000       0.201708       0.076439       0.278148       0.278148         0.3175       207.8096
       9008.50      7429.9044        15.9731        11.1968        12.8522       0.234700         2.1060       0.000000       0.658326         0.0642         0.0000         0.0000      0.0035706       0.187579       0.086333       0.277482       0.277482         0.3374       204.2077
       9009.00      7430.2837        18.0728         9.9992        10.0787       0.224800         2.1188       0.000000       0.642719         0.0888         0.0000         0.0000      0.0150893       0.157468       0.095965       0.268523       0.268523         0.3591       161.3778
       9009.50      7430.6629        21.1482         8.0373         7.7252       0.225300         2.1421       0.000000       0.618531         0.1249         0.0000         0.0000      0.0164043       0.135365       0.104750       0.256519       0.256519         0.4084       117.7287
       9010.00      7431.0421        23.0229         6.2854         5.8291       0.229500         2.1600       0.000000       0.603020         0.1471         0.0000         0.0000      0.0133211       0.118514       0.118013       0.249847       0.249847         0.4723        98.8006
       9010.50      7431.4212        23.8115         5.3187         4.5689       0.235100         2.1816       0.000000       0.600353         0.1559         0.0000         0.0000      0.0036592       0.109126       0.131007       0.243792       0.243792         0.5374        84.2680
       9011.00      7431.8003        25.3597         4.1373         3.4587       0.237600         2.2045       0.000000       0.590382         0.1739         0.0000         0.0000      0.0000000       0.087538       0.148217       0.235756       0.235756         0.6287        68.2297
       9011.50      7432.1793        30.2357         3.2960         2.8467       0.229900         2.2331       0.000000       0.552499         0.2310         0.0000         0.0000      0.0107835       0.054494       0.151190       0.216467       0.216467         0.6984        41.1050
       9012.00      7432.5582        34.0982         3.0140         2.7514       0.234400         2.2508       0.000000       0.518749         0.2770         0.0000         0.0000      0.0110978       0.048931       0.144202       0.204231       0.204231         0.7061        29.8039
       9012.50      7432.9372        35.9625         2.7028         2.7024       0.247200         2.2605       0.000000       0.499235         0.2997         0.0000         0.0000      0.0014262       0.055400       0.144214       0.201040       0.201040         0.7173        27.4071
       9013.00      7433.3160        35.6604         2.6515         2.7981       0.265600         2.2608       0.000000       0.498543         0.2999         0.0000         0.0000      0.0000000       0.059609       0.141930       0.201539       0.201539         0.7241        27.7687
       9013.50      7433.6948        35.1346         3.2808         3.0393       0.265100         2.2545       0.000000       0.502861         0.2937         0.0000         0.0000      0.0000000       0.069913       0.133529       0.203442       0.203442         0.6563        29.1927
       9014.00      7434.0735        30.5507         3.3675         2.8600       0.253900         2.2225       0.000000       0.537977         0.2377         0.0000         0.0000      0.0000000       0.074156       0.150184       0.224340       0.223374         0.6694        49.2827
       9014.50      7434.4522        25.9023         2.7170         2.4277       0.244700         2.1933       0.000000       0.571755         0.1824         0.0000         0.0000      0.0052276       0.055357       0.185281       0.245866       0.242955         0.7536        82.4357
