~Version Information Block
VERS .                  2.0:  CWLS LOG ASCII STANDARD - VERSION 2.0
WRAP .                   NO:  One line per depth step
~Well Information Block
#MNEM.UNIT        Data Type   Information
#---------- ----------------  -----------
STRT .FT               0.00:  START DEPTH
STOP .FT           10065.00:  STOP DEPTH
STEP .FT               0.50:  STEP
NULL .              -999.25:  NULL VALUE
COMP .                     :  COMPANY
WELL .               STA-38:  WELL
FLD  .                     :  FIELD
LOC  .                     :  LOCATION
CTRY .                     :  COUNTRY
STAT .                     :  STATE
CNTY .                     :  COUNTY
SRVC .                     :  SERVICE COMPANY
DATE .                     :  DATE
API  .                     :  API NUMBER
UWI  .                     :  UNIQUE WELL ID
~Curve Information Block
#MNEM.UNIT         API CODE   Curve Description
#---------- ----------------  -----------------
DEPTH.FT                   :  Depth
TVDSS.FT                   :  Reference TVD sub-sea log.
GR   .GAPI                 :  Gamma Ray
RT   .OHMM                 :  True Resistivity
RXO  .OHMM                 :  Flushed Zone Resistivity
NPHI .V/V                  :  Neutron Porosity
RHOB .G/C3                 :  Bulk Density
VCALCITE.V/V                  :  Calcite Volume Fraction
VQUARTZ.V/V                  :  Quartz Volume Fraction
VSH  .V/V                  :  Wet Cl/Sh 1 Volume Fraction
VCOAL.V/V                  :  Coal Volume Fraction
VORGSH.V/V                  :  Organic Shale Volume Fraction
VGAS .V/V                  :  X Gas Volume Fraction
VOIL .V/V                  :  X Oil Volume Fraction
VWATER.V/V                  :  X Water Volume Fraction
PHIT .V/V                  :  Total Porosity
PHIE .V/V                  :  Limited Effective Porosity
SWE  .V/V                  :  Effective Water Saturation
PERM .MD                   :  Permeability
~Parameter Information Block
#MNEM.UNIT            Value   Description
#---------- ----------------  -----------
PROJECT.            SANTAN_FE:  
~Other Information Block
# 
~A       DEPTH          TVDSS             GR             RT            RXO           NPHI           RHOB       VCALCITE        VQUARTZ            VSH          VCOAL         VORGSH           VGAS           VOIL         VWATER           PHIT           PHIE            SWE           PERM 
# ...
       5970.00      4709.9975        73.1461         1.4884         1.3581       0.421000         2.2937       0.999990       0.000000         0.0000         0.0000         0.0000      0.0000000       0.000000       0.000010       0.000010       0.000010         1.0000         0.0427
       5970.50      4710.3170        72.1500         1.5996         1.4458       0.428000         2.2968       0.999990       0.000000         0.0000         0.0000         0.0000      0.0000000       0.000000       0.000010       0.000010       0.000010         1.0000         0.0427
       5971.00      4710.6365        65.2981         1.6775         1.5473       0.400600         2.2982       0.999990       0.000000         0.0000         0.0000         0.0000      0.0000000       0.000000       0.000010       0.000010       0.000010         1.0000         0.0427
       5971.50      4710.9561        63.0963         1.7835         1.6756       0.389700         2.2973       0.999990       0.000000         0.0000         0.0000         0.0000      0.0000000       0.000000       0.000010       0.000010       0.000010         1.0000         0.0427
       5972.00      4711.2758        60.4447         1.8409         1.7979       0.375600         2.3159       0.999990       0.000000         0.0000         0.0000         0.0000      0.0000000       0.000000       0.000010       0.000010       0.000010         1.0000         0.0427
       5972.50      4711.5956        55.8451         2.0555         1.9796       0.387700         2.3431       0.999990       0.000000         0.0000         0.0000         0.0000      0.0000000       0.000000       0.000010       0.000010       0.000010         1.0000         0.0427
       5973.00      4711.9154        54.6468         2.6502         2.0568       0.383300         2.3442       0.999990       0.000000         0.0000         0.0000         0.0000      0.0000000       0.000000       0.000010       0.000010       0.000010         1.0000         0.0427
       5973.50      4712.2353        55.7984         2.4145         2.0553       0.389100         2.3175       0.999990       0.000000         0.0000         0.0000         0.0000      0.0000000       0.000000       0.000010       0.000010       0.000010         1.0000         0.0427
       5974.00      4712.5552        63.3500         1.8638         1.8485       0.379300         2.2985       0.999990       0.000000         0.0000         0.0000         0.0000      0.0000000       0.000000       0.000010       0.000010       0.000010         1.0000         0.0427
       5974.50      4712.8752        69.4479         1.6054         1.6171       0.411400         2.3138       0.000000       0.184840         0.7460         0.0000         0.0000      0.0000000       0.007906       0.061232       0.069138       0.069138         0.8872         0.8500
       5975.00      4713.1953        73.8957         1.6715         1.5646       0.404600         2.3356       0.000000       0.149543         0.8048         0.0000         0.0000      0.0000000       0.004164       0.041470       0.045634       0.045634         0.9087         0.3769
       5975.50      4713.5155        76.9457         1.6720         1.5279       0.407400         2.3411       0.000000       0.117509         0.8479         0.0000         0.0000      0.0000000       0.002789       0.031754       0.034543       0.034543         0.9193         0.2387
       5976.00      4713.8357        79.3978         1.6257         1.5159       0.382200         2.3355       0.000000       0.094281         0.8746         0.0000         0.0000      0.0000000       0.002450       0.028697       0.031147       0.031147         0.9214         0.2056
       5976.50      4714.1560        80.4500         1.6109         1.5231       0.425800         2.3300       0.000000       0.065810         0.9031         0.0000         0.0000      0.0000000       0.002979       0.028155       0.031134       0.026294         0.9043         0.1649
       5977.00      4714.4764        80.7000         1.6045         1.5263       0.442400         2.3250       0.000000       0.054979         0.9119         0.0000         0.0000      0.0000000       0.003536       0.029559       0.033095       0.023660         0.8932         0.1457
       5977.50      4714.7968        78.7500         1.5818         1.5168       0.449900         2.3197       0.000000       0.071569         0.8873         0.0000         0.0000      0.0000000       0.004575       0.036544       0.041120       0.031028         0.8887         0.2045
       5978.00      4715.1173        79.1500         1.5728         1.5126       0.417800         2.3146       0.000000       0.073989         0.8831         0.0000         0.0000      0.0000000       0.004824       0.038118       0.042942       0.032315         0.8877         0.2165
       5978.50      4715.4379        78.3000         1.5607         1.5211       0.417200         2.3144       0.000000       0.083645         0.8710         0.0000         0.0000      0.0000000       0.005047       0.040277       0.045324       0.035992         0.8886         0.2540
       5979.00      4715.7585        77.2978         1.4894         1.5068       0.447500         2.3111       0.000000       0.083597         0.8667         0.0000         0.0000      0.0000000       0.005401       0.044310       0.049711       0.037326         0.8958         0.2689
       5979.50      4716.0792        77.2432         1.5470         1.5082       0.446600         2.3154       0.000000       0.087031         0.8655         0.0000         0.0000      0.0000000       0.005192       0.042308       0.047499       0.037702         0.8907         0.2732
       5980.00      4716.4000        76.8539         1.4621         1.4408       0.457700         2.3194       0.000000       0.090104         0.8633         0.0000         0.0000      0.0000000       0.003622       0.042967       0.046590       0.038369         0.9222         0.2809
       5980.50      4716.7208        80.7988         1.3212         1.3623       0.435800         2.3204       0.000000       0.052780         0.9114         0.0000         0.0000      0.0000000       0.001420       0.034404       0.035824       0.023815         0.9769         0.1468
       5981.00      4717.0417        79.8511         1.3071         1.3448       0.437400         2.3212       0.000000       0.063384         0.8986         0.0000         0.0000      0.0000000       0.001184       0.036812       0.037996       0.027618         0.9841         0.1753
       5981.50      4717.3627        81.8856         1.4145         1.3556       0.411900         2.3283       0.000000       0.052522         0.9189         0.0000         0.0000      0.0000000       0.000841       0.027774       0.028615       0.021616         0.9706         0.1321
       5982.00      4717.6838        79.9929         1.4514         1.3690       0.397600         2.3245       0.000000       0.076070         0.8881         0.0000         0.0000      0.0000000       0.001580       0.034199       0.035780       0.030771         0.9558         0.2022
       5982.50      4718.0049        78.1411         1.4591         1.4206       0.399900         2.3313       0.999990       0.000000         0.0000         0.0000         0.0000      0.0000000       0.000000       0.000010       0.000010       0.000010         1.0000         0.0427
       5983.00      4718.3261        70.9941         1.6202         1.5914       0.401700         2.3164       0.999990       0.000000         0.0000         0.0000         0.0000      0.0000000       0.000000       0.000010       0.000010       0.000010         1.0000         0.0427
       5983.50      4718.6473        65.0424         1.9287         1.8419       0.417400         2.3156       0.999990       0.000000         0.0000         0.0000         0.0000      0.0000000       0.000000       0.000010       0.000010       0.000010         1.0000         0.0427
       5984.00      4718.9686        58.1964         2.3974         2.1448       0.370500         2.2738       0.999990       0.000000         0.0000         0.0000         0.0000      0.0000000       0.000000       0.000010       0.000010       0.000010         1.0000         0.0427
