~Version Information Block
VERS .                  2.0:  CWLS LOG ASCII STANDARD - VERSION 2.0
WRAP .                   NO:  One line per depth step
~Well Information Block
#MNEM.UNIT        Data Type   Information
#---------- ----------------  -----------
STRT .FT               0.00:  START DEPTH
STOP .FT           10065.00:  STOP DEPTH
STEP .FT               0.50:  STEP
NULL .              -999.25:  NULL VALUE
COMP .                     :  COMPANY
WELL .               STA-38:  WELL
FLD  .                     :  FIELD
LOC  .                     :  LOCATION
CTRY .                     :  COUNTRY
STAT .                     :  STATE
CNTY .                     :  COUNTY
SRVC .                     :  SERVICE COMPANY
DATE .                     :  DATE
API  .                     :  API NUMBER
UWI  .                     :  UNIQUE WELL ID
~Curve Information Block
#MNEM.UNIT         API CODE   Curve Description
#---------- ----------------  -----------------
DEPTH.FT                   :  Depth
TVDSS.FT                   :  Reference TVD sub-sea log.
GR   .GAPI                 :  Gamma Ray
RT   .OHMM                 :  True Resistivity
RXO  .OHMM                 :  Flushed Zone Resistivity
NPHI .V/V                  :  Neutron Porosity
RHOB .G/C3                 :  Bulk Density
VCALCITE.V/V                  :  Calcite Volume Fraction
VQUARTZ.V/V                  :  Quartz Volume Fraction
VSH  .V/V                  :  Wet Cl/Sh 1 Volume Fraction
VCOAL.V/V                  :  Coal Volume Fraction
VORGSH.V/V                  :  Organic Shale Volume Fraction
VGAS .V/V                  :  X Gas Volume Fraction
VOIL .V/V                  :  X Oil Volume Fraction
VWATER.V/V                  :  X Water Volume Fraction
PHIT .V/V                  :  Total Porosity
PHIE .V/V                  :  Limited Effective Porosity
SWE  .V/V                  :  Effective Water Saturation
PERM .MD                   :  Permeability
~Parameter Information Block
#MNEM.UNIT            Value   Description
#---------- ----------------  -----------
PROJECT.            SANTAN_FE:  
~Other Information Block
# 
~A       DEPTH          TVDSS             GR             RT            RXO           NPHI           RHOB       VCALCITE        VQUARTZ            VSH          VCOAL         VORGSH           VGAS           VOIL         VWATER           PHIT           PHIE            SWE           PERM 
# ...
       6637.00      5210.8822        85.0101         1.6380         1.6089       0.264800         2.1262       0.000000       0.000000         0.8774         0.0000         0.0000      0.0448359       0.000000       0.077725       0.122561       0.033430         0.6811         0.2274
       6637.50      5211.3165        76.6735         1.6161         1.6444       0.254300         2.1472       0.000000       0.070628         0.8022         0.0000         0.0000      0.0436308       0.000000       0.083578       0.127209       0.056608         0.7118         0.5655
       6638.00      5211.7509        63.7025         1.7189         1.7688       0.253900         2.1783       0.000000       0.228406         0.6287         0.0000         0.0000      0.0416333       0.000000       0.101274       0.142907       0.113148         0.7597         2.7228
       6638.50      5212.1854        53.0830         1.9265         2.0468       0.244800         2.2056       0.000000       0.363318         0.4807         0.0000         0.0000      0.0389514       0.000000       0.117070       0.156022       0.156022         0.8052         8.3986
       6639.00      5212.6199        48.3967         2.0760         2.2197       0.253300         2.2020       0.000000       0.412005         0.4192         0.0000         0.0000      0.0407347       0.000000       0.128102       0.168837       0.168837         0.8029        11.7605
       6639.50      5213.0545        47.2109         2.2317         2.2136       0.254700         2.1726       0.000000       0.409334         0.4064         0.0000         0.0000      0.0483740       0.000000       0.135916       0.184290       0.184290         0.7476        17.6504
       6640.00      5213.4892        47.5267         2.2646         2.1751       0.266600         2.1418       0.000000       0.386600         0.4175         0.0000         0.0000      0.0567928       0.000000       0.139080       0.195873       0.185655         0.7101        18.2948
       6640.50      5213.9239        46.4233         2.1724         2.1250       0.261500         2.1286       0.000000       0.392469         0.4022         0.0000         0.0000      0.0586794       0.000000       0.146690       0.205369       0.191047         0.7197        21.0786
       6641.00      5214.3588        45.9580         1.9923         1.9837       0.261600         2.1253       0.000000       0.393852         0.3958         0.0000         0.0000      0.0553906       0.000000       0.154973       0.210364       0.193287         0.7531        22.3563
       6641.50      5214.7936        47.0221         1.8765         1.8524       0.258000         2.1252       0.000000       0.381224         0.4094         0.0000         0.0000      0.0525975       0.000000       0.156815       0.209412       0.188510         0.7689        19.7199
       6642.00      5215.2286        48.0506         1.7904         1.7258       0.273300         2.1284       0.000000       0.365523         0.4270         0.0000         0.0000      0.0473071       0.000000       0.160176       0.207483       0.182327         0.7776        16.7631
       6642.50      5215.6636        48.8758         1.7238         1.6226       0.284800         2.1281       0.000000       0.351775         0.4412         0.0000         0.0000      0.0441527       0.000000       0.162835       0.206987       0.177345         0.7867        14.7065
       6643.00      5216.0987        45.8617         1.6139         1.5101       0.281300         2.1243       0.000000       0.380452         0.3988         0.0000         0.0000      0.0375500       0.000000       0.183246       0.220796       0.192230         0.8299        21.7444
       6643.50      5216.5339        42.9742         1.4765         1.4596       0.260500         2.1146       0.000000       0.409063         0.3556         0.0000         0.0000      0.0355638       0.000000       0.199805       0.235369       0.207468         0.8842        32.4495
       6644.00      5216.9691        40.6491         1.4104         1.4896       0.242100         2.1049       0.000000       0.433518         0.3208         0.0000         0.0000      0.0385220       0.000000       0.207138       0.245660       0.219802         0.9245        44.8681
       6644.50      5217.4044        39.6433         1.5342         1.6604       0.228700         2.1157       0.000000       0.457524         0.3021         0.0000         0.0000      0.0423702       0.000000       0.197989       0.240359       0.226466         0.9151        53.4537
       6645.00      5217.8398        39.2520         1.7318         1.8306       0.227400         2.1348       0.000000       0.475731         0.2935         0.0000         0.0000      0.0421224       0.000000       0.188611       0.230734       0.229528         0.8859        57.9311
       6645.50      5218.2752        39.0646         1.8694         1.8307       0.226000         2.1572       0.000000       0.489259         0.2880         0.0000         0.0000      0.0345887       0.000000       0.188147       0.222736       0.222736         0.8737        48.4634
       6646.00      5218.7107        39.5747         1.7730         1.6224       0.244500         2.1603       0.000000       0.476605         0.2989         0.0000         0.0000      0.0251642       0.000000       0.199319       0.224483       0.224483         0.8879        50.7404
       6646.50      5219.1463        40.5266         1.4222         1.3549       0.267400         2.1509       0.000000       0.447945         0.3191         0.0000         0.0000      0.0139877       0.000000       0.218981       0.232969       0.220402         0.9542        45.5819
       6647.00      5219.5820        42.4383         1.1834         1.1341       0.295900         2.1437       0.000000       0.408500         0.3541         0.0000         0.0000      0.0030969       0.000000       0.234315       0.237412       0.207969         1.0000        32.8798
       6647.50      5220.0177        43.7955         1.0535         1.0331       0.322200         2.1388       0.000000       0.374139         0.3880         0.0000         0.0000      0.0000000       0.000000       0.237822       0.237822       0.195973         1.0000        23.9915
       6648.00      5220.4535        47.1649         0.9760         0.9856       0.365100         2.1326       0.000000       0.325915         0.4419         0.0000         0.0000      0.0000000       0.000000       0.232164       0.232164       0.177076         1.0000        14.6028
       6648.50      5220.8893        48.1790         1.0270         1.0179       0.394600         2.1064       0.000000       0.303728         0.4543         0.0000         0.0000      0.0010621       0.008155       0.232755       0.241972       0.172758         0.9619        13.0366
       6649.00      5221.3252        50.3017         1.1953         1.1275       0.415700         2.0818       0.000000       0.264319         0.4905         0.0000         0.0000      0.0004823       0.035410       0.209290       0.245183       0.160192         0.8536         9.3711
       6649.50      5221.7612        48.0582         1.2255         1.0990       0.409000         2.0769       0.000000       0.288075         0.4577         0.0000         0.0000      0.0008542       0.033384       0.219957       0.254195       0.171558         0.8653        12.6322
       6650.00      5222.1973        48.1538         1.0111         0.9564       0.402600         2.1144       0.000000       0.304921         0.4559         0.0000         0.0000      0.0000000       0.002482       0.236660       0.239142       0.172179         0.9896        12.8400
       6650.50      5222.6334        46.8175         0.8199         0.8563       0.384400         2.1779       0.999990       0.000000         0.0000         0.0000         0.0000      0.0000000       0.000000       0.000010       0.000010       0.000010         1.0000         0.0427
       6651.00      5223.0696        44.6211         0.8747         0.8663       0.390100         2.2219       0.999990       0.000000         0.0000         0.0000         0.0000      0.0000000       0.000000       0.000010       0.000010       0.000010         1.0000         0.0427
