~Version Information Block
VERS .                  2.0:  CWLS LOG ASCII STANDARD - VERSION 2.0
WRAP .                   NO:  One line per depth step
~Well Information Block
#MNEM.UNIT        Data Type   Information
#---------- ----------------  -----------
STRT .FT               0.00:  START DEPTH
STOP .FT           10065.00:  STOP DEPTH
STEP .FT               0.50:  STEP
NULL .              -999.25:  NULL VALUE
COMP .                     :  COMPANY
WELL .               STA-38:  WELL
FLD  .                     :  FIELD
LOC  .                     :  LOCATION
CTRY .                     :  COUNTRY
STAT .                     :  STATE
CNTY .                     :  COUNTY
SRVC .                     :  SERVICE COMPANY
DATE .                     :  DATE
API  .                     :  API NUMBER
UWI  .                     :  UNIQUE WELL ID
~Curve Information Block
#MNEM.UNIT         API CODE   Curve Description
#---------- ----------------  -----------------
DEPTH.FT                   :  Depth
TVDSS.FT                   :  Reference TVD sub-sea log.
GR   .GAPI                 :  Gamma Ray
RT   .OHMM                 :  True Resistivity
RXO  .OHMM                 :  Flushed Zone Resistivity
NPHI .V/V                  :  Neutron Porosity
RHOB .G/C3                 :  Bulk Density
VCALCITE.V/V                  :  Calcite Volume Fraction
VQUARTZ.V/V                  :  Quartz Volume Fraction
VSH  .V/V                  :  Wet Cl/Sh 1 Volume Fraction
VCOAL.V/V                  :  Coal Volume Fraction
VORGSH.V/V                  :  Organic Shale Volume Fraction
VGAS .V/V                  :  X Gas Volume Fraction
VOIL .V/V                  :  X Oil Volume Fraction
VWATER.V/V                  :  X Water Volume Fraction
PHIT .V/V                  :  Total Porosity
PHIE .V/V                  :  Limited Effective Porosity
SWE  .V/V                  :  Effective Water Saturation
PERM .MD                   :  Permeability
~Parameter Information Block
#MNEM.UNIT            Value   Description
#---------- ----------------  -----------
PROJECT.            SANTAN_FE:  
~Other Information Block
# 
~A       DEPTH          TVDSS             GR             RT            RXO           NPHI           RHOB       VCALCITE        VQUARTZ            VSH          VCOAL         VORGSH           VGAS           VOIL         VWATER           PHIT           PHIE            SWE           PERM 
       4955.00      4083.0182        66.9842         1.1338         1.0798       0.468000         1.8033       0.000000       0.000000         0.6839         0.0000         0.0000      0.1052880       0.000000       0.210838       0.316126       0.098670         0.6704         1.8613
       4955.50      4083.3255        68.2041         1.1953         1.1241       0.466000         1.8834       0.000000       0.000000         0.7262         0.0000         0.0000      0.0864048       0.000000       0.187410       0.273815       0.084244         0.6844         1.2742
       4956.00      4083.6328        71.8144         1.2707         1.1878       0.503000         2.0366       0.000000       0.000000         0.7966         0.0000         0.0000      0.0241941       0.031293       0.147881       0.203367       0.060735         0.7272         0.6511
       4956.50      4083.9400        74.8140         1.2440         1.2073       0.509500         2.1058       0.000000       0.000000         0.8311         0.0000         0.0000      0.0000000       0.039757       0.129128       0.168886       0.049508         0.7646         0.4372
       4957.00      4084.2473        78.2692         1.1714         1.1949       0.503100         2.1233       0.000000       0.000000         0.8479         0.0000         0.0000      0.0073462       0.023977       0.120763       0.152086       0.044119         0.8063         0.3550
       4957.50      4084.5546        78.1463         1.1503         1.1987       0.457500         2.1312       0.000000       0.000000         0.8616         0.0000         0.0000      0.0265869       0.000000       0.111791       0.138378       0.039764         0.8332         0.2977
       4958.00      4084.8618        76.2732         1.1607         1.2074       0.459600         2.1298       0.000000       0.000000         0.8593         0.0000         0.0000      0.0272771       0.000000       0.113392       0.140669       0.040489         0.8257         0.3067
       4958.50      4085.1691        75.7956         1.2462         1.2424       0.437100         2.1308       0.000000       0.004598         0.8557         0.0000         0.0000      0.0290854       0.000000       0.110581       0.139666       0.041628         0.7954         0.3213
       4959.00      4085.4764        76.6190         1.3153         1.2600       0.433800         2.1385       0.000000       0.001026         0.8656         0.0000         0.0000      0.0287872       0.000000       0.104581       0.133368       0.038506         0.7842         0.2825
       4959.50      4085.7836        79.9940         1.2564         1.2442       0.417200         2.1740       0.000000       0.000000         0.8882         0.0000         0.0000      0.0199699       0.000000       0.091877       0.111847       0.031462         0.8283         0.2085
       4960.00      4086.0909        77.0935         1.3256         1.2843       0.422100         2.2188       0.000000       0.042151         0.8625         0.0000         0.0000      0.0135982       0.000000       0.081763       0.095361       0.039488         0.8574         0.2943
       4960.50      4086.3982        76.2326         1.4401         1.3531       0.433000         2.2390       0.000000       0.058615         0.8498         0.0000         0.0000      0.0000000       0.014672       0.076910       0.091582       0.043513         0.8398         0.3466
       4961.00      4086.7054        73.3093         1.5780         1.4309       0.416600         2.2394       0.000000       0.097376         0.8038         0.0000         0.0000      0.0000000       0.018256       0.080520       0.098776       0.058363         0.8152         0.6009
       4961.50      4087.0127        69.8987         1.6053         1.5353       0.399200         2.2327       0.000000       0.138057         0.7519         0.0000         0.0000      0.0032382       0.018467       0.088293       0.109998       0.075558         0.8027         1.0142
       4962.00      4087.3199        67.8844         1.6358         1.6165       0.369100         2.2262       0.000000       0.168794         0.7195         0.0000         0.0000      0.0218794       0.000000       0.089838       0.111718       0.086501         0.8042         1.3520
       4962.50      4087.6272        62.0844         1.6751         1.7108       0.361400         2.2099       0.000000       0.226664         0.6360         0.0000         0.0000      0.0170146       0.012127       0.108235       0.137377       0.115222         0.7977         2.8753
       4963.00      4087.9344        60.1982         1.7095         1.8267       0.347000         2.2026       0.000000       0.249563         0.6075         0.0000         0.0000      0.0245774       0.008489       0.109871       0.142937       0.125167         0.7992         3.7339
       4963.50      4088.2417        55.6039         1.7773         1.9931       0.313900         2.2145       0.999990       0.000000         0.0000         0.0000         0.0000      0.0000000       0.000000       0.000010       0.000010       0.000010         1.0000         0.0427
       4964.00      4088.5489        55.0772         2.1166         2.4810       0.283400         2.2564       0.999990       0.000000         0.0000         0.0000         0.0000      0.0000000       0.000000       0.000010       0.000010       0.000010         1.0000         0.0427
       4964.50      4088.8562        55.8130         2.8687         3.0363       0.272800         2.3128       0.999990       0.000000         0.0000         0.0000         0.0000      0.0000000       0.000000       0.000010       0.000010       0.000010         1.0000         0.0427
       4965.00      4089.1634        58.5253         2.5563         2.4217       0.283500         2.3256       0.999990       0.000000         0.0000         0.0000         0.0000      0.0000000       0.000000       0.000010       0.000010       0.000010         1.0000         0.0427
       4965.50      4089.4707        61.6270         1.9539         1.9088       0.307100         2.3004       0.999990       0.000000         0.0000         0.0000         0.0000      0.0000000       0.000000       0.000010       0.000010       0.000010         1.0000         0.0427
       4966.00      4089.7779        63.8143         1.7002         1.7071       0.311500         2.2764       0.000000       0.258757         0.6412         0.0000         0.0000      0.0136913       0.000000       0.086354       0.100045       0.100045         0.8729         1.9298
       4966.50      4090.0852        64.7481         1.6557         1.6590       0.336400         2.2690       0.000000       0.236832         0.6621         0.0000         0.0000      0.0139127       0.000000       0.087176       0.101089       0.101089         0.8650         1.9835
       4967.00      4090.3924        65.7606         1.6389         1.5943       0.346500         2.2808       0.000000       0.228177         0.6773         0.0000         0.0000      0.0076748       0.003590       0.083289       0.094553       0.094553         0.8809         1.6705
       4967.50      4090.6996        66.0721         1.5748         1.5192       0.347500         2.2837       0.000000       0.225533         0.6816         0.0000         0.0000      0.0067959       0.002052       0.083996       0.092844       0.092844         0.9047         1.5972
       4968.00      4091.0069        65.3596         1.5589         1.4765       0.347700         2.2827       0.000000       0.232428         0.6714         0.0000         0.0000      0.0050714       0.003064       0.088026       0.096162       0.096162         0.9154         1.7426
       4968.50      4091.3141        65.6581         1.5041         1.4510       0.356000         2.2787       0.000000       0.223637         0.6775         0.0000         0.0000      0.0017876       0.006429       0.090647       0.098864       0.098864         0.9169         1.8709
       4969.00      4091.6213        65.3610         1.4844         1.4342       0.370200         2.2804       0.000000       0.223203         0.6773         0.0000         0.0000      0.0000000       0.007710       0.091743       0.099453       0.099453         0.9225         1.9000
