~Version Information Block
VERS .                  2.0:  CWLS LOG ASCII STANDARD - VERSION 2.0
WRAP .                   NO:  One line per depth step
~Well Information Block
#MNEM.UNIT        Data Type   Information
#---------- ----------------  -----------
STRT .FT               0.00:  START DEPTH
STOP .FT           10065.00:  STOP DEPTH
STEP .FT               0.50:  STEP
NULL .              -999.25:  NULL VALUE
COMP .                     :  COMPANY
WELL .               STA-38:  WELL
FLD  .                     :  FIELD
LOC  .                     :  LOCATION
CTRY .                     :  COUNTRY
STAT .                     :  STATE
CNTY .                     :  COUNTY
SRVC .                     :  SERVICE COMPANY
DATE .                     :  DATE
API  .                     :  API NUMBER
UWI  .                     :  UNIQUE WELL ID
~Curve Information Block
#MNEM.UNIT         API CODE   Curve Description
#---------- ----------------  -----------------
DEPTH.FT                   :  Depth
TVDSS.FT                   :  Reference TVD sub-sea log.
GR   .GAPI                 :  Gamma Ray
RT   .OHMM                 :  True Resistivity
RXO  .OHMM                 :  Flushed Zone Resistivity
NPHI .V/V                  :  Neutron Porosity
RHOB .G/C3                 :  Bulk Density
VCALCITE.V/V                  :  Calcite Volume Fraction
VQUARTZ.V/V                  :  Quartz Volume Fraction
VSH  .V/V                  :  Wet Cl/Sh 1 Volume Fraction
VCOAL.V/V                  :  Coal Volume Fraction
VORGSH.V/V                  :  Organic Shale Volume Fraction
VGAS .V/V                  :  X Gas Volume Fraction
VOIL .V/V                  :  X Oil Volume Fraction
VWATER.V/V                  :  X Water Volume Fraction
PHIT .V/V                  :  Total Porosity
PHIE .V/V                  :  Limited Effective Porosity
SWE  .V/V                  :  Effective Water Saturation
PERM .MD                   :  Permeability
~Parameter Information Block
#MNEM.UNIT            Value   Description
#---------- ----------------  -----------
PROJECT.            SANTAN_FE:  
~Other Information Block
# 
~A       DEPTH          TVDSS             GR             RT            RXO           NPHI           RHOB       VCALCITE        VQUARTZ            VSH          VCOAL         VORGSH           VGAS           VOIL         VWATER           PHIT           PHIE            SWE           PERM 
# ...
       7652.00      6185.8501        28.2212         2.4469         2.5128       0.243900         2.1798       0.000000       0.581495         0.1746         0.0000         0.0000      0.0132110       0.053048       0.177601       0.243860       0.243860         0.7398        84.4191
       7652.50      6186.3487        27.1337         2.5239         2.6164       0.240000         2.1946       0.000000       0.601130         0.1591         0.0000         0.0000      0.0064617       0.056610       0.176734       0.239805       0.239805         0.7528        75.8892
       7653.00      6186.8473        30.2243         2.7637         2.8582       0.236100         2.2398       0.000000       0.593684         0.1936         0.0000         0.0000      0.0000000       0.057081       0.155671       0.212752       0.212752         0.7459        37.2821
       7653.50      6187.3458        33.1500         2.9896         3.0634       0.233400         2.2631       0.000000       0.576822         0.2279         0.0000         0.0000      0.0000000       0.056452       0.138804       0.195255       0.195255         0.7208        23.5430
       7654.00      6187.8444        34.5742         3.0247         3.0093       0.237800         2.2519       0.000000       0.555554         0.2470         0.0000         0.0000      0.0038476       0.057131       0.136487       0.197465       0.197465         0.6912        24.9506
       7654.50      6188.3429        33.2236         2.8985         2.8390       0.238900         2.2166       0.000000       0.551844         0.2335         0.0000         0.0000      0.0147802       0.053076       0.146756       0.214612       0.214612         0.6838        39.1488
       7655.00      6188.8415        32.0973         2.6867         2.6604       0.236100         2.1809       0.000000       0.546559         0.2228         0.0000         0.0000      0.0299281       0.042527       0.158185       0.230641       0.230641         0.6859        59.6501
       7655.50      6189.3401        30.6419         2.6336         2.6208       0.233900         2.1674       0.000000       0.555358         0.2056         0.0000         0.0000      0.0332998       0.040692       0.165022       0.239014       0.239014         0.6904        74.3273
       7656.00      6189.8386        30.5675         2.7007         2.6643       0.236000         2.1719       0.000000       0.557842         0.2043         0.0000         0.0000      0.0291295       0.045583       0.163123       0.237835       0.237835         0.6859        72.0605
       7656.50      6190.3372        32.5318         2.7848         2.7558       0.237800         2.1814       0.000000       0.542419         0.2282         0.0000         0.0000      0.0291784       0.046629       0.153529       0.229337       0.229337         0.6694        57.6408
       7657.00      6190.8357        31.7743         2.8386         2.8060       0.238600         2.1928       0.000000       0.555314         0.2176         0.0000         0.0000      0.0210693       0.052306       0.153753       0.227128       0.227128         0.6769        54.3912
       7657.50      6191.3343        31.5193         2.8406         2.8005       0.231400         2.1878       0.000000       0.557856         0.2143         0.0000         0.0000      0.0284605       0.044732       0.154614       0.227807       0.227807         0.6787        55.3706
       7658.00      6191.8328        29.3601         2.8856         2.8788       0.231700         2.1968       0.000000       0.583921         0.1861         0.0000         0.0000      0.0175344       0.053189       0.159232       0.229955       0.229955         0.6924        58.5853
       7658.50      6192.3314        31.5731         2.9636         2.9331       0.227100         2.1989       0.000000       0.564457         0.2135         0.0000         0.0000      0.0269309       0.045232       0.149865       0.222028       0.222028         0.6750        47.5702
       7659.00      6192.8300        32.4731         2.9945         2.8768       0.235600         2.2095       0.000000       0.557506         0.2245         0.0000         0.0000      0.0180376       0.052732       0.147271       0.218041       0.218041         0.6754        42.8397
       7659.50      6193.3285        33.9427         2.8889         2.7600       0.240400         2.1994       0.000000       0.535973         0.2445         0.0000         0.0000      0.0233434       0.049469       0.146759       0.219572       0.219572         0.6684        44.5976
       7660.00      6193.8271        32.3372         2.5642         2.5415       0.244200         2.1890       0.000000       0.544608         0.2257         0.0000         0.0000      0.0210073       0.046965       0.161682       0.229655       0.229655         0.7040        58.1244
       7660.50      6194.3256        29.5916         2.4283         2.4785       0.245500         2.1757       0.000000       0.565137         0.1925         0.0000         0.0000      0.0178062       0.050167       0.174376       0.242349       0.242349         0.7282        81.1333
       7661.00      6194.8242        29.6231         2.4743         2.5331       0.247600         2.1787       0.000000       0.565925         0.1927         0.0000         0.0000      0.0146280       0.054799       0.171968       0.241395       0.241395         0.7223        79.1253
       7661.50      6195.3227        33.0294         2.4531         2.5333       0.258400         2.1850       0.000000       0.531225         0.2358         0.0000         0.0000      0.0132039       0.058970       0.160761       0.232934       0.232934         0.7033        63.3549
       7662.00      6195.8213        40.6050         2.4852         2.5748       0.254200         2.2043       0.000000       0.465373         0.3294         0.0000         0.0000      0.0314025       0.038385       0.135391       0.205179       0.205179         0.6738        30.5557
       7662.50      6196.3198        46.2000         2.5536         2.5901       0.252200         2.2100       0.000000       0.412390         0.3995         0.0000         0.0000      0.0489185       0.019590       0.119604       0.188112       0.185149         0.6411        18.0528
       7663.00      6196.8184        47.0550         2.5347         2.5342       0.253500         2.2011       0.000000       0.399006         0.4113         0.0000         0.0000      0.0549895       0.014826       0.119864       0.189679       0.181141         0.6319        16.2488
       7663.50      6197.3169        46.0040         2.5236         2.5295       0.255600         2.1920       0.000000       0.404647         0.3991         0.0000         0.0000      0.0537047       0.019104       0.123481       0.196289       0.185289         0.6299        18.1194
       7664.00      6197.8155        49.7090         2.5204         2.5289       0.267400         2.2060       0.000000       0.369591         0.4454         0.0000         0.0000      0.0492385       0.021582       0.114144       0.184965       0.169617         0.6183        12.0041
       7664.50      6198.3140        61.9040         2.5594         2.5761       0.266400         2.2697       0.000000       0.274710         0.5917         0.0000         0.0000      0.0523814       0.000000       0.081213       0.133594       0.121117         0.6146         3.3569
       7665.00      6198.8126        72.1336         2.6872         2.6917       0.264700         2.3206       0.000000       0.191786         0.7113         0.0000         0.0000      0.0396761       0.000000       0.057246       0.096922       0.082722         0.6024         1.2242
       7665.50      6199.3112        73.3036         2.9686         2.9900       0.254900         2.3325       0.000000       0.188653         0.7224         0.0000         0.0000      0.0388355       0.000000       0.050073       0.088908       0.079214         0.5782         1.1164
       7666.00      6199.8097        62.0370         3.2959         3.2957       0.256200         2.2798       0.000000       0.283790         0.5914         0.0000         0.0000      0.0572488       0.000000       0.067598       0.124847       0.121218         0.5449         3.3659
