~Version Information Block
VERS .                  2.0:  CWLS LOG ASCII STANDARD - VERSION 2.0
WRAP .                   NO:  One line per depth step
~Well Information Block
#MNEM.UNIT        Data Type   Information
#---------- ----------------  -----------
STRT .FT               0.00:  START DEPTH
STOP .FT           10065.00:  STOP DEPTH
STEP .FT               0.50:  STEP
NULL .              -999.25:  NULL VALUE
COMP .                     :  COMPANY
WELL .               STA-38:  WELL
FLD  .                     :  FIELD
LOC  .                     :  LOCATION
CTRY .                     :  COUNTRY
STAT .                     :  STATE
CNTY .                     :  COUNTY
SRVC .                     :  SERVICE COMPANY
DATE .                     :  DATE
API  .                     :  API NUMBER
UWI  .                     :  UNIQUE WELL ID
~Curve Information Block
#MNEM.UNIT         API CODE   Curve Description
#---------- ----------------  -----------------
DEPTH.FT                   :  Depth
TVDSS.FT                   :  Reference TVD sub-sea log.
GR   .GAPI                 :  Gamma Ray
RT   .OHMM                 :  True Resistivity
RXO  .OHMM                 :  Flushed Zone Resistivity
NPHI .V/V                  :  Neutron Porosity
RHOB .G/C3                 :  Bulk Density
VCALCITE.V/V                  :  Calcite Volume Fraction
VQUARTZ.V/V                  :  Quartz Volume Fraction
VSH  .V/V                  :  Wet Cl/Sh 1 Volume Fraction
VCOAL.V/V                  :  Coal Volume Fraction
VORGSH.V/V                  :  Organic Shale Volume Fraction
VGAS .V/V                  :  X Gas Volume Fraction
VOIL .V/V                  :  X Oil Volume Fraction
VWATER.V/V                  :  X Water Volume Fraction
PHIT .V/V                  :  Total Porosity
PHIE .V/V                  :  Limited Effective Porosity
SWE  .V/V                  :  Effective Water Saturation
PERM .MD                   :  Permeability
~Parameter Information Block
#MNEM.UNIT            Value   Description
#---------- ----------------  -----------
PROJECT.            SANTAN_FE:  
~Other Information Block
# 
~A       DEPTH          TVDSS             GR             RT            RXO           NPHI           RHOB       VCALCITE        VQUARTZ            VSH          VCOAL         VORGSH           VGAS           VOIL         VWATER           PHIT           PHIE            SWE           PERM 
# ...
       9682.00      7980.3395        67.6280         3.4776         3.5070       0.203900         2.5446       0.000000       0.315744         0.6621         0.0000         0.0000      0.0000000       0.005054       0.017106       0.022160       0.022160         0.7758         0.1356
       9682.50      7980.7690        66.6839         3.4680         3.4807       0.206300         2.5490       0.000000       0.327647         0.6517         0.0000         0.0000      0.0000000       0.004293       0.016403       0.020696       0.020696         0.7940         0.1264
       9683.00      7981.1986        68.8812         3.3165         3.3100       0.212600         2.5474       0.000000       0.301407         0.6786         0.0000         0.0000      0.0000000       0.004162       0.015830       0.019992       0.019992         0.7918         0.1221
       9683.50      7981.6282        68.2853         3.0858         3.1433       0.213100         2.5460       0.000000       0.306901         0.6717         0.0000         0.0000      0.0000000       0.003901       0.017459       0.021360       0.021360         0.8261         0.1305
       9684.00      7982.0578        70.0313         2.9357         3.0085       0.218100         2.5456       0.000000       0.286499         0.6932         0.0000         0.0000      0.0000000       0.003619       0.016723       0.020342       0.020342         0.8338         0.1242
       9684.50      7982.4874        71.9808         2.8484         2.8291       0.228600         2.5472       0.000000       0.263567         0.7182         0.0000         0.0000      0.0000000       0.002995       0.015286       0.018280       0.018280         0.8362         0.1123
       9685.00      7982.9170        77.8802         2.6656         2.5759       0.235600         2.5483       0.000000       0.198422         0.7885         0.0000         0.0000      0.0000000       0.002113       0.010983       0.013096       0.013096         0.8387         0.0864
       9685.50      7983.3466        83.4412         2.4616         2.3138       0.254100         2.5474       0.000000       0.133016         0.8573         0.0000         0.0000      0.0000835       0.001368       0.008206       0.009658       0.009658         0.8497         0.0723
       9686.00      7983.7763        88.3947         2.2404         2.1091       0.265100         2.5356       0.000000       0.070481         0.9175         0.0000         0.0000      0.0018466       0.000000       0.010159       0.012006       0.012006         0.8462         0.0817
       9686.50      7984.2059        91.1414         2.0851         1.9503       0.279500         2.5328       0.000000       0.035570         0.9526         0.0000         0.0000      0.0016028       0.000000       0.010254       0.011856       0.007801         0.8648         0.0655
       9687.00      7984.6356        89.4771         2.0968         1.9369       0.271100         2.5458       0.000000       0.062439         0.9315         0.0000         0.0000      0.0005742       0.000000       0.005528       0.006102       0.006102         0.9059         0.0598
       9687.50      7985.0653        84.9772         2.1113         2.0893       0.253600         2.5506       0.000000       0.118134         0.8753         0.0000         0.0000      0.0005350       0.000000       0.006066       0.006601       0.006601         0.9189         0.0614
       9688.00      7985.4950        70.1809         2.4550         2.6010       0.228300         2.5483       0.000000       0.283526         0.6971         0.0000         0.0000      0.0000000       0.002005       0.017373       0.019378       0.019378         0.9270         0.1185
       9688.50      7985.9247        58.1374         5.2381         4.1785       0.198100         2.5283       0.999990       0.000000         0.0000         0.0000         0.0000      0.0000000       0.000000       0.000010       0.000010       0.000010         1.0000         0.0427
       9689.00      7986.3544        47.2899         7.6193         6.0610       0.163800         2.5437       0.999990       0.000000         0.0000         0.0000         0.0000      0.0000000       0.000000       0.000010       0.000010       0.000010         1.0000         0.0427
       9689.50      7986.7841        43.9418         8.4407         7.9502       0.134400         2.5696       0.999990       0.000000         0.0000         0.0000         0.0000      0.0000000       0.000000       0.000010       0.000010       0.000010         1.0000         0.0427
       9690.00      7987.2139        43.1396         9.8279        10.5803       0.112600         2.6104       0.999990       0.000000         0.0000         0.0000         0.0000      0.0000000       0.000000       0.000010       0.000010       0.000010         1.0000         0.0427
       9690.50      7987.6436        41.3386        11.7294        13.1654       0.094700         2.6309       0.999990       0.000000         0.0000         0.0000         0.0000      0.0000000       0.000000       0.000010       0.000010       0.000010         1.0000         0.0427
       9691.00      7988.0734        39.5380        14.5239        14.9666       0.087500         2.6550       0.999990       0.000000         0.0000         0.0000         0.0000      0.0000000       0.000000       0.000010       0.000010       0.000010         1.0000         0.0427
       9691.50      7988.5032        33.8923        16.4517        17.0892       0.089200         2.6749       0.999990       0.000000         0.0000         0.0000         0.0000      0.0000000       0.000000       0.000010       0.000010       0.000010         1.0000         0.0427
       9692.00      7988.9330        27.4946        17.2605        19.9169       0.097500         2.6810       0.999990       0.000000         0.0000         0.0000         0.0000      0.0000000       0.000000       0.000010       0.000010       0.000010         1.0000         0.0427
       9692.50      7989.3628        25.4460        17.5345        19.6995       0.107000         2.6982       0.999990       0.000000         0.0000         0.0000         0.0000      0.0000000       0.000000       0.000010       0.000010       0.000010         1.0000         0.0427
       9693.00      7989.7926        27.5458        16.4700        16.3922       0.109200         2.6957       0.999990       0.000000         0.0000         0.0000         0.0000      0.0000000       0.000000       0.000010       0.000010       0.000010         1.0000         0.0427
       9693.50      7990.2225        36.1917        13.0051        12.4673       0.112800         2.6988       0.999990       0.000000         0.0000         0.0000         0.0000      0.0000000       0.000000       0.000010       0.000010       0.000010         1.0000         0.0427
       9694.00      7990.6523        43.3904         9.6880         9.8641       0.112100         2.6647       0.999990       0.000000         0.0000         0.0000         0.0000      0.0000000       0.000000       0.000010       0.000010       0.000010         1.0000         0.0427
       9694.50      7991.0822        49.4354         9.4846         8.9327       0.115700         2.6462       0.999990       0.000000         0.0000         0.0000         0.0000      0.0000000       0.000000       0.000010       0.000010       0.000010         1.0000         0.0427
       9695.00      7991.5120        51.7361         8.6603         7.7601       0.125000         2.6268       0.999990       0.000000         0.0000         0.0000         0.0000      0.0000000       0.000000       0.000010       0.000010       0.000010         1.0000         0.0427
       9695.50      7991.9419        57.4355         7.8192         6.4636       0.143200         2.6172       0.000000       0.478925         0.5211         0.0000         0.0000      0.0000000       0.000000       0.000000       0.000000       0.000000         1.0000         0.0427
       9696.00      7992.3718        65.4349         6.3424         5.2716       0.163100         2.5985       0.000000       0.377588         0.6224         0.0000         0.0000      0.0000000       0.000000       0.000000       0.000000       0.000000         1.0000         0.0427
