~Version Information Block
VERS .                  2.0:  CWLS LOG ASCII STANDARD - VERSION 2.0
WRAP .                   NO:  One line per depth step
~Well Information Block
#MNEM.UNIT        Data Type   Information
#---------- ----------------  -----------
STRT .FT               0.00:  START DEPTH
STOP .FT           10065.00:  STOP DEPTH
STEP .FT               0.50:  STEP
NULL .              -999.25:  NULL VALUE
COMP .                     :  COMPANY
WELL .               STA-38:  WELL
FLD  .                     :  FIELD
LOC  .                     :  LOCATION
CTRY .                     :  COUNTRY
STAT .                     :  STATE
CNTY .                     :  COUNTY
SRVC .                     :  SERVICE COMPANY
DATE .                     :  DATE
API  .                     :  API NUMBER
UWI  .                     :  UNIQUE WELL ID
~Curve Information Block
#MNEM.UNIT         API CODE   Curve Description
#---------- ----------------  -----------------
DEPTH.FT                   :  Depth
TVDSS.FT                   :  Reference TVD sub-sea log.
GR   .GAPI                 :  Gamma Ray
RT   .OHMM                 :  True Resistivity
RXO  .OHMM                 :  Flushed Zone Resistivity
NPHI .V/V                  :  Neutron Porosity
RHOB .G/C3                 :  Bulk Density
VCALCITE.V/V                  :  Calcite Volume Fraction
VQUARTZ.V/V                  :  Quartz Volume Fraction
VSH  .V/V                  :  Wet Cl/Sh 1 Volume Fraction
VCOAL.V/V                  :  Coal Volume Fraction
VORGSH.V/V                  :  Organic Shale Volume Fraction
VGAS .V/V                  :  X Gas Volume Fraction
VOIL .V/V                  :  X Oil Volume Fraction
VWATER.V/V                  :  X Water Volume Fraction
PHIT .V/V                  :  Total Porosity
PHIE .V/V                  :  Limited Effective Porosity
SWE  .V/V                  :  Effective Water Saturation
PERM .MD                   :  Permeability
~Parameter Information Block
#MNEM.UNIT            Value   Description
#---------- ----------------  -----------
PROJECT.            SANTAN_FE:  
~Other Information Block
# 
~A       DEPTH          TVDSS             GR             RT            RXO           NPHI           RHOB       VCALCITE        VQUARTZ            VSH          VCOAL         VORGSH           VGAS           VOIL         VWATER           PHIT           PHIE            SWE           PERM 
# ...
       5636.50      4501.8734        80.8750         1.5619         1.4461       0.446500         2.2904       0.000000       0.031663         0.9170         0.0000         0.0000      0.0000000       0.007200       0.044097       0.051298       0.022321         0.8596         0.1367
       5637.00      4502.1810        82.8966         1.4300         1.3865       0.453600         2.2957       0.000000       0.009407         0.9472         0.0000         0.0000      0.0000000       0.004368       0.038976       0.043344       0.013565         0.8992         0.0885
       5637.50      4502.4886        85.2417         1.3720         1.3577       0.430600         2.2972       0.000000       0.000000         0.9623         0.0000         0.0000      0.0000000       0.002861       0.034887       0.037748       0.009387         0.9242         0.0712
       5638.00      4502.7962        82.9917         1.4551         1.3912       0.421000         2.2966       0.000000       0.018903         0.9384         0.0000         0.0000      0.0000000       0.004263       0.038411       0.042674       0.016081         0.9001         0.1006
       5638.50      4503.1038        79.7638         1.5613         1.4426       0.420700         2.2932       0.000000       0.053765         0.8933         0.0000         0.0000      0.0000000       0.006929       0.045962       0.052891       0.029426         0.8690         0.1903
       5639.00      4503.4114        76.5187         1.5825         1.4726       0.438900         2.3036       0.000000       0.090748         0.8534         0.0000         0.0000      0.0000000       0.006876       0.048958       0.055834       0.041747         0.8768         0.3228
       5639.50      4503.7190        74.2687         1.5011         1.4761       0.456900         2.3178       0.000000       0.118552         0.8271         0.0000         0.0000      0.0000000       0.004755       0.049570       0.054325       0.050055         0.9125         0.4463
       5640.00      4504.0266        77.9461         1.5372         1.4992       0.460500         2.3258       0.000000       0.080828         0.8791         0.0000         0.0000      0.0000000       0.003630       0.036471       0.040101       0.033784         0.9095         0.2310
       5640.50      4504.3342        79.3415         1.5159         1.5020       0.443700         2.3265       0.000000       0.070661         0.8933         0.0000         0.0000      0.0000000       0.003033       0.033054       0.036086       0.029452         0.9160         0.1905
       5641.00      4504.6418        81.0368         1.5251         1.4999       0.424300         2.3218       0.000000       0.054759         0.9111         0.0000         0.0000      0.0000000       0.003088       0.031050       0.034137       0.024082         0.9095         0.1486
       5641.50      4504.9494        79.2374         1.5167         1.4907       0.392300         2.3303       0.000000       0.089804         0.8757         0.0000         0.0000      0.0000000       0.002275       0.032245       0.034520       0.034520         0.9341         0.2385
       5642.00      4505.2571        80.3374         1.5389         1.4826       0.375500         2.3337       0.000000       0.084808         0.8860         0.0000         0.0000      0.0016776       0.000000       0.027483       0.029161       0.029161         0.9425         0.1880
       5642.50      4505.5647        77.7421         1.5810         1.4686       0.385000         2.3416       0.999990       0.000000         0.0000         0.0000         0.0000      0.0000000       0.000000       0.000010       0.000010       0.000010         1.0000         0.0427
       5643.00      4505.8724        76.3954         1.6237         1.5068       0.411100         2.3412       0.999990       0.000000         0.0000         0.0000         0.0000      0.0000000       0.000000       0.000010       0.000010       0.000010         1.0000         0.0427
       5643.50      4506.1801        73.2250         1.6406         1.5792       0.421200         2.3489       0.999990       0.000000         0.0000         0.0000         0.0000      0.0000000       0.000000       0.000010       0.000010       0.000010         1.0000         0.0427
       5644.00      4506.4878        68.2750         2.2846         1.7653       0.417200         2.3506       0.999990       0.000000         0.0000         0.0000         0.0000      0.0000000       0.000000       0.000010       0.000010       0.000010         1.0000         0.0427
       5644.50      4506.7955        65.2673         2.9471         2.0212       0.425100         2.3552       0.999990       0.000000         0.0000         0.0000         0.0000      0.0000000       0.000000       0.000010       0.000010       0.000010         1.0000         0.0427
       5645.00      4507.1033        58.5923         3.2153         2.3466       0.416800         2.3505       0.999990       0.000000         0.0000         0.0000         0.0000      0.0000000       0.000000       0.000010       0.000010       0.000010         1.0000         0.0427
       5645.50      4507.4111        54.3907         3.6226         2.9282       0.390500         2.3555       0.999990       0.000000         0.0000         0.0000         0.0000      0.0000000       0.000000       0.000010       0.000010       0.000010         1.0000         0.0427
       5646.00      4507.7189        48.3471         3.8459         3.6103       0.339900         2.3796       0.999990       0.000000         0.0000         0.0000         0.0000      0.0000000       0.000000       0.000010       0.000010       0.000010         1.0000         0.0427
       5646.50      4508.0267        45.7200         5.2090         4.7090       0.308400         2.4173       0.999990       0.000000         0.0000         0.0000         0.0000      0.0000000       0.000000       0.000010       0.000010       0.000010         1.0000         0.0427
       5647.00      4508.3346        40.8697         7.6955         7.0221       0.288000         2.4592       0.999990       0.000000         0.0000         0.0000         0.0000      0.0000000       0.000000       0.000010       0.000010       0.000010         1.0000         0.0427
       5647.50      4508.6425        34.7700         8.2933         8.1418       0.265100         2.4862       0.999990       0.000000         0.0000         0.0000         0.0000      0.0000000       0.000000       0.000010       0.000010       0.000010         1.0000         0.0427
       5648.00      4508.9504        31.7706         7.9424         8.3048       0.250900         2.5145       0.999990       0.000000         0.0000         0.0000         0.0000      0.0000000       0.000000       0.000010       0.000010       0.000010         1.0000         0.0427
       5648.50      4509.2583        31.4715         7.7613         8.4196       0.250500         2.5159       0.999990       0.000000         0.0000         0.0000         0.0000      0.0000000       0.000000       0.000010       0.000010       0.000010         1.0000         0.0427
       5649.00      4509.5662        35.6702         8.8169         7.8280       0.264300         2.4989       0.999990       0.000000         0.0000         0.0000         0.0000      0.0000000       0.000000       0.000010       0.000010       0.000010         1.0000         0.0427
       5649.50      4509.8742        36.9467         9.1632         6.0849       0.298800         2.4806       0.999990       0.000000         0.0000         0.0000         0.0000      0.0000000       0.000000       0.000010       0.000010       0.000010         1.0000         0.0427
       5650.00      4510.1822        41.0977         6.6494         4.8198       0.312500         2.4227       0.999990       0.000000         0.0000         0.0000         0.0000      0.0000000       0.000000       0.000010       0.000010       0.000010         1.0000         0.0427
       5650.50      4510.4902        42.2987         5.1364         4.2838       0.347900         2.3697       0.999990       0.000000         0.0000         0.0000         0.0000      0.0000000       0.000000       0.000010       0.000010       0.000010         1.0000         0.0427
