~Version Information Block
VERS .                  2.0:  CWLS LOG ASCII STANDARD - VERSION 2.0
WRAP .                   NO:  One line per depth step
~Well Information Block
#MNEM.UNIT        Data Type   Information
#---------- ----------------  -----------
STRT .FT               0.00:  START DEPTH
STOP .FT           10065.00:  STOP DEPTH
STEP .FT               0.50:  STEP
NULL .              -999.25:  NULL VALUE
COMP .                     :  COMPANY
WELL .               STA-38:  WELL
FLD  .                     :  FIELD
LOC  .                     :  LOCATION
CTRY .                     :  COUNTRY
STAT .                     :  STATE
CNTY .                     :  COUNTY
SRVC .                     :  SERVICE COMPANY
DATE .                     :  DATE
API  .                     :  API NUMBER
UWI  .                     :  UNIQUE WELL ID
~Curve Information Block
#MNEM.UNIT         API CODE   Curve Description
#---------- ----------------  -----------------
DEPTH.FT                   :  Depth
TVDSS.FT                   :  Reference TVD sub-sea log.
GR   .GAPI                 :  Gamma Ray
RT   .OHMM                 :  True Resistivity
RXO  .OHMM                 :  Flushed Zone Resistivity
NPHI .V/V                  :  Neutron Porosity
RHOB .G/C3                 :  Bulk Density
VCALCITE.V/V                  :  Calcite Volume Fraction
VQUARTZ.V/V                  :  Quartz Volume Fraction
VSH  .V/V                  :  Wet Cl/Sh 1 Volume Fraction
VCOAL.V/V                  :  Coal Volume Fraction
VORGSH.V/V                  :  Organic Shale Volume Fraction
VGAS .V/V                  :  X Gas Volume Fraction
VOIL .V/V                  :  X Oil Volume Fraction
VWATER.V/V                  :  X Water Volume Fraction
PHIT .V/V                  :  Total Porosity
PHIE .V/V                  :  Limited Effective Porosity
SWE  .V/V                  :  Effective Water Saturation
PERM .MD                   :  Permeability
~Parameter Information Block
#MNEM.UNIT            Value   Description
#---------- ----------------  -----------
PROJECT.            SANTAN_FE:  
~Other Information Block
# 
~A       DEPTH          TVDSS             GR             RT            RXO           NPHI           RHOB       VCALCITE        VQUARTZ            VSH          VCOAL         VORGSH           VGAS           VOIL         VWATER           PHIT           PHIE            SWE           PERM 
# ...
       8667.00      7154.4822        66.6694         2.9202         2.8395       0.206700         2.5072       0.000000       0.348234         0.6229         0.0000         0.0000      0.0000000       0.004887       0.023945       0.028833       0.028833         0.8305         0.1853
       8667.50      7154.9111        69.0330         2.8421         2.7767       0.207800         2.5097       0.000000       0.322539         0.6529         0.0000         0.0000      0.0000000       0.004231       0.020338       0.024569       0.024569         0.8278         0.1521
       8668.00      7155.3399        67.8312         2.8124         2.7656       0.209100         2.5039       0.000000       0.332503         0.6383         0.0000         0.0000      0.0000000       0.005044       0.024198       0.029242       0.029242         0.8275         0.1887
       8668.50      7155.7686        66.2142         2.9814         2.8824       0.204800         2.4917       0.000000       0.345155         0.6173         0.0000         0.0000      0.0000000       0.007751       0.029768       0.037519       0.037519         0.7934         0.2710
       8669.00      7156.1972        60.5143         3.0158         2.9547       0.202100         2.4905       0.000000       0.409574         0.5450         0.0000         0.0000      0.0000000       0.007402       0.038063       0.045465       0.045465         0.8372         0.3744
       8669.50      7156.6258        57.3516         3.0404         3.0116       0.194400         2.4949       0.000000       0.449645         0.5032         0.0000         0.0000      0.0000000       0.005680       0.041482       0.047162       0.047162         0.8796         0.3999
       8670.00      7157.0543        56.0076         3.1279         3.1082       0.188100         2.4998       0.000000       0.469241         0.4846         0.0000         0.0000      0.0000000       0.004781       0.041345       0.046126       0.046126         0.8963         0.3842
       8670.50      7157.4827        57.1822         3.2188         3.2281       0.179200         2.4985       0.000000       0.457693         0.4974         0.0000         0.0000      0.0000000       0.006064       0.038805       0.044869       0.044869         0.8658         0.3657
       8671.00      7157.9111        56.8232         3.2066         3.2564       0.177700         2.4759       0.000000       0.450005         0.4939         0.0000         0.0000      0.0037120       0.006504       0.045853       0.056069       0.056069         0.8252         0.5550
       8671.50      7158.3393        54.8722         3.1970         3.2759       0.175400         2.4692       0.000000       0.468684         0.4691         0.0000         0.0000      0.0033150       0.007643       0.051293       0.062251       0.062251         0.8359         0.6845
       8672.00      7158.7675        51.4091         3.4022         3.3970       0.176100         2.4530       0.000000       0.497993         0.4258         0.0000         0.0000      0.0000000       0.014304       0.061867       0.076171       0.076171         0.8122         1.0307
       8672.50      7159.1957        49.8764         3.3994         3.3539       0.179900         2.4349       0.000000       0.504254         0.4082         0.0000         0.0000      0.0008383       0.016839       0.069828       0.087505       0.087505         0.7980         1.3882
       8673.00      7159.6238        49.8766         2.9938         2.9502       0.181400         2.3963       0.000000       0.484433         0.4128         0.0000         0.0000      0.0205083       0.000082       0.082147       0.102737       0.102737         0.7996         2.0712
       8673.50      7160.0517        51.6003         2.7569         2.7640       0.181500         2.3726       0.000000       0.451684         0.4368         0.0000         0.0000      0.0257064       0.000000       0.085840       0.111546       0.111546         0.7777         2.6106
       8674.00      7160.4797        52.8679         2.7904         2.8764       0.186700         2.3731       0.000000       0.437544         0.4538         0.0000         0.0000      0.0278686       0.000000       0.080748       0.108617       0.108617         0.7615         2.4172
       8674.50      7160.9075        54.7451         2.8785         2.9602       0.195300         2.4034       0.000000       0.430401         0.4766         0.0000         0.0000      0.0186679       0.004020       0.070320       0.093007       0.093007         0.7686         1.6040
       8675.00      7161.3353        57.3323         2.8963         2.9032       0.206300         2.4383       0.000000       0.415058         0.5078         0.0000         0.0000      0.0000000       0.016989       0.060153       0.077142       0.077142         0.7807         1.0573
       8675.50      7161.7630        59.9960         2.8864         2.8460       0.206300         2.4524       0.000000       0.392866         0.5408         0.0000         0.0000      0.0000000       0.014301       0.052030       0.066331       0.066331         0.7844         0.7799
       8676.00      7162.1907        57.3064         2.8678         2.8162       0.208500         2.4247       0.000000       0.407571         0.5088         0.0000         0.0000      0.0027142       0.016697       0.064178       0.083589       0.083589         0.7678         1.2524
       8676.50      7162.6182        52.9906         2.8108         2.7679       0.206900         2.3882       0.000000       0.437073         0.4566         0.0000         0.0000      0.0098784       0.015088       0.081382       0.106348       0.106348         0.7652         2.2774
       8677.00      7163.0457        49.9737         2.7809         2.7464       0.211000         2.3740       0.000000       0.461012         0.4193         0.0000         0.0000      0.0038288       0.023381       0.092500       0.119710       0.119710         0.7727         3.2351
       8677.50      7163.4732        50.0290         2.8405         2.7679       0.211700         2.3722       0.000000       0.459444         0.4202         0.0000         0.0000      0.0041036       0.024383       0.091846       0.120333       0.120333         0.7633         3.2885
       8678.00      7163.9005        49.8441         2.8351         2.7225       0.212300         2.3693       0.000000       0.459741         0.4182         0.0000         0.0000      0.0045142       0.024191       0.093346       0.122051       0.122051         0.7648         3.4403
       8678.50      7164.3278        48.6624         2.8134         2.6495       0.215300         2.3383       0.000000       0.456424         0.4065         0.0000         0.0000      0.0137684       0.021272       0.101998       0.137038       0.137038         0.7443         5.1004
       8679.00      7164.7550        47.7342         2.7846         2.5576       0.216200         2.3022       0.000000       0.448698         0.3986         0.0000         0.0000      0.0282409       0.014119       0.110386       0.152745       0.152745         0.7227         7.7059
       8679.50      7165.1822        47.7739         2.6086         2.4358       0.214200         2.2836       0.000000       0.439597         0.4011         0.0000         0.0000      0.0401984       0.003054       0.116068       0.159321       0.159321         0.7285         9.1591
       8680.00      7165.6093        48.2602         2.4966         2.3898       0.201300         2.2963       0.000000       0.442744         0.4042         0.0000         0.0000      0.0381008       0.000000       0.114994       0.153095       0.153095         0.7511         7.7770
       8680.50      7166.0363        48.5227         2.6162         2.5215       0.199400         2.3307       0.000000       0.459086         0.4041         0.0000         0.0000      0.0308895       0.000000       0.105878       0.136768       0.136768         0.7741         5.0643
       8681.00      7166.4632        50.2466         2.6524         2.5989       0.201500         2.3689       0.000000       0.458746         0.4227         0.0000         0.0000      0.0170102       0.007221       0.094348       0.118579       0.118579         0.7957         3.1404
