~Version Information Block
VERS .                  2.0:  CWLS LOG ASCII STANDARD - VERSION 2.0
WRAP .                   NO:  One line per depth step
~Well Information Block
#MNEM.UNIT        Data Type   Information
#---------- ----------------  -----------
STRT .FT               0.00:  START DEPTH
STOP .FT           10065.00:  STOP DEPTH
STEP .FT               0.50:  STEP
NULL .              -999.25:  NULL VALUE
COMP .                     :  COMPANY
WELL .               STA-38:  WELL
FLD  .                     :  FIELD
LOC  .                     :  LOCATION
CTRY .                     :  COUNTRY
STAT .                     :  STATE
CNTY .                     :  COUNTY
SRVC .                     :  SERVICE COMPANY
DATE .                     :  DATE
API  .                     :  API NUMBER
UWI  .                     :  UNIQUE WELL ID
~Curve Information Block
#MNEM.UNIT         API CODE   Curve Description
#---------- ----------------  -----------------
DEPTH.FT                   :  Depth
TVDSS.FT                   :  Reference TVD sub-sea log.
GR   .GAPI                 :  Gamma Ray
RT   .OHMM                 :  True Resistivity
RXO  .OHMM                 :  Flushed Zone Resistivity
NPHI .V/V                  :  Neutron Porosity
RHOB .G/C3                 :  Bulk Density
VCALCITE.V/V                  :  Calcite Volume Fraction
VQUARTZ.V/V                  :  Quartz Volume Fraction
VSH  .V/V                  :  Wet Cl/Sh 1 Volume Fraction
VCOAL.V/V                  :  Coal Volume Fraction
VORGSH.V/V                  :  Organic Shale Volume Fraction
VGAS .V/V                  :  X Gas Volume Fraction
VOIL .V/V                  :  X Oil Volume Fraction
VWATER.V/V                  :  X Water Volume Fraction
PHIT .V/V                  :  Total Porosity
PHIE .V/V                  :  Limited Effective Porosity
SWE  .V/V                  :  Effective Water Saturation
PERM .MD                   :  Permeability
~Parameter Information Block
#MNEM.UNIT            Value   Description
#---------- ----------------  -----------
PROJECT.            SANTAN_FE:  
~Other Information Block
# 
~A       DEPTH          TVDSS             GR             RT            RXO           NPHI           RHOB       VCALCITE        VQUARTZ            VSH          VCOAL         VORGSH           VGAS           VOIL         VWATER           PHIT           PHIE            SWE           PERM 
# ...
       6985.00      5528.9358        59.0532         1.0332         1.0627       0.316100         2.3114       0.000000       0.279341         0.6158         0.0000         0.0000      0.0000000       0.000000       0.104827       0.104827       0.104827         1.0000         2.1881
       6985.50      5529.4115        59.8926         1.0821         1.0597       0.314300         2.3040       0.000000       0.274110         0.6199         0.0000         0.0000      0.0000000       0.000000       0.106023       0.106023       0.106023         1.0000         2.2580
       6986.00      5529.8872        62.1229         1.0534         1.0112       0.305500         2.3028       0.000000       0.250688         0.6477         0.0000         0.0000      0.0000000       0.000000       0.101578       0.101578       0.101578         1.0000         2.0091
       6986.50      5530.3630        66.1611         0.9520         0.9366       0.312500         2.3022       0.000000       0.200324         0.7062         0.0000         0.0000      0.0000000       0.000000       0.093475       0.093475       0.086446         1.0000         1.3500
       6987.00      5530.8388        67.9612         0.8649         0.8678       0.319600         2.3121       0.000000       0.174157         0.7391         0.0000         0.0000      0.0000000       0.000000       0.086759       0.086759       0.075863         1.0000         1.0224
       6987.50      5531.3146        67.4181         0.8121         0.8070       0.320600         2.3106       0.000000       0.169454         0.7398         0.0000         0.0000      0.0000000       0.000000       0.090762       0.090762       0.075638         1.0000         1.0163
       6988.00      5531.7905        68.2431         0.9142         0.8511       0.315800         2.3127       0.000000       0.174978         0.7397         0.0000         0.0000      0.0000000       0.000000       0.085312       0.085312       0.075660         1.0000         1.0169
       6988.50      5532.2664        69.9706         0.8968         0.8544       0.310400         2.3274       0.000000       0.164595         0.7605         0.0000         0.0000      0.0000000       0.000000       0.074872       0.074872       0.069029         1.0000         0.8472
       6989.00      5532.7424        67.7541         0.8526         0.8805       0.309300         2.3217       0.000000       0.181261         0.7358         0.0000         0.0000      0.0000000       0.000000       0.082945       0.082945       0.076911         1.0000         1.0509
       6989.50      5533.2184        61.1087         0.9883         1.0929       0.298300         2.2595       0.000000       0.253656         0.6203         0.0000         0.0000      0.0000000       0.000000       0.126023       0.126023       0.114604         1.0000         2.8290
       6990.00      5533.6944        48.9202         1.6672         2.0501       0.260300         2.1312       0.000000       0.366797         0.4356         0.0000         0.0000      0.0588192       0.000000       0.138783       0.197602       0.177248         0.8159        14.6688
       6990.50      5534.1704        38.8398         2.7907         3.2324       0.208700         2.0415       0.000000       0.457030         0.2952         0.0000         0.0000      0.1088183       0.000000       0.138959       0.247778       0.226311         0.6288        53.2360
       6991.00      5534.6465        33.0719         3.3603         3.4793       0.166300         1.9980       0.000000       0.512277         0.2094         0.0000         0.0000      0.1274607       0.000000       0.150890       0.278351       0.256797         0.5829       118.5903
       6991.50      5535.1226        33.8441         3.0923         2.9552       0.157200         2.0228       0.000000       0.514529         0.2136         0.0000         0.0000      0.1115295       0.000000       0.160298       0.271828       0.255267         0.6196       113.9179
       6992.00      5535.5988        41.3440         2.2908         2.1561       0.175000         2.0900       0.000000       0.452681         0.3131         0.0000         0.0000      0.0752630       0.000000       0.158985       0.234247       0.219992         0.7156        45.0934
       6992.50      5536.0750        50.2751         1.4660         1.4492       0.209700         2.1807       0.000000       0.379029         0.4366         0.0000         0.0000      0.0277622       0.000000       0.156588       0.184350       0.176880         0.9117        14.5278
       6993.00      5536.5512        58.5386         1.0487         1.0492       0.255300         2.2592       0.000000       0.287846         0.5789         0.0000         0.0000      0.0000000       0.000000       0.133289       0.133289       0.128426         1.0000         4.0676
       6993.50      5537.0275        63.3965         0.9095         0.9072       0.306500         2.2993       0.000000       0.220159         0.6771         0.0000         0.0000      0.0000000       0.000000       0.102719       0.102719       0.095879         1.0000         1.7297
       6994.00      5537.5038        65.1663         0.8876         0.8683       0.340900         2.3081       0.000000       0.194407         0.7108         0.0000         0.0000      0.0000000       0.000000       0.094808       0.094808       0.084941         1.0000         1.2977
       6994.50      5537.9802        66.5536         0.8673         0.8429       0.360700         2.3141       0.000000       0.175940         0.7348         0.0000         0.0000      0.0000000       0.000000       0.089305       0.089305       0.077229         1.0000         1.0597
       6995.00      5538.4565        64.1551         0.8696         0.8686       0.347700         2.3086       0.000000       0.200420         0.7023         0.0000         0.0000      0.0000000       0.000000       0.097233       0.097233       0.087668         1.0000         1.3941
       6995.50      5538.9329        62.5662         0.9302         0.9330       0.341300         2.3104       0.000000       0.225861         0.6755         0.0000         0.0000      0.0000000       0.000000       0.098604       0.098604       0.096391         1.0000         1.7532
       6996.00      5539.4094        61.4046         1.0126         1.0072       0.323800         2.2992       0.000000       0.249039         0.6455         0.0000         0.0000      0.0000000       0.000000       0.105449       0.105449       0.105449         1.0000         2.2242
       6996.50      5539.8859        62.5452         1.0385         1.0276       0.331800         2.2835       0.000000       0.236814         0.6534         0.0000         0.0000      0.0000000       0.000000       0.109789       0.109789       0.103646         1.0000         2.1213
       6997.00      5540.3624        61.8255         1.0048         1.0152       0.344300         2.2575       0.000000       0.231725         0.6432         0.0000         0.0000      0.0000000       0.000000       0.125098       0.125098       0.107010         1.0000         2.3173
       6997.50      5540.8390        61.0025         1.0762         1.0845       0.349800         2.2364       0.000000       0.244515         0.6182         0.0000         0.0000      0.0000000       0.000000       0.137245       0.137245       0.115263         1.0000         2.8784
       6998.00      5541.3155        59.5018         1.1385         1.1413       0.347400         2.2271       0.000000       0.262184         0.5931         0.0000         0.0000      0.0027117       0.000000       0.141961       0.144673       0.123623         0.9904         3.5854
       6998.50      5541.7922        56.9979         1.1613         1.1604       0.322800         2.2275       0.000000       0.295853         0.5524         0.0000         0.0000      0.0021445       0.000000       0.149616       0.151760       0.137309         1.0000         5.1368
       6999.00      5542.2688        54.5219         1.1886         1.1868       0.302000         2.2254       0.000000       0.325915         0.5144         0.0000         0.0000      0.0023457       0.000000       0.157351       0.159697       0.150182         1.0000         7.2040
