~Version Information Block
VERS .                  2.0:  CWLS LOG ASCII STANDARD - VERSION 2.0
WRAP .                   NO:  One line per depth step
~Well Information Block
#MNEM.UNIT        Data Type   Information
#---------- ----------------  -----------
STRT .FT               0.00:  START DEPTH
STOP .FT           10065.00:  STOP DEPTH
STEP .FT               0.50:  STEP
NULL .              -999.25:  NULL VALUE
COMP .                     :  COMPANY
WELL .               STA-38:  WELL
FLD  .                     :  FIELD
LOC  .                     :  LOCATION
CTRY .                     :  COUNTRY
STAT .                     :  STATE
CNTY .                     :  COUNTY
SRVC .                     :  SERVICE COMPANY
DATE .                     :  DATE
API  .                     :  API NUMBER
UWI  .                     :  UNIQUE WELL ID
~Curve Information Block
#MNEM.UNIT         API CODE   Curve Description
#---------- ----------------  -----------------
DEPTH.FT                   :  Depth
TVDSS.FT                   :  Reference TVD sub-sea log.
GR   .GAPI                 :  Gamma Ray
RT   .OHMM                 :  True Resistivity
RXO  .OHMM                 :  Flushed Zone Resistivity
NPHI .V/V                  :  Neutron Porosity
RHOB .G/C3                 :  Bulk Density
VCALCITE.V/V                  :  Calcite Volume Fraction
VQUARTZ.V/V                  :  Quartz Volume Fraction
VSH  .V/V                  :  Wet Cl/Sh 1 Volume Fraction
VCOAL.V/V                  :  Coal Volume Fraction
VORGSH.V/V                  :  Organic Shale Volume Fraction
VGAS .V/V                  :  X Gas Volume Fraction
VOIL .V/V                  :  X Oil Volume Fraction
VWATER.V/V                  :  X Water Volume Fraction
PHIT .V/V                  :  Total Porosity
PHIE .V/V                  :  Limited Effective Porosity
SWE  .V/V                  :  Effective Water Saturation
PERM .MD                   :  Permeability
~Parameter Information Block
#MNEM.UNIT            Value   Description
#---------- ----------------  -----------
PROJECT.            SANTAN_FE:  
~Other Information Block
# 
~A       DEPTH          TVDSS             GR             RT            RXO           NPHI           RHOB       VCALCITE        VQUARTZ            VSH          VCOAL         VORGSH           VGAS           VOIL         VWATER           PHIT           PHIE            SWE           PERM 
# ...
      10015.50      8270.0027        82.3753         2.1196         2.1046       0.242400         2.5537       0.000000       0.150743         0.8425         0.0000         0.0000      0.0004023       0.000000       0.006314       0.006716       0.006716         0.9401         0.0618
      10016.00      8270.4392        84.1878         2.0069         2.0138       0.248000         2.5576       0.000000       0.131767         0.8649         0.0000         0.0000      0.0000993       0.000000       0.003217       0.003316       0.003316         0.9721         0.0513
      10016.50      8270.8756        87.7399         1.9661         1.9593       0.240700         2.5571       0.000000       0.094774         0.9049         0.0000         0.0000      0.0000083       0.000000       0.000340       0.000348       0.000348         1.0000         0.0435
      10017.00      8271.3121        87.2450         1.9985         1.9488       0.244600         2.5608       0.000000       0.101061         0.8989         0.0000         0.0000      0.0000000       0.000000       0.000000       0.000000       0.000000         1.0000         0.0427
      10017.50      8271.7485        87.4932         2.0306         1.9560       0.251700         2.5626       0.000000       0.097558         0.9024         0.0000         0.0000      0.0000000       0.000000       0.000000       0.000000       0.000000         1.0000         0.0427
      10018.00      8272.1850        87.8932         2.1913         2.0448       0.252000         2.5567       0.000000       0.090114         0.9090         0.0000         0.0000      0.0000634       0.000000       0.000800       0.000864       0.000864         1.0000         0.0448
      10018.50      8272.6215        85.1957         2.2060         2.0698       0.245200         2.5582       0.000000       0.121872         0.8761         0.0000         0.0000      0.0001274       0.000000       0.001896       0.002023       0.002023         0.9370         0.0478
      10019.00      8273.0579        84.4428         2.2542         2.1840       0.231000         2.5569       0.000000       0.132842         0.8643         0.0000         0.0000      0.0002323       0.000000       0.002652       0.002884       0.002884         0.9195         0.0501
      10019.50      8273.4944        79.1810         2.4112         2.4627       0.216300         2.5695       0.000000       0.200339         0.7997         0.0000         0.0000      0.0000000       0.000000       0.000000       0.000000       0.000000         1.0000         0.0427
      10020.00      8273.9308        72.5883         2.9136         3.1382       0.193900         2.5799       0.999990       0.000000         0.0000         0.0000         0.0000      0.0000000       0.000000       0.000010       0.000010       0.000010         1.0000         0.0427
      10020.50      8274.3673        62.2931         3.8217         4.2478       0.170800         2.6032       0.999990       0.000000         0.0000         0.0000         0.0000      0.0000000       0.000000       0.000010       0.000010       0.000010         1.0000         0.0427
      10021.00      8274.8038        55.9042         4.6772         5.0249       0.151600         2.6005       0.999990       0.000000         0.0000         0.0000         0.0000      0.0000000       0.000000       0.000010       0.000010       0.000010         1.0000         0.0427
      10021.50      8275.2402        55.0453         5.0230         5.0772       0.139800         2.5813       0.999990       0.000000         0.0000         0.0000         0.0000      0.0000000       0.000000       0.000010       0.000010       0.000010         1.0000         0.0427
      10022.00      8275.6767        53.9453         5.0530         5.0150       0.136800         2.5564       0.999990       0.000000         0.0000         0.0000         0.0000      0.0000000       0.000000       0.000010       0.000010       0.000010         1.0000         0.0427
      10022.50      8276.1131        52.8454         4.8747         4.8535       0.145400         2.5333       0.999990       0.000000         0.0000         0.0000         0.0000      0.0000000       0.000000       0.000010       0.000010       0.000010         1.0000         0.0427
      10023.00      8276.5496        53.4970         4.5597         4.4506       0.152300         2.5260       0.000000       0.472839         0.4875         0.0000         0.0000      0.0088646       0.000000       0.030776       0.039640       0.039640         0.7764         0.2962
      10023.50      8276.9861        56.7970         4.1443         4.0174       0.159700         2.5117       0.000000       0.427937         0.5278         0.0000         0.0000      0.0110917       0.000000       0.033181       0.044273       0.044273         0.7495         0.3572
      10024.00      8277.4225        60.2483         3.7745         3.6912       0.165100         2.5003       0.000000       0.383346         0.5693         0.0000         0.0000      0.0127772       0.000000       0.034586       0.047363       0.047363         0.7302         0.4030
      10024.50      8277.8590        60.5947         3.6481         3.5859       0.172000         2.4878       0.000000       0.371760         0.5750         0.0000         0.0000      0.0150687       0.000000       0.038185       0.053254       0.053254         0.7170         0.5020
      10025.00      8278.2955        59.0886         3.5024         3.4395       0.181400         2.4840       0.000000       0.383781         0.5593         0.0000         0.0000      0.0148453       0.000000       0.042037       0.056882       0.056882         0.7390         0.5710
      10025.50      8278.7319        59.9388         3.3518         3.3115       0.182100         2.4944       0.000000       0.379264         0.5691         0.0000         0.0000      0.0120573       0.000000       0.039580       0.051637       0.051637         0.7665         0.4732
      10026.00      8279.1684        63.0364         3.3683         3.2396       0.187100         2.5032       0.000000       0.349056         0.6061         0.0000         0.0000      0.0108208       0.000000       0.034010       0.044831       0.044831         0.7586         0.3652
      10026.50      8279.6048        66.7517         3.1440         3.1147       0.186500         2.5149       0.000000       0.314547         0.6490         0.0000         0.0000      0.0082566       0.000000       0.028160       0.036416       0.036416         0.7738         0.2587
      10027.00      8280.0413        69.0532         3.0477         2.9838    -999.250000         2.5170    -999.250000    -999.250000      -999.2500      -999.2500      -999.2500   -999.2500000    -999.250000    -999.250000    -999.250000    -999.250000      -999.2500      -999.2500
      10027.50      8280.4778        69.4217         2.9568         2.9168    -999.250000         2.5164    -999.250000    -999.250000      -999.2500      -999.2500      -999.2500   -999.2500000    -999.250000    -999.250000    -999.250000    -999.250000      -999.2500      -999.2500
      10028.00      8280.9142        69.9085         3.0109         2.9597    -999.250000         2.5150    -999.250000    -999.250000      -999.2500      -999.2500      -999.2500   -999.2500000    -999.250000    -999.250000    -999.250000    -999.250000      -999.2500      -999.2500
      10028.50      8281.3507        68.4694      -999.2500      -999.2500    -999.250000         2.5299    -999.250000    -999.250000      -999.2500      -999.2500      -999.2500   -999.2500000    -999.250000    -999.250000    -999.250000    -999.250000      -999.2500      -999.2500
      10029.00      8281.7871        67.0050      -999.2500      -999.2500    -999.250000         2.5389    -999.250000    -999.250000      -999.2500      -999.2500      -999.2500   -999.2500000    -999.250000    -999.250000    -999.250000    -999.250000      -999.2500      -999.2500
      10029.50      8282.2236        65.1701      -999.2500      -999.2500    -999.250000         2.5341    -999.250000    -999.250000      -999.2500      -999.2500      -999.2500   -999.2500000    -999.250000    -999.250000    -999.250000    -999.250000      -999.2500      -999.2500
