~Version Information Block
VERS .                  2.0:  CWLS LOG ASCII STANDARD - VERSION 2.0
WRAP .                   NO:  One line per depth step
~Well Information Block
#MNEM.UNIT        Data Type   Information
#---------- ----------------  -----------
STRT .FT               0.00:  START DEPTH
STOP .FT           10065.00:  STOP DEPTH
STEP .FT               0.50:  STEP
NULL .              -999.25:  NULL VALUE
COMP .                     :  COMPANY
WELL .               STA-38:  WELL
FLD  .                     :  FIELD
LOC  .                     :  LOCATION
CTRY .                     :  COUNTRY
STAT .                     :  STATE
CNTY .                     :  COUNTY
SRVC .                     :  SERVICE COMPANY
DATE .                     :  DATE
API  .                     :  API NUMBER
UWI  .                     :  UNIQUE WELL ID
~Curve Information Block
#MNEM.UNIT         API CODE   Curve Description
#---------- ----------------  -----------------
DEPTH.FT                   :  Depth
TVDSS.FT                   :  Reference TVD sub-sea log.
GR   .GAPI                 :  Gamma Ray
RT   .OHMM                 :  True Resistivity
RXO  .OHMM                 :  Flushed Zone Resistivity
NPHI .V/V                  :  Neutron Porosity
RHOB .G/C3                 :  Bulk Density
VCALCITE.V/V                  :  Calcite Volume Fraction
VQUARTZ.V/V                  :  Quartz Volume Fraction
VSH  .V/V                  :  Wet Cl/Sh 1 Volume Fraction
VCOAL.V/V                  :  Coal Volume Fraction
VORGSH.V/V                  :  Organic Shale Volume Fraction
VGAS .V/V                  :  X Gas Volume Fraction
VOIL .V/V                  :  X Oil Volume Fraction
VWATER.V/V                  :  X Water Volume Fraction
PHIT .V/V                  :  Total Porosity
PHIE .V/V                  :  Limited Effective Porosity
SWE  .V/V                  :  Effective Water Saturation
PERM .MD                   :  Permeability
~Parameter Information Block
#MNEM.UNIT            Value   Description
#---------- ----------------  -----------
PROJECT.            SANTAN_FE:  
~Other Information Block
# 
~A       DEPTH          TVDSS             GR             RT            RXO           NPHI           RHOB       VCALCITE        VQUARTZ            VSH          VCOAL         VORGSH           VGAS           VOIL         VWATER           PHIT           PHIE            SWE           PERM 
# ...
       7985.50      6517.6147        47.3120         2.4404         2.4374       0.212600         2.4156       0.000000       0.510779         0.3924         0.0000         0.0000      0.0000000       0.006660       0.090209       0.096870       0.096870         0.9312         1.7753
       7986.00      6518.1085        49.6841         2.5022         2.5155       0.214900         2.4322       0.000000       0.494550         0.4213         0.0000         0.0000      0.0000000       0.006063       0.078052       0.084115       0.084115         0.9293         1.2699
       7986.50      6518.6023        56.4250         2.5929         2.5880       0.208300         2.4529       0.000000       0.437616         0.5018         0.0000         0.0000      0.0054787       0.000462       0.054626       0.060567       0.060567         0.9019         0.6474
       7987.00      6519.0961        63.0300         2.5703         2.5451       0.216800         2.4712       0.000000       0.375267         0.5834         0.0000         0.0000      0.0044974       0.000000       0.036819       0.041316       0.041316         0.8911         0.3172
       7987.50      6519.5899        66.6192         2.4994         2.4864       0.229300         2.4819       0.000000       0.339611         0.6295         0.0000         0.0000      0.0030829       0.000000       0.027837       0.030920       0.030920         0.9003         0.2035
       7988.00      6520.0836        71.6405         2.3858         2.3949       0.235400         2.4946       0.000000       0.291242         0.6914         0.0000         0.0000      0.0013781       0.000000       0.016009       0.017387       0.017387         0.9239         0.1074
       7988.50      6520.5774        75.3886         2.2891         2.3074       0.238900         2.5041       0.000000       0.255508         0.7374         0.0000         0.0000      0.0003362       0.000000       0.006751       0.007087       0.007087         0.9578         0.0630
       7989.00      6521.0711        77.8251         2.1861         2.2037       0.247000         2.5119       0.000000       0.231425         0.7685         0.0000         0.0000      0.0000000       0.000000       0.000066       0.000066       0.000066         1.0000         0.0428
       7989.50      6521.5648        76.8223         2.0995         2.0773       0.256000         2.5088       0.000000       0.236796         0.7594         0.0000         0.0000      0.0000000       0.000000       0.003779       0.003779       0.003779         1.0000         0.0527
       7990.00      6522.0585        78.9957         2.0490         1.9500       0.262100         2.5112       0.000000       0.211399         0.7872         0.0000         0.0000      0.0000000       0.000000       0.001367       0.001367       0.001367         1.0000         0.0461
       7990.50      6522.5521        79.1064         1.9831         1.8145       0.260100         2.5045       0.000000       0.206025         0.7893         0.0000         0.0000      0.0000000       0.000000       0.004695       0.004695       0.004695         1.0000         0.0554
       7991.00      6523.0458        79.8560         1.8808         1.6543       0.263400         2.4968       0.000000       0.191383         0.8002         0.0000         0.0000      0.0000000       0.000000       0.008462       0.008462       0.008462         1.0000         0.0678
       7991.50      6523.5394        79.7448         1.8066         1.5900       0.282300         2.4915       0.000000       0.184496         0.8036         0.0000         0.0000      0.0000000       0.000000       0.011921       0.011921       0.011921         1.0000         0.0813
       7992.00      6524.0330        78.1362         1.7546         1.6077       0.287900         2.5006       0.999990       0.000000         0.0000         0.0000         0.0000      0.0000000       0.000000       0.000010       0.000010       0.000010         1.0000         0.0427
       7992.50      6524.5266        71.3898         1.8616         1.8238       0.268400         2.4957       0.999990       0.000000         0.0000         0.0000         0.0000      0.0000000       0.000000       0.000010       0.000010       0.000010         1.0000         0.0427
       7993.00      6525.0201        58.9019         2.3340         2.3870       0.217000         2.5021       0.999990       0.000000         0.0000         0.0000         0.0000      0.0000000       0.000000       0.000010       0.000010       0.000010         1.0000         0.0427
       7993.50      6525.5137        45.2176         3.3715         3.5400       0.168200         2.5271       0.999990       0.000000         0.0000         0.0000         0.0000      0.0000000       0.000000       0.000010       0.000010       0.000010         1.0000         0.0427
       7994.00      6526.0072        35.5068         5.6052         6.0375       0.135700         2.5813       0.999990       0.000000         0.0000         0.0000         0.0000      0.0000000       0.000000       0.000010       0.000010       0.000010         1.0000         0.0427
       7994.50      6526.5007        31.5101         7.9187         7.8970       0.125700         2.5814       0.999990       0.000000         0.0000         0.0000         0.0000      0.0000000       0.000000       0.000010       0.000010       0.000010         1.0000         0.0427
       7995.00      6526.9942        32.6342         8.0877         6.8785       0.125900         2.5224       0.999990       0.000000         0.0000         0.0000         0.0000      0.0000000       0.000000       0.000010       0.000010       0.000010         1.0000         0.0427
       7995.50      6527.4877        36.7956         5.9298         4.7734       0.140200         2.4655       0.999990       0.000000         0.0000         0.0000         0.0000      0.0000000       0.000000       0.000010       0.000010       0.000010         1.0000         0.0427
       7996.00      6527.9811        39.9331         4.1673         3.5736       0.156000         2.4394       0.999990       0.000000         0.0000         0.0000         0.0000      0.0000000       0.000000       0.000010       0.000010       0.000010         1.0000         0.0427
       7996.50      6528.4745        42.5586         3.3153         3.0034       0.185600         2.4086       0.999990       0.000000         0.0000         0.0000         0.0000      0.0000000       0.000000       0.000010       0.000010       0.000010         1.0000         0.0427
       7997.00      6528.9679        41.3583         2.7615         2.5360       0.216100         2.3712       0.999990       0.000000         0.0000         0.0000         0.0000      0.0000000       0.000000       0.000010       0.000010       0.000010         1.0000         0.0427
       7997.50      6529.4613        40.1592         2.2729         2.1635       0.231600         2.3359       0.000000       0.537511         0.3115         0.0000         0.0000      0.0000000       0.017156       0.133810       0.150966       0.150966         0.8864         7.3539
       7998.00      6529.9547        40.3095         2.2237         2.1712       0.237100         2.3259       0.000000       0.529346         0.3147         0.0000         0.0000      0.0000000       0.020337       0.135570       0.155907       0.155907         0.8696         8.3734
       7998.50      6530.4480        43.0452         2.4226         2.3882       0.224000         2.3479       0.000000       0.516823         0.3443         0.0000         0.0000      0.0000000       0.021803       0.117031       0.138834       0.138834         0.8430         5.3469
       7999.00      6530.9414        46.3033         2.6900         2.6320       0.216600         2.3859       0.000000       0.505593         0.3814         0.0000         0.0000      0.0000000       0.018466       0.094494       0.112960       0.112960         0.8365         2.7094
       7999.50      6531.4347        47.6152         2.7957         2.7259       0.203100         2.4235       0.000000       0.515357         0.3936         0.0000         0.0000      0.0000000       0.010221       0.080804       0.091025       0.091025         0.8877         1.5226
