~Version Information Block
VERS .                  2.0:  CWLS LOG ASCII STANDARD - VERSION 2.0
WRAP .                   NO:  One line per depth step
~Well Information Block
#MNEM.UNIT        Data Type   Information
#---------- ----------------  -----------
STRT .FT               0.00:  START DEPTH
STOP .FT           10065.00:  STOP DEPTH
STEP .FT               0.50:  STEP
NULL .              -999.25:  NULL VALUE
COMP .                     :  COMPANY
WELL .               STA-38:  WELL
FLD  .                     :  FIELD
LOC  .                     :  LOCATION
CTRY .                     :  COUNTRY
STAT .                     :  STATE
CNTY .                     :  COUNTY
SRVC .                     :  SERVICE COMPANY
DATE .                     :  DATE
API  .                     :  API NUMBER
UWI  .                     :  UNIQUE WELL ID
~Curve Information Block
#MNEM.UNIT         API CODE   Curve Description
#---------- ----------------  -----------------
DEPTH.FT                   :  Depth
TVDSS.FT                   :  Reference TVD sub-sea log.
GR   .GAPI                 :  Gamma Ray
RT   .OHMM                 :  True Resistivity
RXO  .OHMM                 :  Flushed Zone Resistivity
NPHI .V/V                  :  Neutron Porosity
RHOB .G/C3                 :  Bulk Density
VCALCITE.V/V                  :  Calcite Volume Fraction
VQUARTZ.V/V                  :  Quartz Volume Fraction
VSH  .V/V                  :  Wet Cl/Sh 1 Volume Fraction
VCOAL.V/V                  :  Coal Volume Fraction
VORGSH.V/V                  :  Organic Shale Volume Fraction
VGAS .V/V                  :  X Gas Volume Fraction
VOIL .V/V                  :  X Oil Volume Fraction
VWATER.V/V                  :  X Water Volume Fraction
PHIT .V/V                  :  Total Porosity
PHIE .V/V                  :  Limited Effective Porosity
SWE  .V/V                  :  Effective Water Saturation
PERM .MD                   :  Permeability
~Parameter Information Block
#MNEM.UNIT            Value   Description
#---------- ----------------  -----------
PROJECT.            SANTAN_FE:  
~Other Information Block
# 
~A       DEPTH          TVDSS             GR             RT            RXO           NPHI           RHOB       VCALCITE        VQUARTZ            VSH          VCOAL         VORGSH           VGAS           VOIL         VWATER           PHIT           PHIE            SWE           PERM 
# ...
       5288.50      4287.7124        46.2228         1.5360         1.5322       0.349300         2.1777       0.000000       0.383928         0.4093         0.0000         0.0000      0.0000000       0.020637       0.186153       0.206789       0.194873         0.9002        23.3080
       5289.00      4288.0186        49.3228         1.5978         1.5779       0.320100         2.1996       0.000000       0.372643         0.4462         0.0000         0.0000      0.0138778       0.004015       0.163311       0.181204       0.181204         0.9013        16.2757
       5289.50      4288.3248        49.9250         1.6074         1.5948       0.316800         2.2335       0.000000       0.384859         0.4492         0.0000         0.0000      0.0034676       0.007735       0.154700       0.165902       0.165902         0.9325        10.8878
       5290.00      4288.6309        52.1750         1.6319         1.6393       0.317300         2.2551       0.000000       0.372111         0.4787         0.0000         0.0000      0.0000193       0.010548       0.138596       0.149163       0.149163         0.9316         7.0137
       5290.50      4288.9371        52.5733         1.6580         1.6419       0.341100         2.2680       0.000000       0.367849         0.4912         0.0000         0.0000      0.0000000       0.009229       0.131692       0.140921       0.140921         0.9345         5.6482
       5291.00      4289.2433        55.2733         1.7203         1.6617       0.361700         2.2785       0.000000       0.338094         0.5347         0.0000         0.0000      0.0000000       0.011525       0.115636       0.127161       0.127161         0.9094         3.9347
       5291.50      4289.5495        59.0199         1.7266         1.6726       0.355200         2.2907       0.000000       0.305560         0.5842         0.0000         0.0000      0.0000000       0.011135       0.099137       0.110272       0.110272         0.8990         2.5247
       5292.00      4289.8557        61.5699         1.6852         1.6490       0.351900         2.3034       0.000000       0.285260         0.6180         0.0000         0.0000      0.0000000       0.008516       0.088201       0.096717       0.096717         0.9120         1.7682
       5292.50      4290.1618        62.4698         1.7024         1.6561       0.354300         2.3010       0.000000       0.273237         0.6314         0.0000         0.0000      0.0000000       0.009691       0.085709       0.095401       0.095401         0.8984         1.7081
       5293.00      4290.4680        61.4233         1.7148         1.6589       0.360100         2.2980       0.000000       0.281435         0.6188         0.0000         0.0000      0.0000000       0.010319       0.089454       0.099773       0.099773         0.8966         1.9161
       5293.50      4290.7742        58.6750         1.6903         1.6452       0.366900         2.2991       0.000000       0.310343         0.5828         0.0000         0.0000      0.0000000       0.008496       0.098389       0.106885       0.106885         0.9205         2.3097
       5294.00      4291.0804        61.1461         1.7424         1.6615       0.373700         2.2969       0.000000       0.279798         0.6193         0.0000         0.0000      0.0000000       0.011220       0.089674       0.100893       0.100893         0.8888         1.9733
       5294.50      4291.3866        63.0939         1.7282         1.6728       0.379100         2.3017       0.000000       0.259169         0.6479         0.0000         0.0000      0.0000000       0.010848       0.082106       0.092954       0.092954         0.8833         1.6018
       5295.00      4291.6928        64.3661         1.7109         1.6629       0.389700         2.3006       0.000000       0.241038         0.6690         0.0000         0.0000      0.0000000       0.011144       0.078862       0.090006       0.090006         0.8762         1.4824
       5295.50      4291.9991        63.8680         1.7262         1.6904       0.396400         2.3094       0.000000       0.249602         0.6638         0.0000         0.0000      0.0000000       0.010051       0.076521       0.086571       0.086571         0.8839         1.3545
       5296.00      4292.3053        63.4701         1.7344         1.6918       0.407900         2.3040       0.000000       0.247453         0.6622         0.0000         0.0000      0.0000000       0.011395       0.078970       0.090365       0.090365         0.8739         1.4965
       5296.50      4292.6115        63.9443         1.8245         1.7239       0.406900         2.3114       0.000000       0.246908         0.6682         0.0000         0.0000      0.0000000       0.011422       0.073502       0.084924       0.084924         0.8655         1.2971
       5297.00      4292.9177        65.9464         1.8109         1.7357       0.400600         2.3150       0.000000       0.228524         0.6938         0.0000         0.0000      0.0000000       0.010678       0.066979       0.077657       0.077657         0.8625         1.0717
       5297.50      4293.2239        66.8464         1.7577         1.7129       0.405800         2.3224       0.000000       0.220929         0.7077         0.0000         0.0000      0.0000000       0.008646       0.062765       0.071411       0.071411         0.8789         0.9095
       5298.00      4293.5302        69.2500         1.7451         1.6830       0.393200         2.3186       0.000000       0.195669         0.7372         0.0000         0.0000      0.0000000       0.008580       0.058531       0.067111       0.067111         0.8722         0.7990
       5298.50      4293.8364        67.3273         1.7590         1.6645       0.385400         2.3128       0.000000       0.216297         0.7083         0.0000         0.0000      0.0000000       0.009516       0.065936       0.075451       0.075451         0.8739         1.0113
       5299.00      4294.1426        67.7773         1.7338         1.6418       0.378100         2.3162       0.000000       0.215358         0.7121         0.0000         0.0000      0.0000000       0.008292       0.064293       0.072585       0.072585         0.8858         0.9380
       5299.50      4294.4489        68.6676         1.7046         1.6136       0.408300         2.3089       0.000000       0.191802         0.7343         0.0000         0.0000      0.0000000       0.009394       0.064509       0.073903       0.073903         0.8729         0.9710
       5300.00      4294.7551        70.4041         1.7062         1.6378       0.410600         2.3122       0.000000       0.173557         0.7590         0.0000         0.0000      0.0000000       0.008968       0.058441       0.067409       0.067409         0.8670         0.8064
       5300.50      4295.0614        71.5243         1.7415         1.6500       0.411800         2.3049       0.000000       0.156541         0.7753         0.0000         0.0000      0.0000000       0.010518       0.057658       0.068177       0.067286         0.8457         0.8033
       5301.00      4295.3676        71.0936         1.8299         1.6633       0.392500         2.3114       0.000000       0.171207         0.7629         0.0000         0.0000      0.0000000       0.010110       0.055766       0.065875       0.065875         0.8465         0.7689
       5301.50      4295.6739        70.3733         1.8092         1.6597       0.404500         2.3096       0.000000       0.174516         0.7568         0.0000         0.0000      0.0000000       0.010502       0.058200       0.068703       0.068703         0.8471         0.8389
       5302.00      4295.9801        70.4467         1.7401         1.6449       0.422100         2.3125       0.000000       0.169757         0.7633         0.0000         0.0000      0.0000000       0.009441       0.057538       0.066979       0.066979         0.8590         0.7958
       5302.50      4296.2864        72.6851         1.7349         1.6404       0.443600         2.3204       0.000000       0.142470         0.8009         0.0000         0.0000      0.0000000       0.007859       0.048818       0.056677       0.056677         0.8613         0.5669
