~Version Information Block
VERS .                  2.0:  CWLS LOG ASCII STANDARD - VERSION 2.0
WRAP .                   NO:  One line per depth step
~Well Information Block
#MNEM.UNIT        Data Type   Information
#---------- ----------------  -----------
STRT .FT               0.00:  START DEPTH
STOP .FT           10065.00:  STOP DEPTH
STEP .FT               0.50:  STEP
NULL .              -999.25:  NULL VALUE
COMP .                     :  COMPANY
WELL .               STA-38:  WELL
FLD  .                     :  FIELD
LOC  .                     :  LOCATION
CTRY .                     :  COUNTRY
STAT .                     :  STATE
CNTY .                     :  COUNTY
SRVC .                     :  SERVICE COMPANY
DATE .                     :  DATE
API  .                     :  API NUMBER
UWI  .                     :  UNIQUE WELL ID
~Curve Information Block
#MNEM.UNIT         API CODE   Curve Description
#---------- ----------------  -----------------
DEPTH.FT                   :  Depth
TVDSS.FT                   :  Reference TVD sub-sea log.
GR   .GAPI                 :  Gamma Ray
RT   .OHMM                 :  True Resistivity
RXO  .OHMM                 :  Flushed Zone Resistivity
NPHI .V/V                  :  Neutron Porosity
RHOB .G/C3                 :  Bulk Density
VCALCITE.V/V                  :  Calcite Volume Fraction
VQUARTZ.V/V                  :  Quartz Volume Fraction
VSH  .V/V                  :  Wet Cl/Sh 1 Volume Fraction
VCOAL.V/V                  :  Coal Volume Fraction
VORGSH.V/V                  :  Organic Shale Volume Fraction
VGAS .V/V                  :  X Gas Volume Fraction
VOIL .V/V                  :  X Oil Volume Fraction
VWATER.V/V                  :  X Water Volume Fraction
PHIT .V/V                  :  Total Porosity
PHIE .V/V                  :  Limited Effective Porosity
SWE  .V/V                  :  Effective Water Saturation
PERM .MD                   :  Permeability
~Parameter Information Block
#MNEM.UNIT            Value   Description
#---------- ----------------  -----------
PROJECT.            SANTAN_FE:  
~Other Information Block
# 
~A       DEPTH          TVDSS             GR             RT            RXO           NPHI           RHOB       VCALCITE        VQUARTZ            VSH          VCOAL         VORGSH           VGAS           VOIL         VWATER           PHIT           PHIE            SWE           PERM 
# ...
       9334.00      7684.4494        59.2128         2.6250         2.5326       0.258600         2.3356       0.000000       0.289633         0.5776         0.0000         0.0000      0.0291213       0.017163       0.086522       0.132806       0.108913         0.6515         2.4361
       9334.50      7684.8629        54.6260         2.5880         2.4500       0.249400         2.3221       0.000000       0.333871         0.5223         0.0000         0.0000      0.0297705       0.016749       0.097316       0.143835       0.126226         0.6766         3.8392
       9335.00      7685.2765        51.4801         2.2747         2.2159       0.236400         2.3075       0.000000       0.362968         0.4845         0.0000         0.0000      0.0404800       0.000000       0.112023       0.152503       0.138291         0.7346         5.2711
       9335.50      7685.6902        47.9686         2.2044         2.1856       0.240800         2.2886       0.000000       0.388771         0.4435         0.0000         0.0000      0.0342846       0.008588       0.124816       0.167689       0.151587         0.7443         7.4749
       9336.00      7686.1039        44.8158         2.1711         2.1772       0.240800         2.2770       0.000000       0.415664         0.4061         0.0000         0.0000      0.0296789       0.013623       0.134920       0.178222       0.163900         0.7583        10.3298
       9336.50      7686.5177        41.2145         2.1017         2.1166       0.237300         2.2643       0.000000       0.447423         0.3632         0.0000         0.0000      0.0279948       0.012871       0.148520       0.189386       0.178212         0.7875        15.0454
       9337.00      7686.9316        37.6404         2.0479         2.0603       0.233100         2.2634       0.000000       0.484190         0.3198         0.0000         0.0000      0.0215933       0.012567       0.161886       0.196046       0.192891         0.8287        22.1251
       9337.50      7687.3456        36.4421         2.0569         2.0196       0.228300         2.2704       0.000000       0.500762         0.3045         0.0000         0.0000      0.0193184       0.009441       0.165945       0.194704       0.194704         0.8523        23.2043
       9338.00      7687.7596        36.5160         2.0804         1.9789       0.226700         2.2790       0.000000       0.504267         0.3048         0.0000         0.0000      0.0170518       0.008706       0.165220       0.190977       0.190977         0.8651        21.0403
       9338.50      7688.1737        39.9287         2.0587         1.9192       0.224300         2.2883       0.000000       0.474338         0.3454         0.0000         0.0000      0.0255475       0.000000       0.154738       0.180286       0.180286         0.8583        15.8876
       9339.00      7688.5879        41.8020         2.0475         1.8690       0.222300         2.2954       0.000000       0.458018         0.3672         0.0000         0.0000      0.0253150       0.000000       0.149498       0.174813       0.174813         0.8552        13.7601
       9339.50      7689.0021        42.9532         1.9890         1.8494       0.228000         2.3016       0.000000       0.447574         0.3813         0.0000         0.0000      0.0238303       0.000000       0.147331       0.171161       0.171161         0.8608        12.5012
       9340.00      7689.4164        44.4872         1.8877         1.9059       0.237700         2.3041       0.000000       0.430265         0.4003         0.0000         0.0000      0.0201955       0.005479       0.143711       0.169386       0.165789         0.8532        10.8555
       9340.50      7689.8307        48.2761         1.9653         2.0657       0.258400         2.2797       0.000000       0.375102         0.4489         0.0000         0.0000      0.0231792       0.021341       0.131435       0.175955       0.149798         0.7692         7.1317
       9341.00      7690.2451        57.4363         2.5006         2.4192       0.285800         2.2392       0.000000       0.256118         0.5642         0.0000         0.0000      0.0450791       0.028377       0.106273       0.179729       0.113048         0.5913         2.7157
       9341.50      7690.6595        59.6878         2.9127         2.6218       0.292800         2.1888       0.000000       0.209708         0.5952         0.0000         0.0000      0.0699251       0.024525       0.100661       0.195111       0.103459         0.5159         2.1109
       9342.00      7691.0740        53.8746         2.4629         2.5018       0.278700         2.1859       0.000000       0.271996         0.5242         0.0000         0.0000      0.0658474       0.021811       0.116192       0.203850       0.125605         0.5753         3.7771
       9342.50      7691.4885        42.2143         2.0955         2.1064       0.260100         2.1966       0.000000       0.399906         0.3812         0.0000         0.0000      0.0416015       0.023199       0.154075       0.218876       0.172142         0.7061        12.8274
       9343.00      7691.9031        35.4922         1.8482         1.8980       0.252400         2.2291       0.000000       0.483320         0.2973         0.0000         0.0000      0.0143589       0.023192       0.181840       0.219391       0.200524         0.8419        27.0383
       9343.50      7692.3177        37.5931         1.9281         1.9204       0.268500         2.2416       0.000000       0.462921         0.3227         0.0000         0.0000      0.0000000       0.041195       0.173226       0.214421       0.191866         0.8079        21.5370
       9344.00      7692.7324        43.9938         1.9020         1.9843       0.273200         2.2509       0.000000       0.400820         0.3998         0.0000         0.0000      0.0099952       0.038868       0.150512       0.199375       0.165947         0.7740        10.9008
       9344.50      7693.1472        51.2924         1.9763         2.0836       0.284000         2.2584       0.000000       0.326556         0.4884         0.0000         0.0000      0.0186561       0.038258       0.128172       0.185086       0.137016         0.7144         5.0975
       9345.00      7693.5620        51.9918         2.2639         2.1421       0.282200         2.2494       0.000000       0.316631         0.4973         0.0000         0.0000      0.0263763       0.036468       0.123236       0.186081       0.134149         0.6623         4.7276
       9345.50      7693.9768        44.9923         1.9481         1.9528       0.273900         2.2413       0.000000       0.385903         0.4127         0.0000         0.0000      0.0172683       0.033860       0.150297       0.201426       0.161680         0.7472         9.7447
       9346.00      7694.3917        35.9458         1.5080         1.6772       0.252600         2.2563       0.000000       0.488579         0.3012         0.0000         0.0000      0.0050845       0.013273       0.191828       0.210185       0.199153         0.9716        26.0819
       9346.50      7694.8067        33.8466         1.5885         1.7627       0.232100         2.3034       0.000000       0.531705         0.2783         0.0000         0.0000      0.0000000       0.002870       0.187108       0.189978       0.189978         1.0000        20.4950
       9347.00      7695.2217        43.0941         2.0969         1.9138       0.232500         2.3868       0.000000       0.485826         0.3806         0.0000         0.0000      0.0000000       0.004833       0.128726       0.133559       0.133559         0.9638         4.6549
       9347.50      7695.6368        59.2920         2.0421         1.8322       0.244000         2.4484       0.000000       0.342916         0.5723         0.0000         0.0000      0.0000000       0.006827       0.078002       0.084829       0.084829         0.9195         1.2939
       9348.00      7696.0519        75.5919         1.5067         1.5388       0.274400         2.5010       0.000000       0.184084         0.7714         0.0000         0.0000      0.0000000       0.000000       0.044471       0.044471       0.044471         1.0000         0.3600
