~Version Information Block
VERS .                  2.0:  CWLS LOG ASCII STANDARD - VERSION 2.0
WRAP .                   NO:  One line per depth step
~Well Information Block
#MNEM.UNIT        Data Type   Information
#---------- ----------------  -----------
STRT .FT               0.00:  START DEPTH
STOP .FT           10065.00:  STOP DEPTH
STEP .FT               0.50:  STEP
NULL .              -999.25:  NULL VALUE
COMP .                     :  COMPANY
WELL .               STA-38:  WELL
FLD  .                     :  FIELD
LOC  .                     :  LOCATION
CTRY .                     :  COUNTRY
STAT .                     :  STATE
CNTY .                     :  COUNTY
SRVC .                     :  SERVICE COMPANY
DATE .                     :  DATE
API  .                     :  API NUMBER
UWI  .                     :  UNIQUE WELL ID
~Curve Information Block
#MNEM.UNIT         API CODE   Curve Description
#---------- ----------------  -----------------
DEPTH.FT                   :  Depth
TVDSS.FT                   :  Reference TVD sub-sea log.
GR   .GAPI                 :  Gamma Ray
RT   .OHMM                 :  True Resistivity
RXO  .OHMM                 :  Flushed Zone Resistivity
NPHI .V/V                  :  Neutron Porosity
RHOB .G/C3                 :  Bulk Density
VCALCITE.V/V                  :  Calcite Volume Fraction
VQUARTZ.V/V                  :  Quartz Volume Fraction
VSH  .V/V                  :  Wet Cl/Sh 1 Volume Fraction
VCOAL.V/V                  :  Coal Volume Fraction
VORGSH.V/V                  :  Organic Shale Volume Fraction
VGAS .V/V                  :  X Gas Volume Fraction
VOIL .V/V                  :  X Oil Volume Fraction
VWATER.V/V                  :  X Water Volume Fraction
PHIT .V/V                  :  Total Porosity
PHIE .V/V                  :  Limited Effective Porosity
SWE  .V/V                  :  Effective Water Saturation
PERM .MD                   :  Permeability
~Parameter Information Block
#MNEM.UNIT            Value   Description
#---------- ----------------  -----------
PROJECT.            SANTAN_FE:  
~Other Information Block
# 
~A       DEPTH          TVDSS             GR             RT            RXO           NPHI           RHOB       VCALCITE        VQUARTZ            VSH          VCOAL         VORGSH           VGAS           VOIL         VWATER           PHIT           PHIE            SWE           PERM 
# ...
       8333.50      6854.1889        79.8415         1.7422         1.7566       0.288400         2.5005       0.000000       0.173091         0.8079         0.0000         0.0000      0.0000000       0.000952       0.018032       0.018984       0.018984         0.9537         0.1162
       8334.00      6854.6581        72.7775         1.9358         1.9672       0.271900         2.4894       0.000000       0.251150         0.7155         0.0000         0.0000      0.0000000       0.002896       0.030462       0.033358       0.033358         0.9205         0.2267
       8334.50      6855.1273        65.5834         2.2218         2.2509       0.256100         2.4836       0.000000       0.333589         0.6214         0.0000         0.0000      0.0000000       0.004694       0.040296       0.044990       0.044990         0.9003         0.3675
       8335.00      6855.5964        60.0049         2.3891         2.4372       0.239600         2.4763       0.000000       0.396743         0.5476         0.0000         0.0000      0.0000000       0.005466       0.050144       0.055610       0.055610         0.9095         0.5461
       8335.50      6856.0655        58.8064         2.6023         2.5767       0.223000         2.4772       0.000000       0.415220         0.5287         0.0000         0.0000      0.0000000       0.006099       0.049952       0.056051       0.056051         0.8912         0.5546
       8336.00      6856.5345        61.3938         2.5677         2.5319       0.220800         2.4727       0.000000       0.384078         0.5610         0.0000         0.0000      0.0000000       0.007572       0.047356       0.054927       0.054927         0.8622         0.5330
       8336.50      6857.0035        68.3236         2.4564         2.4800       0.220100         2.4694       0.000000       0.304680         0.6486         0.0000         0.0000      0.0031018       0.005757       0.037824       0.046682       0.046682         0.8148         0.3925
       8337.00      6857.4724        72.5594         2.4966         2.5194       0.229700         2.4781       0.000000       0.259119         0.7038         0.0000         0.0000      0.0021159       0.005846       0.029143       0.037105       0.037105         0.7896         0.2663
       8337.50      6857.9412        76.4983         2.5301         2.5581       0.223600         2.4834       0.000000       0.219631         0.7524         0.0000         0.0000      0.0064809       0.000000       0.021518       0.027999       0.027999         0.7750         0.1784
       8338.00      6858.4101        77.0199         2.5600         2.5501       0.228400         2.4899       0.000000       0.216010         0.7597         0.0000         0.0000      0.0054000       0.000000       0.018871       0.024271       0.024271         0.7775         0.1500
       8338.50      6858.8788        77.6183         2.5610         2.5439       0.221800         2.4912       0.000000       0.211524         0.7656         0.0000         0.0000      0.0050727       0.000000       0.017784       0.022856       0.022856         0.7781         0.1402
       8339.00      6859.3476        79.0791         2.5599         2.5012       0.234000         2.4944       0.000000       0.193535         0.7867         0.0000         0.0000      0.0043896       0.000000       0.015370       0.019760       0.019760         0.7779         0.1208
       8339.50      6859.8162        79.2825         2.4979         2.4545       0.241300         2.4976       0.000000       0.190566         0.7904         0.0000         0.0000      0.0008507       0.003179       0.014983       0.019013       0.019013         0.7881         0.1164
       8340.00      6860.2849        78.0824         2.3873         2.3697       0.248400         2.4946       0.000000       0.200484         0.7769         0.0000         0.0000      0.0000000       0.004438       0.018189       0.022627       0.022627         0.8038         0.1387
       8340.50      6860.7535        74.0685         2.3805         2.3682       0.249700         2.4956       0.000000       0.246294         0.7265         0.0000         0.0000      0.0000000       0.004638       0.022567       0.027205       0.027205         0.8295         0.1720
       8341.00      6861.2220        71.0560         2.5146         2.4449       0.243100         2.4898       0.000000       0.278948         0.6872         0.0000         0.0000      0.0000000       0.006106       0.027735       0.033841       0.033841         0.8196         0.2315
       8341.50      6861.6905        68.9344         2.5711         2.4885       0.238500         2.4862       0.000000       0.302160         0.6595         0.0000         0.0000      0.0000000       0.006885       0.031411       0.038296       0.038296         0.8202         0.2800
       8342.00      6862.1589        69.9125         2.5490         2.5014       0.236000         2.4804       0.000000       0.288452         0.6715         0.0000         0.0000      0.0000000       0.007880       0.032165       0.040045       0.040045         0.8032         0.3011
       8342.50      6862.6273        73.1731         2.5748         2.5733       0.245800         2.4676       0.000000       0.241948         0.7153         0.0000         0.0000      0.0000000       0.010768       0.032009       0.042777       0.042777         0.7483         0.3365
       8343.00      6863.0956        75.6340         2.5882         2.6435       0.260000         2.4480       0.000000       0.199711         0.7502         0.0000         0.0000      0.0000000       0.015461       0.034664       0.050124       0.050124         0.7002         0.4474
       8343.50      6863.5639        78.1073         2.4976         2.6285       0.294200         2.3917       0.000000       0.132950         0.7914         0.0000         0.0000      0.0038663       0.025410       0.046381       0.075657       0.056414         0.6317         0.5617
       8344.00      6864.0321        79.3568         2.4651         2.5613       0.356100         2.2902       0.000000       0.049095         0.8240         0.0000         0.0000      0.0031981       0.057033       0.066708       0.126940       0.046803         0.5375         0.3944
       8344.50      6864.5003        79.9584         2.9421         2.6947       0.389200         2.2078       0.000000       0.000000         0.8363         0.0000         0.0000      0.0166660       0.073117       0.073885       0.163669       0.043199         0.4514         0.3423
       8345.00      6864.9684        80.1476         2.2603         2.0842       0.401500         2.2081       0.000000       0.000000         0.8319         0.0000         0.0000      0.0088779       0.071497       0.087746       0.168121       0.044493         0.5219         0.3603
       8345.50      6865.4365        81.4445         1.6913         1.5610       0.369800         2.2902       0.000000       0.017879         0.8532         0.0000         0.0000      0.0006636       0.041736       0.086552       0.128951       0.038335         0.6712         0.2805
       8346.00      6865.9045        86.5820         1.6142         1.5389       0.356100         2.4011       0.000000       0.022729         0.9117         0.0000         0.0000      0.0000000       0.013923       0.051603       0.065525       0.021897         0.7875         0.1339
       8346.50      6866.3725        89.2945         1.5250         1.5299       0.339600         2.4654       0.000000       0.032129         0.9401         0.0000         0.0000      0.0000000       0.002826       0.024913       0.027739       0.014289         0.8989         0.0919
       8347.00      6866.8405        88.6625         1.5912         1.5749       0.325200         2.4808       0.000000       0.051932         0.9284         0.0000         0.0000      0.0000000       0.001658       0.018055       0.019713       0.017409         0.9159         0.1075
       8347.50      6867.3084        83.4841         1.8147         1.7605       0.299800         2.4799       0.000000       0.116981         0.8573         0.0000         0.0000      0.0000000       0.003217       0.022526       0.025743       0.025743         0.8750         0.1607
