~Version Information Block
VERS .                  2.0:  CWLS LOG ASCII STANDARD - VERSION 2.0
WRAP .                   NO:  One line per depth step
~Well Information Block
#MNEM.UNIT        Data Type   Information
#---------- ----------------  -----------
STRT .FT               0.00:  START DEPTH
STOP .FT           10065.00:  STOP DEPTH
STEP .FT               0.50:  STEP
NULL .              -999.25:  NULL VALUE
COMP .                     :  COMPANY
WELL .               STA-38:  WELL
FLD  .                     :  FIELD
LOC  .                     :  LOCATION
CTRY .                     :  COUNTRY
STAT .                     :  STATE
CNTY .                     :  COUNTY
SRVC .                     :  SERVICE COMPANY
DATE .                     :  DATE
API  .                     :  API NUMBER
UWI  .                     :  UNIQUE WELL ID
~Curve Information Block
#MNEM.UNIT         API CODE   Curve Description
#---------- ----------------  -----------------
DEPTH.FT                   :  Depth
TVDSS.FT                   :  Reference TVD sub-sea log.
GR   .GAPI                 :  Gamma Ray
RT   .OHMM                 :  True Resistivity
RXO  .OHMM                 :  Flushed Zone Resistivity
NPHI .V/V                  :  Neutron Porosity
RHOB .G/C3                 :  Bulk Density
VCALCITE.V/V                  :  Calcite Volume Fraction
VQUARTZ.V/V                  :  Quartz Volume Fraction
VSH  .V/V                  :  Wet Cl/Sh 1 Volume Fraction
VCOAL.V/V                  :  Coal Volume Fraction
VORGSH.V/V                  :  Organic Shale Volume Fraction
VGAS .V/V                  :  X Gas Volume Fraction
VOIL .V/V                  :  X Oil Volume Fraction
VWATER.V/V                  :  X Water Volume Fraction
PHIT .V/V                  :  Total Porosity
PHIE .V/V                  :  Limited Effective Porosity
SWE  .V/V                  :  Effective Water Saturation
PERM .MD                   :  Permeability
~Parameter Information Block
#MNEM.UNIT            Value   Description
#---------- ----------------  -----------
PROJECT.            SANTAN_FE:  
~Other Information Block
# 
~A       DEPTH          TVDSS             GR             RT            RXO           NPHI           RHOB       VCALCITE        VQUARTZ            VSH          VCOAL         VORGSH           VGAS           VOIL         VWATER           PHIT           PHIE            SWE           PERM 
# ...
       7318.50      5853.8820        62.7460         2.2690         2.3048       0.243900         2.4589       0.000000       0.363358         0.5858         0.0000         0.0000      0.0000000       0.004599       0.046221       0.050820       0.050820         0.9174         0.4592
       7319.00      5854.3776        65.4501         2.2881         2.3563       0.245500         2.4597       0.000000       0.334867         0.6189         0.0000         0.0000      0.0000000       0.005587       0.040631       0.046218       0.046218         0.8943         0.3855
       7319.50      5854.8733        66.8196         2.3261         2.3713       0.253400         2.4588       0.000000       0.317828         0.6374         0.0000         0.0000      0.0000000       0.006168       0.038604       0.044772       0.044772         0.8718         0.3643
       7320.00      5855.3689        69.2513         2.3100         2.2786       0.255000         2.4606       0.000000       0.292582         0.6674         0.0000         0.0000      0.0009132       0.004389       0.034751       0.040053       0.040053         0.8676         0.3012
       7320.50      5855.8645        71.8618         2.2216         2.1239       0.255800         2.4572       0.000000       0.263050         0.6998         0.0000         0.0000      0.0046144       0.000000       0.032491       0.037105       0.037105         0.8756         0.2664
       7321.00      5856.3602        75.3835         2.1185         2.0189       0.269700         2.4620       0.000000       0.224280         0.7456         0.0000         0.0000      0.0033467       0.000000       0.026781       0.030128       0.030128         0.8889         0.1964
       7321.50      5856.8558        78.5755         1.8615         1.8193       0.279500         2.4627       0.000000       0.187492         0.7864         0.0000         0.0000      0.0017418       0.000000       0.024359       0.026101       0.026101         0.9333         0.1634
       7322.00      5857.3515        78.1278         1.6545         1.6903       0.275900         2.4678       0.000000       0.194968         0.7802         0.0000         0.0000      0.0001823       0.000000       0.024620       0.024802       0.024802         1.0000         0.1538
       7322.50      5857.8472        75.1459         1.8337         1.9369       0.266200         2.4621       0.000000       0.227364         0.7418         0.0000         0.0000      0.0023815       0.000000       0.028499       0.030880       0.030880         0.9546         0.2032
       7323.00      5858.3429        72.9903         2.0987         2.1855       0.266400         2.4583       0.000000       0.248900         0.7159         0.0000         0.0000      0.0039582       0.000749       0.030474       0.035181       0.035181         0.8871         0.2454
       7323.50      5858.8386        74.7872         2.2481         2.2529       0.272600         2.4614       0.000000       0.229676         0.7389         0.0000         0.0000      0.0022957       0.002550       0.026597       0.031443       0.031443         0.8469         0.2083
       7324.00      5859.3343        77.1306         2.2537         2.1860       0.277600         2.4616       0.000000       0.203755         0.7688         0.0000         0.0000      0.0042632       0.000000       0.023180       0.027443       0.027443         0.8447         0.1739
       7324.50      5859.8301        81.0381         2.1264         2.0348       0.289500         2.4615       0.000000       0.158543         0.8189         0.0000         0.0000      0.0032005       0.000000       0.019397       0.022597       0.022597         0.8584         0.1385
       7325.00      5860.3258        82.6734         1.8279         1.7762       0.299100         2.4589       0.000000       0.136598         0.8408         0.0000         0.0000      0.0018700       0.000000       0.020699       0.022569       0.022569         0.9171         0.1383
       7325.50      5860.8216        84.8128         1.6123         1.6004       0.319400         2.4579       0.000000       0.107369         0.8713         0.0000         0.0000      0.0000000       0.000763       0.020528       0.021291       0.021291         0.9642         0.1301
       7326.00      5861.3173        83.0058         1.5343         1.5504       0.314800         2.4504       0.000000       0.123544         0.8484         0.0000         0.0000      0.0000000       0.000814       0.027274       0.028088       0.028088         0.9769         0.1791
       7326.50      5861.8131        78.7838         1.6161         1.6350       0.319600         2.4426       0.000000       0.163085         0.7983         0.0000         0.0000      0.0000000       0.002439       0.036133       0.038572       0.038572         0.9426         0.2833
       7327.00      5862.3089        75.3610         1.7558         1.7585       0.297400         2.4406       0.000000       0.204463         0.7516         0.0000         0.0000      0.0000000       0.003783       0.040183       0.043966       0.043966         0.9145         0.3529
       7327.50      5862.8047        73.0195         1.8824         1.8583       0.291400         2.4453       0.000000       0.233738         0.7217         0.0000         0.0000      0.0000000       0.004237       0.040296       0.044533       0.044533         0.9048         0.3609
       7328.00      5863.3005        72.5070         1.9308         1.9025       0.277300         2.4555       0.000000       0.248551         0.7121         0.0000         0.0000      0.0000000       0.003094       0.036297       0.039391       0.039391         0.9215         0.2931
       7328.50      5863.7963        72.8213         1.9109         1.9030       0.283000         2.4558       0.000000       0.243873         0.7172         0.0000         0.0000      0.0000000       0.003056       0.035842       0.038899       0.038899         0.9214         0.2872
       7329.00      5864.2922        74.2439         1.8642         1.8674       0.282800         2.4587       0.000000       0.230330         0.7344         0.0000         0.0000      0.0000000       0.002392       0.032882       0.035273       0.035273         0.9329         0.2463
       7329.50      5864.7880        75.7074         1.8643         1.8787       0.286500         2.4564       0.000000       0.212560         0.7530         0.0000         0.0000      0.0000000       0.002902       0.031498       0.034401       0.034401         0.9196         0.2372
       7330.00      5865.2839        74.3444         1.8732         1.8831       0.281200         2.4658       0.000000       0.233642         0.7352         0.0000         0.0000      0.0000000       0.001719       0.029472       0.031191       0.031191         0.9475         0.2060
       7330.50      5865.7797        72.9957         1.8964         1.9102       0.277500         2.4717       0.000000       0.252269         0.7179         0.0000         0.0000      0.0000000       0.001185       0.028671       0.029856       0.029856         0.9639         0.1941
       7331.00      5866.2756        72.6435         1.8845         1.9091       0.279500         2.4697       0.000000       0.254372         0.7141         0.0000         0.0000      0.0000000       0.001364       0.030161       0.031525       0.031525         0.9635         0.2091
       7331.50      5866.7715        73.7823         1.8897         1.9060       0.274200         2.4639       0.000000       0.240427         0.7267         0.0000         0.0000      0.0000000       0.002018       0.030853       0.032872       0.032872         0.9432         0.2219
       7332.00      5867.2674        73.8041         1.8746         1.8952       0.283700         2.4617       0.000000       0.236482         0.7293         0.0000         0.0000      0.0000000       0.002282       0.031984       0.034266       0.034266         0.9390         0.2358
       7332.50      5867.7633        74.6770         1.8423         1.8557       0.289200         2.4596       0.000000       0.224534         0.7412         0.0000         0.0000      0.0000000       0.002274       0.032026       0.034300       0.034300         0.9373         0.2362
