~Version Information Block
VERS .                  2.0:  CWLS LOG ASCII STANDARD - VERSION 2.0
WRAP .                   NO:  One line per depth step
~Well Information Block
#MNEM.UNIT        Data Type   Information
#---------- ----------------  -----------
STRT .FT               0.00:  START DEPTH
STOP .FT            8213.00:  STOP DEPTH
STEP .FT               0.50:  STEP
NULL .              -999.25:  NULL VALUE
COMP .                     :  COMPANY
WELL .              K-15RD1:  WELL
FLD  .                     :  FIELD
LOC  .                     :  LOCATION
CTRY .                     :  COUNTRY
STAT .                     :  STATE
CNTY .                     :  COUNTY
SRVC .                     :  SERVICE COMPANY
DATE .                     :  DATE
API  .                     :  API NUMBER
UWI  .                     :  UNIQUE WELL ID
~Curve Information Block
#MNEM.UNIT         API CODE   Curve Description
#---------- ----------------  -----------------
DEPTH.FT                   :  Depth
TVDSS.FT                   :  Reference TVD sub-sea log.
GR   .GAPI                 :  Gamma Ray
RT   .OHMM                 :  True Resistivity
RXO  .OHMM                 :  Flushed Zone Resistivity
NPHI .V/V                  :  Neutron Porosity
RHOB .G/C3                 :  Bulk Density
VCALCITE.V/V                  :  Calcite Volume Fraction
VQUARTZ.V/V                  :  Quartz Volume Fraction
VSH  .V/V                  :  Wet Cl/Sh 1 Volume Fraction
VCOAL.V/V                  :  Coal Volume Fraction
VORGSH.V/V                  :  Organic Shale Volume Fraction
VGAS .V/V                  :  X Gas Volume Fraction
VOIL .V/V                  :  X Oil Volume Fraction
VWATER.V/V                  :  X Water Volume Fraction
PHIT .V/V                  :  Total Porosity
PHIE .V/V                  :  Mahakam burial and vsh limited porosity
SWE  .V/V                  :  Effective Water Saturation
PERM .MD                   :  Permeability
~Parameter Information Block
#MNEM.UNIT            Value   Description
#---------- ----------------  -----------
PROJECT.       KERINDINGAN_FE:  
~Other Information Block
# 
~A       DEPTH          TVDSS             GR             RT            RXO           NPHI           RHOB       VCALCITE        VQUARTZ            VSH          VCOAL         VORGSH           VGAS           VOIL         VWATER           PHIT           PHIE            SWE           PERM 
# ...
       5942.00      5618.8928        37.3290         4.4797         5.1202       0.165000         2.6170       0.999990       0.000000         0.0000       0.000000         0.0000       0.000000      0.0000000       0.000010       0.000010       0.000010         1.0000         0.0171
       5942.50      5619.3859        46.0507         3.0505         3.8214       0.192900         2.5880       0.999990       0.000000         0.0000       0.000000         0.0000       0.000000      0.0000000       0.000010       0.000010       0.000010         1.0000         0.0171
       5943.00      5619.8789        50.9349         1.9662         2.1146       0.225600         2.5124       0.999990       0.000000         0.0000       0.000000         0.0000       0.000000      0.0000000       0.000010       0.000010       0.000010         1.0000         0.0171
       5943.50      5620.3719        55.8190         1.8004         1.6598       0.274700         2.4958       0.999990       0.000000         0.0000       0.000000         0.0000       0.000000      0.0000000       0.000010       0.000010       0.000010         1.0000         0.0171
       5944.00      5620.8650        58.2611         1.8004         1.6598       0.304400         2.4933       0.000000       0.487768         0.4531       0.000000         0.0000       0.000000      0.0000000       0.059144       0.059144       0.059144         1.0000         0.1027
       5944.50      5621.3580        59.3077         1.8672         1.7133       0.303500         2.5017       0.000000       0.484049         0.4632       0.000000         0.0000       0.000000      0.0000000       0.052740       0.052740       0.052740         1.0000         0.0846
       5945.00      5621.8510        56.5168         1.9168         1.7295       0.267900         2.4673       0.000000       0.513601         0.4122       0.000000         0.0000       0.000000      0.0000000       0.074171       0.074171       0.074171         1.0000         0.1620
       5945.50      5622.3441        48.8417         2.8204         2.2706       0.245400         2.5438       0.999990       0.000000         0.0000       0.000000         0.0000       0.000000      0.0000000       0.000010       0.000010       0.000010         1.0000         0.0171
       5946.00      5622.8371        45.3530         4.7037         4.0947       0.200800         2.6210       0.999990       0.000000         0.0000       0.000000         0.0000       0.000000      0.0000000       0.000010       0.000010       0.000010         1.0000         0.0171
       5946.50      5623.3301        41.8643         7.0121         7.9036       0.164900         2.6312       0.999990       0.000000         0.0000       0.000000         0.0000       0.000000      0.0000000       0.000010       0.000010       0.000010         1.0000         0.0171
       5947.00      5623.8231        31.7471         7.0121         7.9036       0.135900         2.6525       0.999990       0.000000         0.0000       0.000000         0.0000       0.000000      0.0000000       0.000010       0.000010       0.000010         1.0000         0.0171
       5947.50      5624.3161        25.4674         8.5585        11.5501       0.125400         2.6331       0.999990       0.000000         0.0000       0.000000         0.0000       0.000000      0.0000000       0.000010       0.000010       0.000010         1.0000         0.0171
       5948.00      5624.8092        23.7231         7.7257        10.5976       0.129100         2.6225       0.999990       0.000000         0.0000       0.000000         0.0000       0.000000      0.0000000       0.000010       0.000010       0.000010         1.0000         0.0171
       5948.50      5625.3022        23.7231         7.2793         8.6195       0.134000         2.5901       0.999990       0.000000         0.0000       0.000000         0.0000       0.000000      0.0000000       0.000010       0.000010       0.000010         1.0000         0.0171
       5949.00      5625.7952        23.7231         6.9421         7.1340       0.138900         2.6091       0.999990       0.000000         0.0000       0.000000         0.0000       0.000000      0.0000000       0.000010       0.000010       0.000010         1.0000         0.0171
       5949.50      5626.2882        28.9561         6.1939         6.6217       0.139000         2.6038       0.999990       0.000000         0.0000       0.000000         0.0000       0.000000      0.0000000       0.000010       0.000010       0.000010         1.0000         0.0171
       5950.00      5626.7812        37.5283         6.1939         6.6217       0.141100         2.5959       0.999990       0.000000         0.0000       0.000000         0.0000       0.000000      0.0000000       0.000010       0.000010       0.000010         1.0000         0.0171
       5950.50      5627.2741        42.9607         4.9219         4.6880       0.149300         2.5485       0.999990       0.000000         0.0000       0.000000         0.0000       0.000000      0.0000000       0.000010       0.000010       0.000010         1.0000         0.0171
       5951.00      5627.7671        44.1568         4.2135         3.9775       0.166200         2.5322       0.999990       0.000000         0.0000       0.000000         0.0000       0.000000      0.0000000       0.000010       0.000010       0.000010         1.0000         0.0171
       5951.50      5628.2601        46.2251         3.3458         3.3198       0.187600         2.5194       0.999990       0.000000         0.0000       0.000000         0.0000       0.000000      0.0000000       0.000010       0.000010       0.000010         1.0000         0.0171
       5952.00      5628.7531        48.8417         2.7449         2.6816       0.212500         2.5156       0.999990       0.000000         0.0000       0.000000         0.0000       0.000000      0.0000000       0.000010       0.000010       0.000010         1.0000         0.0171
       5952.50      5629.2461        51.9815         2.7449         2.6816       0.232900         2.5028       0.999990       0.000000         0.0000       0.000000         0.0000       0.000000      0.0000000       0.000010       0.000010       0.000010         1.0000         0.0171
       5953.00      5629.7390        54.4236         2.3958         2.2886       0.250800         2.5272       0.999990       0.000000         0.0000       0.000000         0.0000       0.000000      0.0000000       0.000010       0.000010       0.000010         1.0000         0.0171
       5953.50      5630.2320        53.9003         2.4925         2.3739       0.249800         2.5365       0.999990       0.000000         0.0000       0.000000         0.0000       0.000000      0.0000000       0.000010       0.000010       0.000010         1.0000         0.0171
       5954.00      5630.7250        53.3770         2.5695         2.5023       0.246500         2.5481       0.999990       0.000000         0.0000       0.000000         0.0000       0.000000      0.0000000       0.000010       0.000010       0.000010         1.0000         0.0171
       5954.50      5631.2179        52.6792         2.5230         2.5939       0.240500         2.5430       0.999990       0.000000         0.0000       0.000000         0.0000       0.000000      0.0000000       0.000010       0.000010       0.000010         1.0000         0.0171
       5955.00      5631.7109        51.6326         2.5493         2.5920       0.236300         2.5298       0.999990       0.000000         0.0000       0.000000         0.0000       0.000000      0.0000000       0.000010       0.000010       0.000010         1.0000         0.0171
       5955.50      5632.2038        52.3304         2.5493         2.5920       0.239600         2.5244       0.999990       0.000000         0.0000       0.000000         0.0000       0.000000      0.0000000       0.000010       0.000010       0.000010         1.0000         0.0171
       5956.00      5632.6968        53.7258         2.6812         2.7809       0.240200         2.4303       0.999990       0.000000         0.0000       0.000000         0.0000       0.000000      0.0000000       0.000010       0.000010       0.000010         1.0000         0.0171
