~Version Information Block
VERS .                  2.0:  CWLS LOG ASCII STANDARD - VERSION 2.0
WRAP .                   NO:  One line per depth step
~Well Information Block
#MNEM.UNIT        Data Type   Information
#---------- ----------------  -----------
STRT .FT               0.00:  START DEPTH
STOP .FT            8213.00:  STOP DEPTH
STEP .FT               0.50:  STEP
NULL .              -999.25:  NULL VALUE
COMP .                     :  COMPANY
WELL .              K-15RD1:  WELL
FLD  .                     :  FIELD
LOC  .                     :  LOCATION
CTRY .                     :  COUNTRY
STAT .                     :  STATE
CNTY .                     :  COUNTY
SRVC .                     :  SERVICE COMPANY
DATE .                     :  DATE
API  .                     :  API NUMBER
UWI  .                     :  UNIQUE WELL ID
~Curve Information Block
#MNEM.UNIT         API CODE   Curve Description
#---------- ----------------  -----------------
DEPTH.FT                   :  Depth
TVDSS.FT                   :  Reference TVD sub-sea log.
GR   .GAPI                 :  Gamma Ray
RT   .OHMM                 :  True Resistivity
RXO  .OHMM                 :  Flushed Zone Resistivity
NPHI .V/V                  :  Neutron Porosity
RHOB .G/C3                 :  Bulk Density
VCALCITE.V/V                  :  Calcite Volume Fraction
VQUARTZ.V/V                  :  Quartz Volume Fraction
VSH  .V/V                  :  Wet Cl/Sh 1 Volume Fraction
VCOAL.V/V                  :  Coal Volume Fraction
VORGSH.V/V                  :  Organic Shale Volume Fraction
VGAS .V/V                  :  X Gas Volume Fraction
VOIL .V/V                  :  X Oil Volume Fraction
VWATER.V/V                  :  X Water Volume Fraction
PHIT .V/V                  :  Total Porosity
PHIE .V/V                  :  Mahakam burial and vsh limited porosity
SWE  .V/V                  :  Effective Water Saturation
PERM .MD                   :  Permeability
~Parameter Information Block
#MNEM.UNIT            Value   Description
#---------- ----------------  -----------
PROJECT.       KERINDINGAN_FE:  
~Other Information Block
# 
~A       DEPTH          TVDSS             GR             RT            RXO           NPHI           RHOB       VCALCITE        VQUARTZ            VSH          VCOAL         VORGSH           VGAS           VOIL         VWATER           PHIT           PHIE            SWE           PERM 
# ...
       5333.00      5017.7994        73.6917         1.4349         1.4598       0.337800         2.4732       0.000000       0.321730         0.6341       0.000000         0.0000       0.000000      0.0000000       0.044207       0.044207       0.044207         1.0000         0.0653
       5333.50      5018.2930        73.6917         1.4349         1.4598       0.328900         2.4560       0.000000       0.321642         0.6261       0.000000         0.0000       0.000000      0.0000000       0.052222       0.052222       0.052222         1.0000         0.0832
       5334.00      5018.7867        75.4298         1.3369         1.3649       0.336100         2.4562       0.000000       0.295921         0.6537       0.000000         0.0000       0.000000      0.0000000       0.050416       0.050416       0.050416         1.0000         0.0788
       5334.50      5019.2804        78.2106         1.2970         1.3088       0.322100         2.4668       0.000000       0.271542         0.6871       0.000000         0.0000       0.000000      0.0000000       0.041367       0.041367       0.041367         1.0000         0.0599
       5335.00      5019.7741        79.9486         1.3326         1.3360       0.327500         2.4781       0.000000       0.258317         0.7090       0.000000         0.0000       0.000000      0.0000000       0.032655       0.032655       0.032655         1.0000         0.0460
       5335.50      5020.2678        76.1250         1.5324         1.5038       0.313400         2.4683       0.000000       0.000000         0.0000       0.000000         1.0000       0.000000      0.0000000       0.000000       0.000000       0.000000         1.0000         0.0171
       5336.00      5020.7614        70.9109         1.7269         1.7573       0.308700         2.4566       0.000000       0.000000         0.0000       0.000000         1.0000       0.000000      0.0000000       0.000000       0.000000       0.000000         1.0000         0.0171
       5336.50      5021.2551        72.9965         1.8009         1.8944       0.306500         2.3792       0.000000       0.000000         0.0000       0.000000         1.0000       0.000000      0.0000000       0.000000       0.000000       0.000000         1.0000         0.0171
       5337.00      5021.7488        82.0342         1.7096         1.8348       0.327100         2.3944       0.000000       0.000000         0.0000       0.000000         1.0000       0.000000      0.0000000       0.000000       0.000000       0.000000         1.0000         0.0171
       5337.50      5022.2424        86.9006         1.7318         1.7489       0.369100         2.1213       0.000000       0.000000         0.0000       0.000000         1.0000       0.000000      0.0000000       0.000000       0.000000       0.000000         1.0000         0.0171
       5338.00      5022.7361        91.7671         1.8507         1.8590       0.436300         2.0690       0.000000       0.000000         0.0000       0.000000         1.0000       0.000000      0.0000000       0.000000       0.000000       0.000000         1.0000         0.0171
       5338.50      5023.2298       107.0616         1.8507         1.8590       0.483000         2.0649       0.000000       0.000000         0.0000       0.000000         1.0000       0.000000      0.0000000       0.000000       0.000000       0.000000         1.0000         0.0171
       5339.00      5023.7235       109.4948         1.6213         1.6412       0.471600         2.2240       0.000000       0.000000         0.0000       0.000000         1.0000       0.000000      0.0000000       0.000000       0.000000       0.000000         1.0000         0.0171
       5339.50      5024.2171        98.0239         1.6064         1.6567       0.400900         2.3674       0.000000       0.000000         0.0000       0.000000         1.0000       0.000000      0.0000000       0.000000       0.000000       0.000000         1.0000         0.0171
       5340.00      5024.7108        83.0770         1.5792         1.5966       0.351500         2.4339       0.000000       0.000000         0.0000       0.000000         1.0000       0.000000      0.0000000       0.000000       0.000000       0.000000         1.0000         0.0171
       5340.50      5025.2045        74.3869         1.6335         1.6063       0.312200         2.4756       0.000000       0.334687         0.6259       0.000000         0.0000       0.000000      0.0000000       0.039421       0.039421       0.039421         1.0000         0.0564
       5341.00      5025.6981        73.6918         1.4992         1.5500       0.295400         2.4351       0.000000       0.325000         0.6139       0.000000         0.0000       0.003134      0.0000000       0.057969       0.061103       0.061103         0.9679         0.1090
       5341.50      5026.1918        76.1250         1.2059         1.2958       0.285700         2.4171       0.000000       0.285046         0.6460       0.000000         0.0000       0.001750      0.0000000       0.067185       0.068935       0.068935         1.0000         0.1382
       5342.00      5026.6855        76.4726         1.2961         1.2403       0.302300         2.4101       0.000000       0.275460         0.6527       0.000000         0.0000       0.001806      0.0000000       0.069988       0.071794       0.071794         0.9748         0.1507
       5342.50      5027.1791        73.6917         1.5287         1.4703       0.311100         2.4355       0.000000       0.319107         0.6184       0.000000         0.0000       0.000000      0.0026542       0.059798       0.062452       0.062452         0.9575         0.1135
       5343.00      5027.6728        70.9109         1.4151         1.4841       0.304100         2.4479       0.000000       0.352122         0.5867       0.000000         0.0000       0.000000      0.0000000       0.061193       0.061193       0.061193         1.0000         0.1093
       5343.50      5028.1664        74.3869         1.3305         1.3866       0.295100         2.4938       0.000000       0.322526         0.6424       0.000000         0.0000       0.000000      0.0000000       0.035118       0.035118       0.035118         1.0000         0.0495
       5344.00      5028.6601        74.0394         1.3305         1.3866       0.296000         2.5062       0.000000       0.327404         0.6422       0.000000         0.0000       0.000000      0.0000000       0.030353       0.030353       0.030353         1.0000         0.0429
       5344.50      5029.1538        68.4777         1.5788         1.5053       0.303100         2.5318       0.000000       0.391811         0.5821       0.000000         0.0000       0.000000      0.0000000       0.026064       0.026064       0.026064         1.0000         0.0376
       5345.00      5029.6474        62.9161         1.9778         2.0234       0.278200         2.4839       0.000000       0.468075         0.4787       0.000000         0.0000       0.000000      0.0000000       0.053263       0.053263       0.053263         1.0000         0.0859
       5345.50      5030.1411        61.1781         1.9767         2.0766       0.261500         2.4666       0.000000       0.486247         0.4489       0.000000         0.0000       0.000000      0.0001039       0.064721       0.064825       0.064825         1.0000         0.1220
       5346.00      5030.6347        62.2209         1.8338         1.9701       0.257100         2.4542       0.000000       0.469014         0.4610       0.000000         0.0000       0.000000      0.0011346       0.068810       0.069945       0.069945         1.0000         0.1425
       5346.50      5031.1284        65.0017         1.7386         1.8085       0.274900         2.4550       0.000000       0.434554         0.5001       0.000000         0.0000       0.000000      0.0003831       0.064951       0.065334       0.065334         1.0000         0.1239
       5347.00      5031.6220        67.4349         1.7162         1.7300       0.283800         2.4800       0.000000       0.411387         0.5395       0.000000         0.0000       0.000000      0.0000000       0.049130       0.049130       0.049130         1.0000         0.0758
