~Version Information Block
VERS .                  2.0:  CWLS LOG ASCII STANDARD - VERSION 2.0
WRAP .                   NO:  One line per depth step
~Well Information Block
#MNEM.UNIT        Data Type   Information
#---------- ----------------  -----------
STRT .FT               0.00:  START DEPTH
STOP .FT            8213.00:  STOP DEPTH
STEP .FT               0.50:  STEP
NULL .              -999.25:  NULL VALUE
COMP .                     :  COMPANY
WELL .              K-15RD1:  WELL
FLD  .                     :  FIELD
LOC  .                     :  LOCATION
CTRY .                     :  COUNTRY
STAT .                     :  STATE
CNTY .                     :  COUNTY
SRVC .                     :  SERVICE COMPANY
DATE .                     :  DATE
API  .                     :  API NUMBER
UWI  .                     :  UNIQUE WELL ID
~Curve Information Block
#MNEM.UNIT         API CODE   Curve Description
#---------- ----------------  -----------------
DEPTH.FT                   :  Depth
TVDSS.FT                   :  Reference TVD sub-sea log.
GR   .GAPI                 :  Gamma Ray
RT   .OHMM                 :  True Resistivity
RXO  .OHMM                 :  Flushed Zone Resistivity
NPHI .V/V                  :  Neutron Porosity
RHOB .G/C3                 :  Bulk Density
VCALCITE.V/V                  :  Calcite Volume Fraction
VQUARTZ.V/V                  :  Quartz Volume Fraction
VSH  .V/V                  :  Wet Cl/Sh 1 Volume Fraction
VCOAL.V/V                  :  Coal Volume Fraction
VORGSH.V/V                  :  Organic Shale Volume Fraction
VGAS .V/V                  :  X Gas Volume Fraction
VOIL .V/V                  :  X Oil Volume Fraction
VWATER.V/V                  :  X Water Volume Fraction
PHIT .V/V                  :  Total Porosity
PHIE .V/V                  :  Mahakam burial and vsh limited porosity
SWE  .V/V                  :  Effective Water Saturation
PERM .MD                   :  Permeability
~Parameter Information Block
#MNEM.UNIT            Value   Description
#---------- ----------------  -----------
PROJECT.       KERINDINGAN_FE:  
~Other Information Block
# 
~A       DEPTH          TVDSS             GR             RT            RXO           NPHI           RHOB       VCALCITE        VQUARTZ            VSH          VCOAL         VORGSH           VGAS           VOIL         VWATER           PHIT           PHIE            SWE           PERM 
# ...
       5536.00      5218.1792       110.5376         1.7591         1.5966       0.498100         1.9642       0.000000       0.000000         0.0000       0.000000         1.0000       0.000000      0.0000000       0.000000       0.000000       0.000000         1.0000         0.0171
       5536.50      5218.6726        87.5959         1.7591         1.5966       0.555900         1.9965       0.000000       0.000000         0.0000       0.000000         1.0000       0.000000      0.0000000       0.000000       0.000000       0.000000         1.0000         0.0171
       5537.00      5219.1661        86.9006         1.4919         1.6702       0.583000         2.0777       0.000000       0.000000         0.0000       0.000000         1.0000       0.000000      0.0000000       0.000000       0.000000       0.000000         1.0000         0.0171
       5537.50      5219.6596        86.2054         1.2504         1.2349       0.546700         2.1369       0.000000       0.000000         0.0000       0.000000         1.0000       0.000000      0.0000000       0.000000       0.000000       0.000000         1.0000         0.0171
       5538.00      5220.1531        78.2106         1.3828         1.4174       0.500700         2.1906       0.000000       0.000000         0.0000       0.000000         1.0000       0.000000      0.0000000       0.000000       0.000000       0.000000         1.0000         0.0171
       5538.50      5220.6466        77.8630         1.0695         1.1270       0.445800         2.3182       0.000000       0.000000         0.0000       0.000000         1.0000       0.000000      0.0000000       0.000000       0.000000       0.000000         1.0000         0.0171
       5539.00      5221.1401        79.2534         1.0669         1.0620       0.411200         2.3940       0.000000       0.000000         0.0000       0.000000         1.0000       0.000000      0.0000000       0.000000       0.000000       0.000000         1.0000         0.0171
       5539.50      5221.6336        79.9486         1.0669         1.0620       0.375200         2.4122       0.000000       0.207963         0.7237       0.000000         0.0000       0.000000      0.0000000       0.068351       0.068351       0.068351         1.0000         0.1358
       5540.00      5222.1271        80.6438         1.2296         1.2364       0.358200         2.4444       0.000000       0.229088         0.7225       0.000000         0.0000       0.000000      0.0000000       0.048407       0.048407       0.048407         1.0000         0.0741
       5540.50      5222.6206        84.4674         1.3326         1.3406       0.338100         2.4512       0.000000       0.203307         0.7599       0.000000         0.0000       0.000834      0.0000000       0.035982       0.036816       0.036816         0.9812         0.0521
       5541.00      5223.1141        87.5959         1.4165         1.4605       0.319600         2.5122       0.000000       0.200610         0.7949       0.000000         0.0000       0.000000      0.0000000       0.004519       0.004519       0.004519         1.0000         0.0196
       5541.50      5223.6075        90.3767         1.4165         1.4605       0.302200         2.4574       0.000000       0.155790         0.8209       0.000000         0.0000       0.001695      0.0000000       0.021619       0.023314       0.023314         0.9520         0.0346
       5542.00      5224.1010        93.1575         1.3046         1.3344       0.290200         2.4706       0.000000       0.134832         0.8521       0.000000         0.0000       0.000000      0.0000000       0.013037       0.013037       0.013037         1.0000         0.0253
       5542.50      5224.5945        92.8099         1.3484         1.3153       0.285200         2.4408       0.000000       0.124755         0.8466       0.000000         0.0000       0.001843      0.0000000       0.026835       0.028678       0.028678         0.9367         0.0407
       5543.00      5225.0880        86.5530         1.5530         1.5249       0.272800         2.4529       0.000000       0.204477         0.7644       0.000000         0.0000       0.002718      0.0000000       0.028449       0.031167       0.031167         0.9156         0.0439
       5543.50      5225.5815        77.8630         1.5649         1.5742       0.266900         2.4762       0.000000       0.311313         0.6554       0.000000         0.0000       0.000000      0.0000000       0.033322       0.033322       0.033322         1.0000         0.0469
       5544.00      5226.0750        70.9109         1.5649         1.5742       0.256800         2.4976       0.000000       0.380206         0.5835       0.000000         0.0000       0.000000      0.0000000       0.036335       0.036335       0.036335         1.0000         0.0514
       5544.50      5226.5685        63.9589         1.8231         1.8226       0.253400         2.5074       0.000000       0.458173         0.5003       0.000000         0.0000       0.000000      0.0000000       0.041563       0.041563       0.041563         1.0000         0.0602
       5545.00      5227.0620        61.0043         1.9472         1.9683       0.247600         2.4808       0.000000       0.489349         0.4521       0.000000         0.0000       0.000000      0.0000000       0.058518       0.058518       0.058518         1.0000         0.1008
       5545.50      5227.5555        61.3519         2.0116         2.0565       0.250700         2.4333       0.000000       0.471926         0.4462       0.000000         0.0000       0.000000      0.0061895       0.075652       0.081841       0.081841         0.9360         0.2045
       5546.00      5228.0490        66.0445         2.0116         2.0565       0.250900         2.4260       0.000000       0.419058         0.5067       0.000000         0.0000       0.009673      0.0000000       0.064580       0.074252       0.074252         0.8837         0.1624
       5546.50      5228.5424        72.4751         1.8319         1.9149       0.254500         2.4151       0.000000       0.341999         0.5887       0.000000         0.0000       0.012493      0.0000000       0.056784       0.069277       0.069277         0.8549         0.1397
       5547.00      5229.0359        75.9512         1.7087         1.7494       0.257000         2.4405       0.000000       0.317399         0.6298       0.000000         0.0000       0.006172      0.0000000       0.046641       0.052813       0.052813         0.9085         0.0847
       5547.50      5229.5294        71.7799         1.7838         1.7247       0.262000         2.4046       0.000000       0.339769         0.5834       0.000000         0.0000       0.011553      0.0000000       0.065261       0.076815       0.076815         0.8496         0.1756
       5548.00      5230.0229        65.0017         1.9526         1.9516       0.259400         2.3855       0.000000       0.404020         0.5007       0.000000         0.0000       0.016519      0.0000000       0.078715       0.095234       0.095234         0.8309         0.3070
       5548.50      5230.5164        64.3065         1.9526         1.9516       0.257200         2.3382       0.000000       0.385921         0.4971       0.000000         0.0000       0.028317      0.0000000       0.088631       0.116948       0.116948         0.7693         0.5934
       5549.00      5231.0099        72.4751         1.8979         1.9463       0.268200         2.2969       0.000000       0.273434         0.6056       0.000000         0.0000       0.042462      0.0000000       0.078462       0.120924       0.120924         0.6822         0.6695
       5549.50      5231.5034        89.7510         1.6775         1.7652       0.296500         2.2623       0.000000       0.060694         0.8267       0.000000         0.0000       0.048028      0.0000000       0.064585       0.112614       0.045196         0.6270         0.0672
       5550.00      5231.9969       106.8530         1.3076         1.3351       0.338000         2.2501       0.000000       0.000000         0.8932       0.000000         0.0000       0.038853      0.0000000       0.067989       0.106842       0.025293         0.7088         0.0368
