~Version Information Block
VERS .                  2.0:  CWLS LOG ASCII STANDARD - VERSION 2.0
WRAP .                   NO:  One line per depth step
~Well Information Block
#MNEM.UNIT        Data Type   Information
#---------- ----------------  -----------
STRT .FT               0.00:  START DEPTH
STOP .FT            8213.00:  STOP DEPTH
STEP .FT               0.50:  STEP
NULL .              -999.25:  NULL VALUE
COMP .                     :  COMPANY
WELL .              K-15RD1:  WELL
FLD  .                     :  FIELD
LOC  .                     :  LOCATION
CTRY .                     :  COUNTRY
STAT .                     :  STATE
CNTY .                     :  COUNTY
SRVC .                     :  SERVICE COMPANY
DATE .                     :  DATE
API  .                     :  API NUMBER
UWI  .                     :  UNIQUE WELL ID
~Curve Information Block
#MNEM.UNIT         API CODE   Curve Description
#---------- ----------------  -----------------
DEPTH.FT                   :  Depth
TVDSS.FT                   :  Reference TVD sub-sea log.
GR   .GAPI                 :  Gamma Ray
RT   .OHMM                 :  True Resistivity
RXO  .OHMM                 :  Flushed Zone Resistivity
NPHI .V/V                  :  Neutron Porosity
RHOB .G/C3                 :  Bulk Density
VCALCITE.V/V                  :  Calcite Volume Fraction
VQUARTZ.V/V                  :  Quartz Volume Fraction
VSH  .V/V                  :  Wet Cl/Sh 1 Volume Fraction
VCOAL.V/V                  :  Coal Volume Fraction
VORGSH.V/V                  :  Organic Shale Volume Fraction
VGAS .V/V                  :  X Gas Volume Fraction
VOIL .V/V                  :  X Oil Volume Fraction
VWATER.V/V                  :  X Water Volume Fraction
PHIT .V/V                  :  Total Porosity
PHIE .V/V                  :  Mahakam burial and vsh limited porosity
SWE  .V/V                  :  Effective Water Saturation
PERM .MD                   :  Permeability
~Parameter Information Block
#MNEM.UNIT            Value   Description
#---------- ----------------  -----------
PROJECT.       KERINDINGAN_FE:  
~Other Information Block
# 
~A       DEPTH          TVDSS             GR             RT            RXO           NPHI           RHOB       VCALCITE        VQUARTZ            VSH          VCOAL         VORGSH           VGAS           VOIL         VWATER           PHIT           PHIE            SWE           PERM 
# ...
       6551.00      6216.9125        68.9776         1.9407         1.8899       0.229300         2.5383       0.000000       0.279301         0.7043       0.000000         0.0000       0.000000      0.0000000       0.016423       0.016423       0.016423         1.0000         0.0281
       6551.50      6217.3955        70.7283         1.7678         1.7568       0.231700         2.5390       0.000000       0.244765         0.7406       0.000000         0.0000       0.000000      0.0000000       0.014655       0.014655       0.014655         1.0000         0.0266
       6552.00      6217.8786        72.4790         1.5184         1.5763       0.228900         2.5647       0.000000       0.206478         0.7882       0.000000         0.0000       0.000000      0.0000000       0.005280       0.005280       0.005280         1.0000         0.0200
       6552.50      6218.3615        74.2297         1.5184         1.5763       0.234800         2.5870       0.000000       0.193459         0.8062       0.000000         0.0000       0.000000      0.0000000       0.000299       0.000299       0.000299         1.0000         0.0172
       6553.00      6218.8445        74.2297         1.5039         1.5133       0.245900         2.5750       0.000000       0.178717         0.8198       0.000000         0.0000       0.000000      0.0000000       0.001486       0.001486       0.001486         1.0000         0.0178
       6553.50      6219.3274        70.7283         1.7045         1.6919       0.251600         2.5855       0.000000       0.235753         0.7635       0.000000         0.0000       0.000000      0.0000000       0.000786       0.000786       0.000786         1.0000         0.0175
       6554.00      6219.8103        67.5770         1.7021         1.7242       0.241600         2.5844       0.000000       0.274666         0.7217       0.000000         0.0000       0.000000      0.0000000       0.003601       0.003601       0.003601         1.0000         0.0190
       6554.50      6220.2931        68.6274         1.6409         1.7382       0.228300         2.5902       0.000000       0.267421         0.7308       0.000000         0.0000       0.000000      0.0000000       0.001741       0.001741       0.001741         1.0000         0.0180
       6555.00      6220.7759        71.9732         1.6792         1.7411       0.226800         2.5265       0.000000       0.226491         0.7548       0.000000         0.0000       0.000222      0.0000000       0.018511       0.018733       0.018733         1.0000         0.0301
       6555.50      6221.2586        75.3190         1.6245         1.6973       0.233400         2.5354       0.000000       0.175969         0.8145       0.000000         0.0000       0.000007      0.0000000       0.009529       0.009536       0.009536         1.0000         0.0228
       6556.00      6221.7413        78.7037         1.4835         1.5401       0.248900         2.5342       0.000000       0.112084         0.8811       0.000000         0.0000       0.000000      0.0000000       0.006851       0.006851       0.006851         1.0000         0.0210
       6556.50      6222.2240        81.5826         1.3592         1.3604       0.261000         2.5800       0.000000       0.083202         0.9167       0.000000         0.0000       0.000000      0.0000000       0.000048       0.000048       0.000048         1.0000         0.0171
       6557.00      6222.7066        81.5826         1.3509         1.3464       0.275400         2.5762       0.000000       0.072742         0.9272       0.000000         0.0000       0.000000      0.0000000       0.000075       0.000075       0.000075         1.0000         0.0171
       6557.50      6223.1892        80.7073         1.3052         1.3100       0.289200         2.5480       0.000000       0.055360         0.9408       0.000000         0.0000       0.000000      0.0000000       0.003863       0.003863       0.003863         1.0000         0.0192
       6558.00      6223.6717        80.8823         1.2908         1.2788       0.295000         2.5363       0.000000       0.045714         0.9466       0.000000         0.0000       0.000000      0.0000000       0.007639       0.007639       0.007639         1.0000         0.0215
       6558.50      6224.1542        79.6569         1.2778         1.2702       0.300400         2.5399       0.000000       0.059721         0.9319       0.000000         0.0000       0.000000      0.0000000       0.008364       0.008364       0.008364         1.0000         0.0220
       6559.00      6224.6367        79.1316         1.2345         1.2646       0.304800         2.5660       0.000000       0.070442         0.9271       0.000000         0.0000       0.000000      0.0000000       0.002507       0.002507       0.002507         1.0000         0.0184
       6559.50      6225.1191        80.1821         1.2276         1.2141       0.301700         2.5705       0.000000       0.058836         0.9396       0.000000         0.0000       0.000000      0.0000000       0.001555       0.001555       0.001555         1.0000         0.0179
       6560.00      6225.6015        80.3571         1.2873         1.2631       0.302000         2.5473       0.000000       0.051685         0.9432       0.000000         0.0000       0.000000      0.0000000       0.005136       0.005136       0.005136         1.0000         0.0199
       6560.50      6226.0838        78.7815         1.3109         1.3057       0.283600         2.5111       0.000000       0.078165         0.9019       0.000000         0.0000       0.000000      0.0000000       0.019886       0.019886       0.019886         1.0000         0.0312
       6561.00      6226.5661        71.6036         1.7305         1.5456       0.271500         2.4813       0.999990       0.000000         0.0000       0.000000         0.0000       0.000000      0.0000000       0.000010       0.000010       0.000010         1.0000         0.0171
       6561.50      6227.0483        59.1737         2.6987         2.4675       0.232800         2.5143       0.999990       0.000000         0.0000       0.000000         0.0000       0.000000      0.0000000       0.000010       0.000010       0.000010         1.0000         0.0171
       6562.00      6227.5306        47.2689         2.9091         2.7157       0.192800         2.5528       0.999990       0.000000         0.0000       0.000000         0.0000       0.000000      0.0000000       0.000010       0.000010       0.000010         1.0000         0.0171
       6562.50      6228.0127        38.8655         4.3397         4.7658       0.153900         2.6242       0.999990       0.000000         0.0000       0.000000         0.0000       0.000000      0.0000000       0.000010       0.000010       0.000010         1.0000         0.0171
       6563.00      6228.4948        35.0140         5.6120         8.2551       0.129900         2.6230       0.999990       0.000000         0.0000       0.000000         0.0000       0.000000      0.0000000       0.000010       0.000010       0.000010         1.0000         0.0171
       6563.50      6228.9769        34.6639         5.2114         7.2271       0.119700         2.5334       0.999990       0.000000         0.0000       0.000000         0.0000       0.000000      0.0000000       0.000010       0.000010       0.000010         1.0000         0.0171
       6564.00      6229.4590        37.8151         4.5777         5.6412       0.123300         2.4872       0.000000       0.759501         0.1510       0.000000         0.0000       0.000000      0.0027962       0.086680       0.089476       0.089476         1.0000         0.2578
       6564.50      6229.9410        43.4174         4.0963         4.4282       0.140100         2.4310       0.000000       0.648971         0.2465       0.000000         0.0000       0.014653      0.0065302       0.083373       0.104556       0.104556         0.8348         0.4074
       6565.00      6230.4229        48.6695         3.7417         3.7568       0.163100         2.4478       0.000000       0.568436         0.3425       0.000000         0.0000       0.011997      0.0066289       0.070393       0.089020       0.089020         0.7926         0.2543
