~Version Information Block
VERS .                  2.0:  CWLS LOG ASCII STANDARD - VERSION 2.0
WRAP .                   NO:  One line per depth step
~Well Information Block
#MNEM.UNIT        Data Type   Information
#---------- ----------------  -----------
STRT .FT               0.00:  START DEPTH
STOP .FT            8213.00:  STOP DEPTH
STEP .FT               0.50:  STEP
NULL .              -999.25:  NULL VALUE
COMP .                     :  COMPANY
WELL .              K-15RD1:  WELL
FLD  .                     :  FIELD
LOC  .                     :  LOCATION
CTRY .                     :  COUNTRY
STAT .                     :  STATE
CNTY .                     :  COUNTY
SRVC .                     :  SERVICE COMPANY
DATE .                     :  DATE
API  .                     :  API NUMBER
UWI  .                     :  UNIQUE WELL ID
~Curve Information Block
#MNEM.UNIT         API CODE   Curve Description
#---------- ----------------  -----------------
DEPTH.FT                   :  Depth
TVDSS.FT                   :  Reference TVD sub-sea log.
GR   .GAPI                 :  Gamma Ray
RT   .OHMM                 :  True Resistivity
RXO  .OHMM                 :  Flushed Zone Resistivity
NPHI .V/V                  :  Neutron Porosity
RHOB .G/C3                 :  Bulk Density
VCALCITE.V/V                  :  Calcite Volume Fraction
VQUARTZ.V/V                  :  Quartz Volume Fraction
VSH  .V/V                  :  Wet Cl/Sh 1 Volume Fraction
VCOAL.V/V                  :  Coal Volume Fraction
VORGSH.V/V                  :  Organic Shale Volume Fraction
VGAS .V/V                  :  X Gas Volume Fraction
VOIL .V/V                  :  X Oil Volume Fraction
VWATER.V/V                  :  X Water Volume Fraction
PHIT .V/V                  :  Total Porosity
PHIE .V/V                  :  Mahakam burial and vsh limited porosity
SWE  .V/V                  :  Effective Water Saturation
PERM .MD                   :  Permeability
~Parameter Information Block
#MNEM.UNIT            Value   Description
#---------- ----------------  -----------
PROJECT.       KERINDINGAN_FE:  
~Other Information Block
# 
~A       DEPTH          TVDSS             GR             RT            RXO           NPHI           RHOB       VCALCITE        VQUARTZ            VSH          VCOAL         VORGSH           VGAS           VOIL         VWATER           PHIT           PHIE            SWE           PERM 
# ...
       5739.00      5418.5478       116.8711         0.7782         0.7407       0.413500         2.4313       0.000000       0.000000         0.0000       0.999990         0.0000       0.000000      0.0000000       0.000010       0.000010       0.000010         1.0000         0.0171
       5739.50      5419.0413       131.1747         0.7538         0.7167       0.410200         2.4912       0.000000       0.000000         0.0000       0.999990         0.0000       0.000000      0.0000000       0.000010       0.000010       0.000010         1.0000         0.0171
       5740.00      5419.5349       122.8019         0.7284         0.7249       0.427500         2.4986       0.000000       0.000000         0.0000       0.999990         0.0000       0.000000      0.0000000       0.000010       0.000010       0.000010         1.0000         0.0171
       5740.50      5420.0284       114.4290         0.8156         0.7801       0.444800         2.2269       0.000000       0.000000         0.0000       0.999990         0.0000       0.000000      0.0000000       0.000010       0.000010       0.000010         1.0000         0.0171
       5741.00      5420.5219        88.9616         0.8156         0.7801       0.461800         2.0146       0.000000       0.000000         0.0000       0.999990         0.0000       0.000000      0.0000000       0.000010       0.000010       0.000010         1.0000         0.0171
       5741.50      5421.0154        85.1240         1.4688         1.2155       0.505200         2.0168       0.000000       0.000000         0.0000       0.999990         0.0000       0.000000      0.0000000       0.000010       0.000010       0.000010         1.0000         0.0171
       5742.00      5421.5090       100.4743         1.3419         1.4420       0.537400         2.0701       0.000000       0.000000         0.0000       0.999990         0.0000       0.000000      0.0000000       0.000010       0.000010       0.000010         1.0000         0.0171
       5742.50      5422.0025       115.8245         1.0776         1.1400       0.549400         2.1657       0.000000       0.000000         0.0000       0.999990         0.0000       0.000000      0.0000000       0.000010       0.000010       0.000010         1.0000         0.0171
       5743.00      5422.4960       128.0349         0.9198         0.9428       0.515900         2.2503       0.000000       0.000000         0.0000       0.999990         0.0000       0.000000      0.0000000       0.000010       0.000010       0.000010         1.0000         0.0171
       5743.50      5422.9895       131.1747         0.9228         0.8982       0.484500         2.2229       0.000000       0.000000         0.0000       0.999990         0.0000       0.000000      0.0000000       0.000010       0.000010       0.000010         1.0000         0.0171
       5744.00      5423.4831       127.6861         1.1208         0.9772       0.460500         2.2150       0.000000       0.000000         0.0000       0.999990         0.0000       0.000000      0.0000000       0.000010       0.000010       0.000010         1.0000         0.0171
       5744.50      5423.9766       124.1974         1.1743         1.1061       0.459200         2.2534       0.000000       0.000000         0.0000       0.999990         0.0000       0.000000      0.0000000       0.000010       0.000010       0.000010         1.0000         0.0171
       5745.00      5424.4701       116.1734         1.1743         1.1061       0.414300         2.3054       0.000000       0.000000         0.0000       0.999990         0.0000       0.000000      0.0000000       0.000010       0.000010       0.000010         1.0000         0.0171
       5745.50      5424.9636       108.8471         0.9210         0.9344       0.381800         2.3648       0.000000       0.000000         0.0000       0.999990         0.0000       0.000000      0.0000000       0.000010       0.000010       0.000010         1.0000         0.0171
       5746.00      5425.4571       107.4517         0.8416         0.8222       0.351900         2.3653       0.000000       0.000000         0.9430       0.000000         0.0000       0.000000      0.0000000       0.057026       0.057026       0.011812         1.0000         0.0244
       5746.50      5425.9507       106.0562         0.8430         0.8135       0.357800         2.3728       0.000000       0.000000         0.9448       0.000000         0.0000       0.000000      0.0000000       0.055228       0.055228       0.011366         1.0000         0.0241
       5747.00      5426.4442        96.2878         0.8430         0.8135       0.351200         2.3740       0.000000       0.016717         0.9188       0.000000         0.0000       0.000000      0.0000000       0.064517       0.064517       0.018060         1.0000         0.0295
       5747.50      5426.9377        91.7525         0.7420         0.7328       0.344000         2.3882       0.000000       0.056732         0.8732       0.000000         0.0000       0.000000      0.0000000       0.070053       0.070053       0.030810         1.0000         0.0435
       5748.00      5427.4312        97.6833         0.6336         0.6162       0.345100         2.3680       0.000000       0.000000         0.9224       0.000000         0.0000       0.000000      0.0000000       0.077636       0.077636       0.017103         1.0000         0.0287
       5748.50      5427.9247       111.6381         0.4472         0.4562       0.350900         2.3464       0.000000       0.000000         0.9082       0.000000         0.0000       0.000000      0.0000000       0.091775       0.091775       0.020906         1.0000         0.0322
       5749.00      5428.4183       125.5928         0.4472         0.4562       0.358600         2.2076       0.000000       0.000000         0.8560       0.000000         0.0000       0.000000      0.0000000       0.144045       0.144045       0.035908         1.0000         0.0507
       5749.50      5428.9118       142.3385         0.4573         0.4116       0.356000         2.1671       0.000000       0.000000         0.8502       0.000000         0.0000       0.000000      0.0000000       0.149798       0.149798       0.037634         1.0000         0.0535
       5750.00      5429.4053       147.9204         0.5121         0.4694       0.348700         2.1474       0.000000       0.000000         0.8524       0.000000         0.0000       0.011520      0.0000000       0.136040       0.147560       0.036960         1.0000         0.0524
       5750.50      5429.8988       145.8272         0.5673         0.5361       0.323900         2.1423       0.000000       0.000000         0.8543       0.000000         0.0000       0.022297      0.0000000       0.123440       0.145737       0.036412         1.0000         0.0515
       5751.00      5430.3923       143.7340         0.5673         0.5361       0.299700         2.1385       0.000000       0.000000         0.8512       0.000000         0.0000       0.024219      0.0000000       0.124545       0.148764       0.037321         1.0000         0.0530
       5751.50      5430.8859       139.8965         0.5337         0.5278       0.281300         2.1356       0.000000       0.000000         0.8454       0.000000         0.0000       0.024973      0.0000000       0.129662       0.154635       0.039094         1.0000         0.0559
       5752.00      5431.3794       133.9657         0.6173         0.5719       0.282000         2.1610       0.000000       0.000000         0.8569       0.000000         0.0000       0.023057      0.0000000       0.120049       0.143106       0.035622         1.0000         0.0503
       5752.50      5431.8729       130.4770         0.6445         0.6072       0.292300         2.1762       0.000000       0.000000         0.8629       0.000000         0.0000       0.022397      0.0000000       0.114653       0.137050       0.033821         1.0000         0.0476
       5753.00      5432.3664       126.9883         0.6445         0.6072       0.297300         2.1880       0.000000       0.000000         0.8653       0.000000         0.0000       0.019465      0.0000000       0.115204       0.134669       0.033116         1.0000         0.0466
