~Version Information Block
VERS .                  2.0:  CWLS LOG ASCII STANDARD - VERSION 2.0
WRAP .                   NO:  One line per depth step
~Well Information Block
#MNEM.UNIT        Data Type   Information
#---------- ----------------  -----------
STRT .FT               0.00:  START DEPTH
STOP .FT            8213.00:  STOP DEPTH
STEP .FT               0.50:  STEP
NULL .              -999.25:  NULL VALUE
COMP .                     :  COMPANY
WELL .              K-15RD1:  WELL
FLD  .                     :  FIELD
LOC  .                     :  LOCATION
CTRY .                     :  COUNTRY
STAT .                     :  STATE
CNTY .                     :  COUNTY
SRVC .                     :  SERVICE COMPANY
DATE .                     :  DATE
API  .                     :  API NUMBER
UWI  .                     :  UNIQUE WELL ID
~Curve Information Block
#MNEM.UNIT         API CODE   Curve Description
#---------- ----------------  -----------------
DEPTH.FT                   :  Depth
TVDSS.FT                   :  Reference TVD sub-sea log.
GR   .GAPI                 :  Gamma Ray
RT   .OHMM                 :  True Resistivity
RXO  .OHMM                 :  Flushed Zone Resistivity
NPHI .V/V                  :  Neutron Porosity
RHOB .G/C3                 :  Bulk Density
VCALCITE.V/V                  :  Calcite Volume Fraction
VQUARTZ.V/V                  :  Quartz Volume Fraction
VSH  .V/V                  :  Wet Cl/Sh 1 Volume Fraction
VCOAL.V/V                  :  Coal Volume Fraction
VORGSH.V/V                  :  Organic Shale Volume Fraction
VGAS .V/V                  :  X Gas Volume Fraction
VOIL .V/V                  :  X Oil Volume Fraction
VWATER.V/V                  :  X Water Volume Fraction
PHIT .V/V                  :  Total Porosity
PHIE .V/V                  :  Mahakam burial and vsh limited porosity
SWE  .V/V                  :  Effective Water Saturation
PERM .MD                   :  Permeability
~Parameter Information Block
#MNEM.UNIT            Value   Description
#---------- ----------------  -----------
PROJECT.       KERINDINGAN_FE:  
~Other Information Block
# 
~A       DEPTH          TVDSS             GR             RT            RXO           NPHI           RHOB       VCALCITE        VQUARTZ            VSH          VCOAL         VORGSH           VGAS           VOIL         VWATER           PHIT           PHIE            SWE           PERM 
# ...
       7957.50      7431.5984        58.3350         4.6570         4.7034       0.197400         2.4869       0.000000       0.430035         0.5153       0.000000         0.0000       0.007657      0.0113455       0.035680       0.054683       0.054683         0.6563         0.0897
       7958.00      7432.0043        56.9293         4.9044         4.9118       0.199600         2.4741       0.000000       0.442855         0.4932       0.000000         0.0000       0.005507      0.0187281       0.039703       0.063938       0.063938         0.6215         0.1188
       7958.50      7432.4102        54.8208         4.8076         5.0048       0.199000         2.4665       0.000000       0.470514         0.4568       0.000000         0.0000       0.000000      0.0279799       0.044698       0.072678       0.072678         0.6297         0.1548
       7959.00      7432.8161        54.4694         4.6772         4.7870       0.200600         2.4832       0.000000       0.484001         0.4512       0.000000         0.0000       0.000000      0.0215213       0.043246       0.064767       0.064767         0.6759         0.1218
       7959.50      7433.2221        55.8751         4.4273         4.3757       0.204400         2.4811       0.000000       0.459470         0.4764       0.000000         0.0000       0.000000      0.0206360       0.043446       0.064082       0.064082         0.6780         0.1193
       7960.00      7433.6280        57.6322         4.5836         4.4467       0.204200         2.5201       0.000000       0.455597         0.5033       0.000000         0.0000       0.000000      0.0105503       0.030540       0.041090       0.041090         0.7432         0.0594
       7960.50      7434.0340        57.9836         4.7262         4.4374       0.206500         2.5082       0.000000       0.442318         0.5109       0.000000         0.0000       0.000000      0.0139738       0.032812       0.046786       0.046786         0.7013         0.0706
       7961.00      7434.4400        56.2265         4.9729         4.7553       0.195300         2.4591       0.000000       0.447285         0.4830       0.000000         0.0000       0.014556      0.0124266       0.042739       0.069721       0.069721         0.6130         0.1416
       7961.50      7434.8460        52.7123         5.1611         5.1173       0.186600         2.3695       0.000000       0.454915         0.4370       0.000000         0.0000       0.052174      0.0000000       0.055906       0.108081       0.108081         0.5173         0.4534
       7962.00      7435.2520        48.1439         5.6078         5.6653       0.170300         2.3272       0.000000       0.508492         0.3608       0.000000         0.0000       0.067226      0.0000000       0.063497       0.130723       0.130723         0.4897         0.9014
       7962.50      7435.6580        43.9270         5.7972         6.0937       0.170400         2.2994       0.000000       0.555880         0.2913       0.000000         0.0000       0.060159      0.0217792       0.070856       0.152795       0.152795         0.4775         1.7613
       7963.00      7436.0640        41.8185         5.8833         6.4425       0.174600         2.2939       0.000000       0.582426         0.2552       0.000000         0.0000       0.047606      0.0414106       0.073404       0.162421       0.162421         0.4767         2.3589
       7963.50      7436.4701        43.2241         5.8275         6.7336       0.186500         2.2875       0.000000       0.552311         0.2844       0.000000         0.0000       0.047731      0.0466603       0.068856       0.163247       0.163247         0.4592         2.4188
       7964.00      7436.8761        46.3869         5.6052         6.5355       0.195400         2.3209       0.000000       0.519026         0.3360       0.000000         0.0000       0.038628      0.0434657       0.062917       0.145010       0.145010         0.4749         1.3907
       7964.50      7437.2822        46.7383         4.8353         5.3195       0.202900         2.3254       0.000000       0.511127         0.3434       0.000000         0.0000       0.032072      0.0429573       0.070405       0.145435       0.145435         0.5121         1.4087
       7965.00      7437.6883        44.2784         4.2846         4.3023       0.212000         2.3421       0.000000       0.551207         0.2975       0.000000         0.0000       0.003446      0.0619335       0.085962       0.151341       0.151341         0.5694         1.6853
       7965.50      7438.0944        42.5213         4.1525         4.0392       0.216200         2.3254       0.000000       0.565711         0.2705       0.000000         0.0000       0.000332      0.0693936       0.094070       0.163796       0.163796         0.5743         2.4594
       7966.00      7438.5005        43.5755         3.9656         3.8788       0.221500         2.3441       0.000000       0.556910         0.2899       0.000000         0.0000       0.000000      0.0610466       0.092153       0.153199       0.153199         0.6015         1.7831
       7966.50      7438.9066        46.7383         3.9012         3.7723       0.227600         2.3990       0.000000       0.536431         0.3428       0.000000         0.0000       0.000000      0.0411437       0.079582       0.120725       0.120725         0.6592         0.6655
       7967.00      7439.3128        51.3067         3.8562         3.8589       0.233400         2.4674       0.000000       0.503720         0.4176       0.000000         0.0000       0.000000      0.0207997       0.057896       0.078696       0.078696         0.7357         0.1859
       7967.50      7439.7189        55.8751         3.8741         3.8679       0.230000         2.4717       0.000000       0.440010         0.4904       0.000000         0.0000       0.000000      0.0211928       0.048364       0.069557       0.069557         0.6953         0.1408
       7968.00      7440.1251        55.8751         3.8966         3.9045       0.224100         2.4366       0.000000       0.423745         0.4887       0.000000         0.0000       0.000000      0.0324195       0.055145       0.087565       0.087565         0.6305         0.2433
       7968.50      7440.5313        53.0638         4.1409         4.1889       0.216800         2.4394       0.000000       0.471328         0.4387       0.000000         0.0000       0.000000      0.0325491       0.057430       0.089979       0.089979         0.6418         0.2618
       7969.00      7440.9375        53.7666         4.0365         4.2438       0.215900         2.4627       0.000000       0.474311         0.4488       0.000000         0.0000       0.000000      0.0253316       0.051581       0.076913       0.076913         0.6892         0.1761
       7969.50      7441.3437        56.9293         4.0525         4.2014       0.212500         2.4510       0.000000       0.422452         0.5017       0.000000         0.0000       0.007357      0.0207021       0.047780       0.075839       0.075839         0.6435         0.1704
       7970.00      7441.7499        56.9293         4.0784         4.1701       0.215300         2.4180       0.000000       0.402643         0.5100       0.000000         0.0000       0.023885      0.0118963       0.051614       0.087395       0.087395         0.5984         0.2420
       7970.50      7442.1562        54.4694         4.2272         4.2891       0.214400         2.4166       0.000000       0.439179         0.4655       0.000000         0.0000       0.012355      0.0266985       0.056317       0.095371       0.095371         0.5956         0.3083
       7971.00      7442.5624        54.1180         4.4948         4.5487       0.208800         2.4141       0.000000       0.446274         0.4583       0.000000         0.0000       0.016861      0.0236334       0.054917       0.095411       0.095411         0.5796         0.3087
       7971.50      7442.9687        54.4694         4.5177         4.6676       0.206300         2.4022       0.000000       0.435905         0.4668       0.000000         0.0000       0.027768      0.0154528       0.054057       0.097278       0.097278         0.5665         0.3267
