~Version Information Block
VERS .                  2.0:  CWLS LOG ASCII STANDARD - VERSION 2.0
WRAP .                   NO:  One line per depth step
~Well Information Block
#MNEM.UNIT        Data Type   Information
#---------- ----------------  -----------
STRT .FT               0.00:  START DEPTH
STOP .FT            8213.00:  STOP DEPTH
STEP .FT               0.50:  STEP
NULL .              -999.25:  NULL VALUE
COMP .                     :  COMPANY
WELL .              K-15RD1:  WELL
FLD  .                     :  FIELD
LOC  .                     :  LOCATION
CTRY .                     :  COUNTRY
STAT .                     :  STATE
CNTY .                     :  COUNTY
SRVC .                     :  SERVICE COMPANY
DATE .                     :  DATE
API  .                     :  API NUMBER
UWI  .                     :  UNIQUE WELL ID
~Curve Information Block
#MNEM.UNIT         API CODE   Curve Description
#---------- ----------------  -----------------
DEPTH.FT                   :  Depth
TVDSS.FT                   :  Reference TVD sub-sea log.
GR   .GAPI                 :  Gamma Ray
RT   .OHMM                 :  True Resistivity
RXO  .OHMM                 :  Flushed Zone Resistivity
NPHI .V/V                  :  Neutron Porosity
RHOB .G/C3                 :  Bulk Density
VCALCITE.V/V                  :  Calcite Volume Fraction
VQUARTZ.V/V                  :  Quartz Volume Fraction
VSH  .V/V                  :  Wet Cl/Sh 1 Volume Fraction
VCOAL.V/V                  :  Coal Volume Fraction
VORGSH.V/V                  :  Organic Shale Volume Fraction
VGAS .V/V                  :  X Gas Volume Fraction
VOIL .V/V                  :  X Oil Volume Fraction
VWATER.V/V                  :  X Water Volume Fraction
PHIT .V/V                  :  Total Porosity
PHIE .V/V                  :  Mahakam burial and vsh limited porosity
SWE  .V/V                  :  Effective Water Saturation
PERM .MD                   :  Permeability
~Parameter Information Block
#MNEM.UNIT            Value   Description
#---------- ----------------  -----------
PROJECT.       KERINDINGAN_FE:  
~Other Information Block
# 
~A       DEPTH          TVDSS             GR             RT            RXO           NPHI           RHOB       VCALCITE        VQUARTZ            VSH          VCOAL         VORGSH           VGAS           VOIL         VWATER           PHIT           PHIE            SWE           PERM 
# ...
       7145.50      6765.6017        31.6274         6.8063         9.9127       0.097200         2.7137       0.999990       0.000000         0.0000       0.000000         0.0000       0.000000      0.0000000       0.000010       0.000010       0.000010         1.0000         0.0171
       7146.00      6766.0420        34.2630         7.4127         8.2887       0.095200         2.6873       0.999990       0.000000         0.0000       0.000000         0.0000       0.000000      0.0000000       0.000010       0.000010       0.000010         1.0000         0.0171
       7146.50      6766.4823        37.2501         8.0279         8.0543       0.095800         2.6535       0.999990       0.000000         0.0000       0.000000         0.0000       0.000000      0.0000000       0.000010       0.000010       0.000010         1.0000         0.0171
       7147.00      6766.9226        38.8314         8.8859         8.0435       0.096400         2.6419       0.999990       0.000000         0.0000       0.000000         0.0000       0.000000      0.0000000       0.000010       0.000010       0.000010         1.0000         0.0171
       7147.50      6767.3628        36.5472         9.9799         9.7075       0.090900         2.6613       0.999990       0.000000         0.0000       0.000000         0.0000       0.000000      0.0000000       0.000010       0.000010       0.000010         1.0000         0.0171
       7148.00      6767.8030        32.6817        10.2419        11.0490       0.088300         2.6834       0.999990       0.000000         0.0000       0.000000         0.0000       0.000000      0.0000000       0.000010       0.000010       0.000010         1.0000         0.0171
       7148.50      6768.2432        31.1003         9.7981        10.9774       0.085600         2.6829       0.999990       0.000000         0.0000       0.000000         0.0000       0.000000      0.0000000       0.000010       0.000010       0.000010         1.0000         0.0171
       7149.00      6768.6834        32.6817         9.1838        10.7291       0.087400         2.6511       0.999990       0.000000         0.0000       0.000000         0.0000       0.000000      0.0000000       0.000010       0.000010       0.000010         1.0000         0.0171
       7149.50      6769.1235        36.7229         8.0358         8.8891       0.094200         2.6321       0.999990       0.000000         0.0000       0.000000         0.0000       0.000000      0.0000000       0.000010       0.000010       0.000010         1.0000         0.0171
       7150.00      6769.5636        41.2913         6.8510         6.8336       0.106500         2.5974       0.999990       0.000000         0.0000       0.000000         0.0000       0.000000      0.0000000       0.000010       0.000010       0.000010         1.0000         0.0171
       7150.50      6770.0037        44.2784         5.3240         5.1256       0.124600         2.5952       0.999990       0.000000         0.0000       0.000000         0.0000       0.000000      0.0000000       0.000010       0.000010       0.000010         1.0000         0.0171
       7151.00      6770.4437        45.8597         4.5120         4.3554       0.147100         2.6045       0.999990       0.000000         0.0000       0.000000         0.0000       0.000000      0.0000000       0.000010       0.000010       0.000010         1.0000         0.0171
       7151.50      6770.8837        45.6840         3.9991         3.7133       0.165900         2.6015       0.999990       0.000000         0.0000       0.000000         0.0000       0.000000      0.0000000       0.000010       0.000010       0.000010         1.0000         0.0171
       7152.00      6771.3237        46.7383         4.2294         3.2693       0.178200         2.5665       0.999990       0.000000         0.0000       0.000000         0.0000       0.000000      0.0000000       0.000010       0.000010       0.000010         1.0000         0.0171
       7152.50      6771.7637        50.9553         2.4470         2.3840       0.187900         2.5239       0.999990       0.000000         0.0000       0.000000         0.0000       0.000000      0.0000000       0.000010       0.000010       0.000010         1.0000         0.0171
       7153.00      6772.2036        54.8208         2.0528         1.9171       0.206500         2.5053       0.000000       0.448585         0.4927       0.000000         0.0000       0.000000      0.0000000       0.058737       0.058737       0.058737         1.0000         0.1014
       7153.50      6772.6435        57.6322         1.9992         1.8342       0.222200         2.5156       0.000000       0.405234         0.5453       0.000000         0.0000       0.000000      0.0000000       0.049492       0.049492       0.049492         1.0000         0.0766
       7154.00      6773.0834        59.2135         1.7198         1.7956       0.235500         2.5306       0.000000       0.370218         0.5886       0.000000         0.0000       0.000000      0.0000000       0.041208       0.041208       0.041208         1.0000         0.0596
       7154.50      6773.5232        58.3350         2.5179         2.1087       0.229900         2.5362       0.000000       0.415289         0.5487       0.000000         0.0000       0.000000      0.0000000       0.035961       0.035961       0.035961         1.0000         0.0508
       7155.00      6773.9630        57.2808         2.2319         2.2538       0.224100         2.5548       0.000000       0.425757         0.5446       0.000000         0.0000       0.000000      0.0000000       0.029663       0.029663       0.029663         1.0000         0.0420
       7155.50      6774.4028        57.9836         2.2284         2.2374       0.215900         2.5742       0.000000       0.419150         0.5606       0.000000         0.0000       0.000000      0.0000000       0.020269       0.020269       0.020269         1.0000         0.0316
       7156.00      6774.8425        58.1593         2.0616         2.1417       0.211500         2.5950       0.000000       0.412154         0.5749       0.000000         0.0000       0.000000      0.0000000       0.012925       0.012925       0.012925         1.0000         0.0253
       7156.50      6775.2823        56.2265         2.4355         2.3383       0.209700         2.5810       0.000000       0.448879         0.5319       0.000000         0.0000       0.000000      0.0000000       0.019232       0.019232       0.019232         1.0000         0.0306
       7157.00      6775.7220        54.9965         2.3443         2.3397       0.203400         2.5558       0.000000       0.464576         0.5030       0.000000         0.0000       0.000000      0.0000000       0.032461       0.032461       0.032461         1.0000         0.0457
       7157.50      6776.1616        56.0508         2.0818         2.1654       0.200500         2.5600       0.000000       0.441715         0.5280       0.000000         0.0000       0.000000      0.0000000       0.030277       0.030277       0.030277         1.0000         0.0428
       7158.00      6776.6013        58.3350         1.9233         1.9737       0.207200         2.5486       0.000000       0.403144         0.5639       0.000000         0.0000       0.000000      0.0000000       0.032933       0.032933       0.032933         1.0000         0.0464
       7158.50      6777.0409        60.6192         1.7181         1.7205       0.220100         2.5480       0.000000       0.356471         0.6119       0.000000         0.0000       0.000000      0.0000000       0.031631       0.031631       0.031631         1.0000         0.0446
       7159.00      6777.4805        62.2006         2.3151         1.8738       0.222700         2.5235       0.000000       0.359772         0.6035       0.000000         0.0000       0.000000      0.0000000       0.036753       0.036753       0.036753         1.0000         0.0520
       7159.50      6777.9200        65.8904         1.5148         1.5860       0.222700         2.5331       0.000000       0.279313         0.6889       0.000000         0.0000       0.000000      0.0000000       0.031740       0.031740       0.031740         1.0000         0.0447
