~Version Information Block
VERS .                  2.0:  CWLS LOG ASCII STANDARD - VERSION 2.0
WRAP .                   NO:  One line per depth step
~Well Information Block
#MNEM.UNIT        Data Type   Information
#---------- ----------------  -----------
STRT .FT               0.00:  START DEPTH
STOP .FT            8213.00:  STOP DEPTH
STEP .FT               0.50:  STEP
NULL .              -999.25:  NULL VALUE
COMP .                     :  COMPANY
WELL .              K-15RD1:  WELL
FLD  .                     :  FIELD
LOC  .                     :  LOCATION
CTRY .                     :  COUNTRY
STAT .                     :  STATE
CNTY .                     :  COUNTY
SRVC .                     :  SERVICE COMPANY
DATE .                     :  DATE
API  .                     :  API NUMBER
UWI  .                     :  UNIQUE WELL ID
~Curve Information Block
#MNEM.UNIT         API CODE   Curve Description
#---------- ----------------  -----------------
DEPTH.FT                   :  Depth
TVDSS.FT                   :  Reference TVD sub-sea log.
GR   .GAPI                 :  Gamma Ray
RT   .OHMM                 :  True Resistivity
RXO  .OHMM                 :  Flushed Zone Resistivity
NPHI .V/V                  :  Neutron Porosity
RHOB .G/C3                 :  Bulk Density
VCALCITE.V/V                  :  Calcite Volume Fraction
VQUARTZ.V/V                  :  Quartz Volume Fraction
VSH  .V/V                  :  Wet Cl/Sh 1 Volume Fraction
VCOAL.V/V                  :  Coal Volume Fraction
VORGSH.V/V                  :  Organic Shale Volume Fraction
VGAS .V/V                  :  X Gas Volume Fraction
VOIL .V/V                  :  X Oil Volume Fraction
VWATER.V/V                  :  X Water Volume Fraction
PHIT .V/V                  :  Total Porosity
PHIE .V/V                  :  Mahakam burial and vsh limited porosity
SWE  .V/V                  :  Effective Water Saturation
PERM .MD                   :  Permeability
~Parameter Information Block
#MNEM.UNIT            Value   Description
#---------- ----------------  -----------
PROJECT.       KERINDINGAN_FE:  
~Other Information Block
# 
~A       DEPTH          TVDSS             GR             RT            RXO           NPHI           RHOB       VCALCITE        VQUARTZ            VSH          VCOAL         VORGSH           VGAS           VOIL         VWATER           PHIT           PHIE            SWE           PERM 
# ...
       7551.50      7104.8543        78.8928         1.9767         1.9546       0.262400         2.5459       0.000000       0.112043         0.8863       0.000000         0.0000       0.000000      0.0000000       0.001626       0.001626       0.001626         1.0000         0.0179
       7552.00      7105.2533        79.4199         1.9816         1.9504       0.263500         2.5478       0.000000       0.105039         0.8942       0.000000         0.0000       0.000000      0.0000000       0.000726       0.000726       0.000726         1.0000         0.0174
       7552.50      7105.6523        76.6086         1.9295         1.9746       0.264800         2.5805       0.000000       0.163820         0.8361       0.000000         0.0000       0.000000      0.0000000       0.000046       0.000046       0.000046         1.0000         0.0171
       7553.00      7106.0512        73.2702         2.0480         2.0368       0.271900         2.5407       0.000000       0.190343         0.7992       0.000000         0.0000       0.000000      0.0000000       0.010505       0.010505       0.010505         1.0000         0.0235
       7553.50      7106.4502        71.6888         2.0617         2.0792       0.261200         2.5669       0.000000       0.221928         0.7744       0.000000         0.0000       0.000000      0.0000000       0.003681       0.003681       0.003681         1.0000         0.0191
       7554.00      7106.8492        71.3374         2.0749         2.1016       0.264500         2.5305       0.000000       0.221631         0.7608       0.000000         0.0000       0.000000      0.0001495       0.017429       0.017578       0.017578         0.9987         0.0291
       7554.50      7107.2482        73.9730         2.0577         2.0647       0.263600         2.5253       0.000000       0.179091         0.8045       0.000000         0.0000       0.000517      0.0000000       0.015849       0.016367       0.016367         0.9711         0.0280
       7555.00      7107.6472        77.8386         1.8642         1.9155       0.274100         2.5095       0.000000       0.105407         0.8752       0.000000         0.0000       0.001279      0.0000000       0.018139       0.019418       0.019418         0.9531         0.0308
       7555.50      7108.0462        79.2442         1.8075         1.8119       0.276200         2.5341       0.000000       0.092253         0.9010       0.000000         0.0000       0.000000      0.0000000       0.006755       0.006755       0.006755         1.0000         0.0209
       7556.00      7108.4452        78.8928         1.7445         1.7732       0.283400         2.5573       0.000000       0.100300         0.8982       0.000000         0.0000       0.000000      0.0000000       0.001543       0.001543       0.001543         1.0000         0.0179
       7556.50      7108.8442        79.2442         1.7296         1.7514       0.290000         2.5611       0.000000       0.094215         0.9049       0.000000         0.0000       0.000000      0.0000000       0.000895       0.000895       0.000895         1.0000         0.0175
       7557.00      7109.2432        79.5957         1.7405         1.7467       0.290400         2.5370       0.000000       0.078989         0.9148       0.000000         0.0000       0.000000      0.0000000       0.006227       0.006227       0.006227         1.0000         0.0206
       7557.50      7109.6422        79.4199         1.7736         1.7519       0.289600         2.5200       0.000000       0.078589         0.9091       0.000000         0.0000       0.000000      0.0000000       0.012283       0.012283       0.012283         1.0000         0.0248
       7558.00      7110.0412        79.2442         1.7987         1.8184       0.285200         2.5409       0.000000       0.089814         0.9057       0.000000         0.0000       0.000000      0.0000000       0.004515       0.004515       0.004515         1.0000         0.0196
       7558.50      7110.4402        78.1900         2.0102         2.0326       0.274100         2.5495       0.999990       0.000000         0.0000       0.000000         0.0000       0.000000      0.0000000       0.000010       0.000010       0.000010         1.0000         0.0171
       7559.00      7110.8393        73.5630         2.1704         2.2655       0.260900         2.5657       0.999990       0.000000         0.0000       0.000000         0.0000       0.000000      0.0000000       0.000010       0.000010       0.000010         1.0000         0.0171
       7559.50      7111.2383        67.0033         2.6992         2.6134       0.243000         2.5439       0.999990       0.000000         0.0000       0.000000         0.0000       0.000000      0.0000000       0.000010       0.000010       0.000010         1.0000         0.0171
       7560.00      7111.6373        65.4804         2.6759         2.7932       0.234100         2.5447       0.999990       0.000000         0.0000       0.000000         0.0000       0.000000      0.0000000       0.000010       0.000010       0.000010         1.0000         0.0171
       7560.50      7112.0364        66.7690         2.6751         2.8126       0.230500         2.5473       0.999990       0.000000         0.0000       0.000000         0.0000       0.000000      0.0000000       0.000010       0.000010       0.000010         1.0000         0.0171
       7561.00      7112.4354        66.0661         2.5359         2.6221       0.239100         2.5339       0.999990       0.000000         0.0000       0.000000         0.0000       0.000000      0.0000000       0.000010       0.000010       0.000010         1.0000         0.0171
       7561.50      7112.8344        65.3633         2.3620         2.3469       0.252800         2.5514       0.999990       0.000000         0.0000       0.000000         0.0000       0.000000      0.0000000       0.000010       0.000010       0.000010         1.0000         0.0171
       7562.00      7113.2335        67.8232         2.1806         2.1403       0.267000         2.5660       0.999990       0.000000         0.0000       0.000000         0.0000       0.000000      0.0000000       0.000010       0.000010       0.000010         1.0000         0.0171
       7562.50      7113.6325        75.0272         1.7944         1.7806       0.282500         2.5577       0.999990       0.000000         0.0000       0.000000         0.0000       0.000000      0.0000000       0.000010       0.000010       0.000010         1.0000         0.0171
       7563.00      7114.0316        81.5284         1.6565         1.5720       0.301000         2.5663       0.999990       0.000000         0.0000       0.000000         0.0000       0.000000      0.0000000       0.000010       0.000010       0.000010         1.0000         0.0171
       7563.50      7114.4307        84.5155         1.5785         1.4845       0.324100         2.5728       0.000000       0.013442         0.9865       0.000000         0.0000       0.000000      0.0000000       0.000072       0.000072       0.000072         1.0000         0.0171
       7564.00      7114.8297        87.5025         1.5384         1.4643       0.331600         2.5956       0.000000       0.000000         1.0000       0.000000         0.0000       0.000000      0.0000000       0.000004       0.000004       0.000004         1.0000         0.0171
       7564.50      7115.2288        90.6652         1.4778         1.4469       0.336900         2.5763       0.000000       0.000000         1.0000       0.000000         0.0000       0.000000      0.0000000       0.000035       0.000035       0.000002         1.0000         0.0171
       7565.00      7115.6279        92.0709         1.4352         1.4279       0.335100         2.5669       0.000000       0.000000         0.9999       0.000000         0.0000       0.000000      0.0000000       0.000132       0.000132       0.000008         1.0000         0.0171
       7565.50      7116.0269        90.6652         1.3942         1.4177       0.336100         2.5702       0.000000       0.000000         0.9998       0.000000         0.0000       0.000000      0.0000000       0.000167       0.000167       0.000010         1.0000         0.0171
