~Version Information Block
VERS .                  2.0:  CWLS LOG ASCII STANDARD - VERSION 2.0
WRAP .                   NO:  One line per depth step
~Well Information Block
#MNEM.UNIT        Data Type   Information
#---------- ----------------  -----------
STRT .FT               0.00:  START DEPTH
STOP .FT            8213.00:  STOP DEPTH
STEP .FT               0.50:  STEP
NULL .              -999.25:  NULL VALUE
COMP .                     :  COMPANY
WELL .              K-15RD1:  WELL
FLD  .                     :  FIELD
LOC  .                     :  LOCATION
CTRY .                     :  COUNTRY
STAT .                     :  STATE
CNTY .                     :  COUNTY
SRVC .                     :  SERVICE COMPANY
DATE .                     :  DATE
API  .                     :  API NUMBER
UWI  .                     :  UNIQUE WELL ID
~Curve Information Block
#MNEM.UNIT         API CODE   Curve Description
#---------- ----------------  -----------------
DEPTH.FT                   :  Depth
TVDSS.FT                   :  Reference TVD sub-sea log.
GR   .GAPI                 :  Gamma Ray
RT   .OHMM                 :  True Resistivity
RXO  .OHMM                 :  Flushed Zone Resistivity
NPHI .V/V                  :  Neutron Porosity
RHOB .G/C3                 :  Bulk Density
VCALCITE.V/V                  :  Calcite Volume Fraction
VQUARTZ.V/V                  :  Quartz Volume Fraction
VSH  .V/V                  :  Wet Cl/Sh 1 Volume Fraction
VCOAL.V/V                  :  Coal Volume Fraction
VORGSH.V/V                  :  Organic Shale Volume Fraction
VGAS .V/V                  :  X Gas Volume Fraction
VOIL .V/V                  :  X Oil Volume Fraction
VWATER.V/V                  :  X Water Volume Fraction
PHIT .V/V                  :  Total Porosity
PHIE .V/V                  :  Mahakam burial and vsh limited porosity
SWE  .V/V                  :  Effective Water Saturation
PERM .MD                   :  Permeability
~Parameter Information Block
#MNEM.UNIT            Value   Description
#---------- ----------------  -----------
PROJECT.       KERINDINGAN_FE:  
~Other Information Block
# 
~A       DEPTH          TVDSS             GR             RT            RXO           NPHI           RHOB       VCALCITE        VQUARTZ            VSH          VCOAL         VORGSH           VGAS           VOIL         VWATER           PHIT           PHIE            SWE           PERM 
# ...
       6348.00      6018.5520        71.7787         2.0744         1.9498       0.247600         2.5534       0.000000       0.249663         0.7503       0.000000         0.0000       0.000000      0.0000000       0.000028       0.000028       0.000028         1.0000         0.0171
       6348.50      6019.0436        64.0756         2.7740         2.5506       0.229100         2.5168       0.999990       0.000000         0.0000       0.000000         0.0000       0.000000      0.0000000       0.000010       0.000010       0.000010         1.0000         0.0171
       6349.00      6019.5352        54.9720         3.4315         3.5775       0.207200         2.4905       0.999990       0.000000         0.0000       0.000000         0.0000       0.000000      0.0000000       0.000010       0.000010       0.000010         1.0000         0.0171
       6349.50      6020.0268        49.0196         3.4315         3.5775       0.186700         2.5025       0.999990       0.000000         0.0000       0.000000         0.0000       0.000000      0.0000000       0.000010       0.000010       0.000010         1.0000         0.0171
       6350.00      6020.5185        50.4202         3.4700         3.9248       0.175800         2.4968       0.999990       0.000000         0.0000       0.000000         0.0000       0.000000      0.0000000       0.000010       0.000010       0.000010         1.0000         0.0171
       6350.50      6021.0101        51.8207         2.9755         3.5200       0.181400         2.5569       0.999990       0.000000         0.0000       0.000000         0.0000       0.000000      0.0000000       0.000010       0.000010       0.000010         1.0000         0.0171
       6351.00      6021.5017        59.8739         2.3979         2.6776       0.194500         2.5410       0.999990       0.000000         0.0000       0.000000         0.0000       0.000000      0.0000000       0.000010       0.000010       0.000010         1.0000         0.0171
       6351.50      6021.9932        67.2269         2.0918         2.1344       0.215900         2.5474       0.999990       0.000000         0.0000       0.000000         0.0000       0.000000      0.0000000       0.000010       0.000010       0.000010         1.0000         0.0171
       6352.00      6022.4848        70.7283         2.0283         1.9683       0.236900         2.5254       0.000000       0.248459         0.7476       0.000000         0.0000       0.000000      0.0000000       0.003983       0.003983       0.003983         1.0000         0.0193
       6352.50      6022.9764        73.5294         1.8804         1.8519       0.254800         2.5412       0.000000       0.218641         0.7811       0.000000         0.0000       0.000000      0.0000000       0.000287       0.000287       0.000287         1.0000         0.0172
       6353.00      6023.4680        76.3305         1.8804         1.8519       0.263600         2.5075       0.000000       0.178158         0.8179       0.000000         0.0000       0.000000      0.0000000       0.003923       0.003923       0.003923         1.0000         0.0192
       6353.50      6023.9595        76.3305         1.7363         1.7672       0.272100         2.5259       0.000000       0.176926         0.8218       0.000000         0.0000       0.000000      0.0000000       0.001236       0.001236       0.001236         1.0000         0.0177
       6354.00      6024.4511        74.9300         1.7193         1.7266       0.270700         2.4883       0.000000       0.181673         0.8022       0.000000         0.0000       0.000000      0.0000000       0.016158       0.016158       0.016158         1.0000         0.0279
       6354.50      6024.9426        74.9300         1.7568         1.7617       0.275100         2.5419       0.000000       0.196787         0.8029       0.000000         0.0000       0.000000      0.0000000       0.000348       0.000348       0.000348         1.0000         0.0172
       6355.00      6025.4341        77.3810         1.7847         1.8043       0.272100         2.5301       0.000000       0.171890         0.8280       0.000000         0.0000       0.000000      0.0000000       0.000118       0.000118       0.000118         1.0000         0.0171
       6355.50      6025.9256        79.8319         1.6702         1.7647       0.266800         2.5537       0.000000       0.162999         0.8370       0.000000         0.0000       0.000000      0.0000000       0.000004       0.000004       0.000004         1.0000         0.0171
       6356.00      6026.4172        81.9328         1.6012         1.6545       0.270300         2.5472       0.000000       0.134565         0.8654       0.000000         0.0000       0.000000      0.0000000       0.000008       0.000008       0.000008         1.0000         0.0171
       6356.50      6026.9087        84.3837         1.5459         1.5750       0.273000         2.5393       0.000000       0.103441         0.8965       0.000000         0.0000       0.000000      0.0000000       0.000012       0.000012       0.000012         1.0000         0.0171
       6357.00      6027.4002        85.0840         1.5459         1.5750       0.285600         2.5389       0.000000       0.094336         0.9057       0.000000         0.0000       0.000000      0.0000000       0.000007       0.000007       0.000007         1.0000         0.0171
       6357.50      6027.8916        84.0336         1.5306         1.5362       0.294900         2.4862       0.000000       0.073363         0.9193       0.000000         0.0000       0.000000      0.0000000       0.007327       0.007327       0.007327         1.0000         0.0213
       6358.00      6028.3831        82.2829         1.4860         1.4692       0.295200         2.5224       0.000000       0.100815         0.8979       0.000000         0.0000       0.000000      0.0000000       0.001309       0.001309       0.001309         1.0000         0.0178
       6358.50      6028.8746        79.4818         1.4599         1.4887       0.291000         2.4776       0.000000       0.116236         0.8650       0.000000         0.0000       0.000000      0.0000000       0.018746       0.018746       0.018746         1.0000         0.0301
       6359.00      6029.3661        74.9300         1.5515         1.5738       0.280300         2.5680       0.999990       0.000000         0.0000       0.000000         0.0000       0.000000      0.0000000       0.000010       0.000010       0.000010         1.0000         0.0171
       6359.50      6029.8575        68.6274         1.7296         1.6661       0.268600         2.5457       0.999990       0.000000         0.0000       0.000000         0.0000       0.000000      0.0000000       0.000010       0.000010       0.000010         1.0000         0.0171
       6360.00      6030.3490        63.7255         2.2777         2.0836       0.252000         2.5997       0.999990       0.000000         0.0000       0.000000         0.0000       0.000000      0.0000000       0.000010       0.000010       0.000010         1.0000         0.0171
       6360.50      6030.8404        58.8235         2.8223         2.8634       0.224400         2.5736       0.999990       0.000000         0.0000       0.000000         0.0000       0.000000      0.0000000       0.000010       0.000010       0.000010         1.0000         0.0171
       6361.00      6031.3318        55.6723         2.8944         3.1477       0.206900         2.5500       0.999990       0.000000         0.0000       0.000000         0.0000       0.000000      0.0000000       0.000010       0.000010       0.000010         1.0000         0.0171
       6361.50      6031.8232        51.4706         3.3153         3.4509       0.192500         2.5150       0.999990       0.000000         0.0000       0.000000         0.0000       0.000000      0.0000000       0.000010       0.000010       0.000010         1.0000         0.0171
       6362.00      6032.3147        47.2689         4.0201         4.2152       0.180600         2.5082       0.999990       0.000000         0.0000       0.000000         0.0000       0.000000      0.0000000       0.000010       0.000010       0.000010         1.0000         0.0171
