~Version Information Block
VERS .                  2.0:  CWLS LOG ASCII STANDARD - VERSION 2.0
WRAP .                   NO:  One line per depth step
~Well Information Block
#MNEM.UNIT        Data Type   Information
#---------- ----------------  -----------
STRT .FT               0.00:  START DEPTH
STOP .FT            8213.00:  STOP DEPTH
STEP .FT               0.50:  STEP
NULL .              -999.25:  NULL VALUE
COMP .                     :  COMPANY
WELL .              K-15RD1:  WELL
FLD  .                     :  FIELD
LOC  .                     :  LOCATION
CTRY .                     :  COUNTRY
STAT .                     :  STATE
CNTY .                     :  COUNTY
SRVC .                     :  SERVICE COMPANY
DATE .                     :  DATE
API  .                     :  API NUMBER
UWI  .                     :  UNIQUE WELL ID
~Curve Information Block
#MNEM.UNIT         API CODE   Curve Description
#---------- ----------------  -----------------
DEPTH.FT                   :  Depth
TVDSS.FT                   :  Reference TVD sub-sea log.
GR   .GAPI                 :  Gamma Ray
RT   .OHMM                 :  True Resistivity
RXO  .OHMM                 :  Flushed Zone Resistivity
NPHI .V/V                  :  Neutron Porosity
RHOB .G/C3                 :  Bulk Density
VCALCITE.V/V                  :  Calcite Volume Fraction
VQUARTZ.V/V                  :  Quartz Volume Fraction
VSH  .V/V                  :  Wet Cl/Sh 1 Volume Fraction
VCOAL.V/V                  :  Coal Volume Fraction
VORGSH.V/V                  :  Organic Shale Volume Fraction
VGAS .V/V                  :  X Gas Volume Fraction
VOIL .V/V                  :  X Oil Volume Fraction
VWATER.V/V                  :  X Water Volume Fraction
PHIT .V/V                  :  Total Porosity
PHIE .V/V                  :  Mahakam burial and vsh limited porosity
SWE  .V/V                  :  Effective Water Saturation
PERM .MD                   :  Permeability
~Parameter Information Block
#MNEM.UNIT            Value   Description
#---------- ----------------  -----------
PROJECT.       KERINDINGAN_FE:  
~Other Information Block
# 
~A       DEPTH          TVDSS             GR             RT            RXO           NPHI           RHOB       VCALCITE        VQUARTZ            VSH          VCOAL         VORGSH           VGAS           VOIL         VWATER           PHIT           PHIE            SWE           PERM 
# ...
       6942.50      6584.3356        59.2135         3.4541         3.7597       0.180800         2.5225       0.000000       0.445119         0.5189       0.000000         0.0000       0.005596      0.0000000       0.030394       0.035990       0.035990         0.8885         0.0509
       6943.00      6584.7892        67.8232         3.0697         2.9516       0.220300         2.5406       0.000000       0.304775         0.6796       0.000000         0.0000       0.001700      0.0000000       0.013959       0.015659       0.015659         0.8914         0.0274
       6943.50      6585.2427        69.2289         2.7773         2.4489       0.240900         2.5770       0.000000       0.283900         0.7157       0.000000         0.0000       0.000000      0.0000000       0.000431       0.000431       0.000431         1.0000         0.0173
       6944.00      6585.6962        60.7949         3.1628         2.6500       0.231400         2.6180       0.000000       0.413025         0.5866       0.000000         0.0000       0.000000      0.0000000       0.000407       0.000407       0.000407         1.0000         0.0173
       6944.50      6586.1497        47.9682         5.6850         4.2965       0.185100         2.6579       0.000000       0.624776         0.3747       0.000000         0.0000       0.000000      0.0000000       0.000482       0.000482       0.000482         1.0000         0.0173
       6945.00      6586.6032        36.7815         7.8773         7.9388       0.128000         2.7186       0.999990       0.000000         0.0000       0.000000         0.0000       0.000000      0.0000000       0.000010       0.000010       0.000010         1.0000         0.0171
       6945.50      6587.0566        30.6903        10.0840        12.5920       0.098300         2.6909       0.999990       0.000000         0.0000       0.000000         0.0000       0.000000      0.0000000       0.000010       0.000010       0.000010         1.0000         0.0171
       6946.00      6587.5099        28.8161        11.5011        19.1146       0.084300         2.6818       0.999990       0.000000         0.0000       0.000000         0.0000       0.000000      0.0000000       0.000010       0.000010       0.000010         1.0000         0.0171
       6946.50      6587.9632        26.0633        13.2515        22.2223       0.087200         2.6131       0.999990       0.000000         0.0000       0.000000         0.0000       0.000000      0.0000000       0.000010       0.000010       0.000010         1.0000         0.0171
       6947.00      6588.4165        23.3106        13.9203        18.8934       0.094100         2.6284       0.999990       0.000000         0.0000       0.000000         0.0000       0.000000      0.0000000       0.000010       0.000010       0.000010         1.0000         0.0171
       6947.50      6588.8697        23.8963        14.0652        15.2426       0.108400         2.5854       0.999990       0.000000         0.0000       0.000000         0.0000       0.000000      0.0000000       0.000010       0.000010       0.000010         1.0000         0.0171
       6948.00      6589.3228        24.7162        13.8737        14.8398       0.119000         2.6148       0.999990       0.000000         0.0000       0.000000         0.0000       0.000000      0.0000000       0.000010       0.000010       0.000010         1.0000         0.0171
       6948.50      6589.7760        24.8334        13.3000        14.6478       0.120000         2.6340       0.999990       0.000000         0.0000       0.000000         0.0000       0.000000      0.0000000       0.000010       0.000010       0.000010         1.0000         0.0171
       6949.00      6590.2290        26.8247        12.5497        13.2190       0.109800         2.6728       0.999990       0.000000         0.0000       0.000000         0.0000       0.000000      0.0000000       0.000010       0.000010       0.000010         1.0000         0.0171
       6949.50      6590.6821        33.2673        10.9660        11.1453       0.099000         2.6695       0.999990       0.000000         0.0000       0.000000         0.0000       0.000000      0.0000000       0.000010       0.000010       0.000010         1.0000         0.0171
       6950.00      6591.1351        42.9898         8.6037         8.7443       0.093000         2.6532       0.999990       0.000000         0.0000       0.000000         0.0000       0.000000      0.0000000       0.000010       0.000010       0.000010         1.0000         0.0171
       6950.50      6591.5880        49.1250         7.3160         7.0511       0.094500         2.6711       0.000000       0.686758         0.3132       0.000000         0.0000       0.000000      0.0000000       0.000025       0.000025       0.000025         1.0000         0.0171
       6951.00      6592.0409        49.6375         6.1700         5.7996       0.104300         2.6689       0.000000       0.661993         0.3380       0.000000         0.0000       0.000000      0.0000000       0.000055       0.000055       0.000055         1.0000         0.0171
       6951.50      6592.4938        46.9579         5.9356         5.5851       0.120200         2.6704       0.000000       0.676227         0.3236       0.000000         0.0000       0.000000      0.0000000       0.000219       0.000219       0.000219         1.0000         0.0172
       6952.00      6592.9466        43.7513         6.9103         5.9507       0.132600         2.6257       0.000000       0.701719         0.2875       0.000000         0.0000       0.000000      0.0000000       0.010757       0.010757       0.010757         1.0000         0.0236
       6952.50      6593.3994        43.5755         5.5842         5.5485       0.135800         2.6145       0.000000       0.693021         0.2903       0.000000         0.0000       0.000000      0.0000000       0.016673       0.016673       0.016673         1.0000         0.0283
       6953.00      6593.8521        47.6168         4.8323         4.8101       0.140000         2.5828       0.000000       0.639473         0.3354       0.000000         0.0000       0.000000      0.0000000       0.025137       0.025137       0.025137         1.0000         0.0366
       6953.50      6594.3048        54.2937         3.9776         3.8427       0.149900         2.5906       0.000000       0.540198         0.4474       0.000000         0.0000       0.000000      0.0000000       0.012404       0.012404       0.012404         1.0000         0.0249
       6954.00      6594.7574        59.0378         3.2635         3.1591       0.169000         2.5710       0.000000       0.460765         0.5243       0.000000         0.0000       0.000000      0.0000000       0.014934       0.014934       0.014934         1.0000         0.0268
       6954.50      6595.2100        57.1050         3.9189         3.2761       0.176400         2.5949       0.000000       0.489155         0.5038       0.000000         0.0000       0.000000      0.0000000       0.007081       0.007081       0.007081         1.0000         0.0212
       6955.00      6595.6625        48.8468         6.2352         4.9447       0.148400         2.6190       0.000000       0.629157         0.3643       0.000000         0.0000       0.000000      0.0000000       0.006543       0.006543       0.006543         1.0000         0.0208
       6955.50      6596.1151        39.0071         8.5841         8.1246       0.114800         2.6513       0.999990       0.000000         0.0000       0.000000         0.0000       0.000000      0.0000000       0.000010       0.000010       0.000010         1.0000         0.0171
       6956.00      6596.5675        32.5060        10.5544        14.1224       0.088700         2.6726       0.999990       0.000000         0.0000       0.000000         0.0000       0.000000      0.0000000       0.000010       0.000010       0.000010         1.0000         0.0171
       6956.50      6597.0199        30.6903        11.7079        18.6400       0.074400         2.6889       0.999990       0.000000         0.0000       0.000000         0.0000       0.000000      0.0000000       0.000010       0.000010       0.000010         1.0000         0.0171
