~Version Information Block
VERS .                  2.0:  CWLS LOG ASCII STANDARD - VERSION 2.0
WRAP .                   NO:  One line per depth step
~Well Information Block
#MNEM.UNIT        Data Type   Information
#---------- ----------------  -----------
STRT .FT               0.00:  START DEPTH
STOP .FT            8213.00:  STOP DEPTH
STEP .FT               0.50:  STEP
NULL .              -999.25:  NULL VALUE
COMP .                     :  COMPANY
WELL .              K-15RD1:  WELL
FLD  .                     :  FIELD
LOC  .                     :  LOCATION
CTRY .                     :  COUNTRY
STAT .                     :  STATE
CNTY .                     :  COUNTY
SRVC .                     :  SERVICE COMPANY
DATE .                     :  DATE
API  .                     :  API NUMBER
UWI  .                     :  UNIQUE WELL ID
~Curve Information Block
#MNEM.UNIT         API CODE   Curve Description
#---------- ----------------  -----------------
DEPTH.FT                   :  Depth
TVDSS.FT                   :  Reference TVD sub-sea log.
GR   .GAPI                 :  Gamma Ray
RT   .OHMM                 :  True Resistivity
RXO  .OHMM                 :  Flushed Zone Resistivity
NPHI .V/V                  :  Neutron Porosity
RHOB .G/C3                 :  Bulk Density
VCALCITE.V/V                  :  Calcite Volume Fraction
VQUARTZ.V/V                  :  Quartz Volume Fraction
VSH  .V/V                  :  Wet Cl/Sh 1 Volume Fraction
VCOAL.V/V                  :  Coal Volume Fraction
VORGSH.V/V                  :  Organic Shale Volume Fraction
VGAS .V/V                  :  X Gas Volume Fraction
VOIL .V/V                  :  X Oil Volume Fraction
VWATER.V/V                  :  X Water Volume Fraction
PHIT .V/V                  :  Total Porosity
PHIE .V/V                  :  Mahakam burial and vsh limited porosity
SWE  .V/V                  :  Effective Water Saturation
PERM .MD                   :  Permeability
~Parameter Information Block
#MNEM.UNIT            Value   Description
#---------- ----------------  -----------
PROJECT.       KERINDINGAN_FE:  
~Other Information Block
# 
~A       DEPTH          TVDSS             GR             RT            RXO           NPHI           RHOB       VCALCITE        VQUARTZ            VSH          VCOAL         VORGSH           VGAS           VOIL         VWATER           PHIT           PHIE            SWE           PERM 
# ...
       6739.50      6396.5450        43.0672         3.2164         3.3197       0.189400         2.4426       0.000000       0.632894         0.2609       0.000000         0.0000       0.000000      0.0097046       0.096484       0.106189       0.106189         0.9217         0.4281
       6740.00      6397.0156        49.0196         3.0730         3.2019       0.196700         2.4428       0.000000       0.541846         0.3619       0.000000         0.0000       0.000000      0.0185738       0.077633       0.096206       0.096206         0.8257         0.3162
       6740.50      6397.4863        58.4734         2.5751         2.7177       0.210700         2.4839       0.000000       0.417044         0.5225       0.000000         0.0000       0.000000      0.0109157       0.049550       0.060465       0.060465         0.8458         0.1069
       6741.00      6397.9569        67.4020         2.2533         2.3226       0.231900         2.4801       0.000000       0.269161         0.6845       0.000000         0.0000       0.010174      0.0000000       0.036142       0.046316       0.046316         0.7990         0.0696
       6741.50      6398.4275        73.1793         2.0166         2.0228       0.262900         2.4716       0.000000       0.160582         0.7962       0.000000         0.0000       0.009894      0.0000000       0.033345       0.043239       0.043239         0.7777         0.0634
       6742.00      6398.8980        76.8557         1.8810         1.8559       0.274000         2.4623       0.000000       0.093660         0.8630       0.000000         0.0000       0.010058      0.0000000       0.033272       0.043330       0.032446         0.7691         0.0457
       6742.50      6399.3685        79.3067         1.8487         1.8012       0.276200         2.4635       0.000000       0.056137         0.9042       0.000000         0.0000       0.009178      0.0000000       0.030489       0.039667       0.021125         0.7686         0.0324
       6743.00      6399.8390        79.8319         1.8410         1.8278       0.279100         2.4704       0.000000       0.050658         0.9138       0.000000         0.0000       0.008064      0.0000000       0.027489       0.035553       0.018612         0.7772         0.0300
       6743.50      6400.3094        79.3067         1.8432         1.8242       0.294800         2.4860       0.000000       0.059215         0.9122       0.000000         0.0000       0.005667      0.0000000       0.022947       0.028615       0.019032         0.8019         0.0304
       6744.00      6400.7799        78.2563         1.7562         1.7971       0.296600         2.5080       0.000000       0.086826         0.8940       0.000000         0.0000       0.002679      0.0000000       0.016460       0.019139       0.019139         0.8722         0.0305
       6744.50      6401.2502        77.5560         1.7698         1.7976       0.296700         2.5339       0.000000       0.112626         0.8804       0.000000         0.0000       0.000000      0.0004940       0.006452       0.006946       0.006946         0.9374         0.0211
       6745.00      6401.7206        80.0070         1.8302         1.8664       0.295700         2.5396       0.000000       0.079342         0.9205       0.000000         0.0000       0.000000      0.0000124       0.000153       0.000165       0.000165         1.0000         0.0171
       6745.50      6402.1909        83.8585         1.8718         1.9143       0.307000         2.5278       0.000000       0.007792         0.9910       0.000000         0.0000       0.000170      0.0000000       0.001058       0.001229       0.001229         0.8728         0.0177
       6746.00      6402.6612        84.5588         1.8395         1.8910       0.310600         2.5200       0.000000       0.000000         0.9952       0.000000         0.0000       0.000740      0.0000000       0.004020       0.004760       0.000576         0.8589         0.0174
       6746.50      6403.1314        81.2325         1.8622         1.9006       0.299300         2.4833       0.000000       0.026315         0.9465       0.000000         0.0000       0.006222      0.0000000       0.020962       0.027183       0.010497         0.7840         0.0235
       6747.00      6403.6016        78.9566         1.9810         2.0009       0.298100         2.4923       0.000000       0.066670         0.9078       0.000000         0.0000       0.005746      0.0000000       0.019753       0.025499       0.020163         0.7808         0.0315
       6747.50      6404.0718        79.6569         1.8948         1.9629       0.293100         2.4922       0.000000       0.058587         0.9167       0.000000         0.0000       0.005425      0.0000000       0.019302       0.024728       0.017861         0.7996         0.0293
       6748.00      6404.5420        78.4314         1.9221         1.9531       0.300500         2.5313       0.000000       0.095821         0.8971       0.000000         0.0000       0.000000      0.0009053       0.006196       0.007101       0.007101         0.8807         0.0212
       6748.50      6405.0121        76.3305         1.9886         1.9908       0.290900         2.5197       0.000000       0.125937         0.8577       0.000000         0.0000       0.000000      0.0025330       0.013792       0.016325       0.016325         0.8453         0.0280
       6749.00      6405.4822        78.4314         1.9461         2.0036       0.289600         2.5108       0.000000       0.089715         0.8933       0.000000         0.0000       0.003146      0.0000000       0.013887       0.017033       0.017033         0.8302         0.0286
       6749.50      6405.9522        81.4075         1.9155         1.9418       0.285600         2.4989       0.000000       0.039816         0.9410       0.000000         0.0000       0.003964      0.0000000       0.015193       0.019158       0.011798         0.8028         0.0244
       6750.00      6406.4222        80.8823         1.9058         1.9357       0.294000         2.4928       0.000000       0.039853         0.9373       0.000000         0.0000       0.004971      0.0000000       0.017920       0.022890       0.012708         0.7930         0.0251
       6750.50      6406.8922        79.4818         1.9482         1.9662       0.300700         2.5110       0.000000       0.067985         0.9164       0.000000         0.0000       0.002854      0.0000000       0.012770       0.015624       0.015624         0.8221         0.0274
       6751.00      6407.3622        79.1316         1.8794         1.9293       0.300200         2.4880       0.000000       0.060355         0.9121       0.000000         0.0000       0.006020      0.0000000       0.021540       0.027560       0.019048         0.7956         0.0304
       6751.50      6407.8321        78.7815         1.8304         1.8699       0.306500         2.4928       0.000000       0.064992         0.9092       0.000000         0.0000       0.005035      0.0000000       0.020806       0.025841       0.019809         0.8160         0.0311
       6752.00      6408.3020        77.0308         1.8427         1.8538       0.313500         2.4732       0.000000       0.076585         0.8851       0.000000         0.0000       0.006870      0.0015599       0.029861       0.038292       0.026257         0.7826         0.0378
       6752.50      6408.7718        76.3305         1.8417         1.8810       0.318200         2.4644       0.000000       0.079647         0.8755       0.000000         0.0000       0.004582      0.0062795       0.033980       0.044841       0.028914         0.7673         0.0410
       6753.00      6409.2416        77.9062         1.8825         1.9052       0.312700         2.4453       0.000000       0.048181         0.9022       0.000000         0.0000       0.013764      0.0000000       0.035836       0.049600       0.021639         0.7306         0.0329
       6753.50      6409.7114        76.1555         1.8825         1.9252       0.298400         2.4148       0.000000       0.065079         0.8690       0.000000         0.0000       0.020669      0.0000000       0.045262       0.065931       0.030739         0.7029         0.0434
