~Version Information Block
VERS .                  2.0:  CWLS LOG ASCII STANDARD - VERSION 2.0
WRAP .                   NO:  One line per depth step
~Well Information Block
#MNEM.UNIT        Data Type   Information
#---------- ----------------  -----------
STRT .FT               0.00:  START DEPTH
STOP .FT            8213.00:  STOP DEPTH
STEP .FT               0.50:  STEP
NULL .              -999.25:  NULL VALUE
COMP .                     :  COMPANY
WELL .              K-15RD1:  WELL
FLD  .                     :  FIELD
LOC  .                     :  LOCATION
CTRY .                     :  COUNTRY
STAT .                     :  STATE
CNTY .                     :  COUNTY
SRVC .                     :  SERVICE COMPANY
DATE .                     :  DATE
API  .                     :  API NUMBER
UWI  .                     :  UNIQUE WELL ID
~Curve Information Block
#MNEM.UNIT         API CODE   Curve Description
#---------- ----------------  -----------------
DEPTH.FT                   :  Depth
TVDSS.FT                   :  Reference TVD sub-sea log.
GR   .GAPI                 :  Gamma Ray
RT   .OHMM                 :  True Resistivity
RXO  .OHMM                 :  Flushed Zone Resistivity
NPHI .V/V                  :  Neutron Porosity
RHOB .G/C3                 :  Bulk Density
VCALCITE.V/V                  :  Calcite Volume Fraction
VQUARTZ.V/V                  :  Quartz Volume Fraction
VSH  .V/V                  :  Wet Cl/Sh 1 Volume Fraction
VCOAL.V/V                  :  Coal Volume Fraction
VORGSH.V/V                  :  Organic Shale Volume Fraction
VGAS .V/V                  :  X Gas Volume Fraction
VOIL .V/V                  :  X Oil Volume Fraction
VWATER.V/V                  :  X Water Volume Fraction
PHIT .V/V                  :  Total Porosity
PHIE .V/V                  :  Mahakam burial and vsh limited porosity
SWE  .V/V                  :  Effective Water Saturation
PERM .MD                   :  Permeability
~Parameter Information Block
#MNEM.UNIT            Value   Description
#---------- ----------------  -----------
PROJECT.       KERINDINGAN_FE:  
~Other Information Block
# 
~A       DEPTH          TVDSS             GR             RT            RXO           NPHI           RHOB       VCALCITE        VQUARTZ            VSH          VCOAL         VORGSH           VGAS           VOIL         VWATER           PHIT           PHIE            SWE           PERM 
# ...
       8160.50      7597.0114        60.1347         3.0032         2.8601    -999.250000      -999.2500       0.000000       0.346079         0.5130       0.000000         0.0000    -999.250000      0.0220057       0.118962       0.140968       0.140968         0.8439         1.2301
       8161.00      7597.4186        61.3691         3.0293         2.9217    -999.250000      -999.2500       0.000000       0.329592         0.5381       0.000000         0.0000    -999.250000      0.0222844       0.109978       0.132262       0.132262         0.8315         0.9445
       8161.50      7597.8257        62.9562         3.0383         2.9062    -999.250000      -999.2500       0.000000       0.308257         0.5705       0.000000         0.0000    -999.250000      0.0210060       0.100202       0.121208       0.121208         0.8267         0.6753
       8162.00      7598.2329        64.5434         3.0394         2.8813    -999.250000      -999.2500       0.000000       0.286753         0.6029       0.000000         0.0000    -999.250000      0.0193758       0.090945       0.110320       0.110320         0.8244         0.4853
       8162.50      7598.6401        63.8380         3.0546         2.9374    -999.250000      -999.2500       0.000000       0.296336         0.5885       0.000000         0.0000    -999.250000      0.0206947       0.094439       0.115133       0.115133         0.8203         0.5616
       8163.00      7599.0472        60.6637         2.9451         3.0574    -999.250000      -999.2500       0.000000       0.339037         0.5237       0.000000         0.0000    -999.250000      0.0245714       0.112642       0.137214       0.137214         0.8392         1.0977
       8163.50      7599.4543        56.4314         3.0938         3.2011    -999.250000      -999.2500       0.000000       0.395034         0.4374       0.000000         0.0000    -999.250000      0.0303433       0.137247       0.167590       0.167590         0.8355         2.7595
       8164.00      7599.8615        54.4915         3.2043         3.3601    -999.250000      -999.2500       0.000000       0.420379         0.3978       0.000000         0.0000    -999.250000      0.0350935       0.146742       0.181836       0.181836         0.8299         4.2520
       8164.50      7600.2686        56.4314         3.2432         3.4028    -999.250000      -999.2500       0.000000       0.395041         0.4374       0.000000         0.0000    -999.250000      0.0351876       0.132396       0.167584       0.167584         0.8127         2.7590
       8165.00      7600.6757        61.8981         3.2881         3.3820    -999.250000      -999.2500       0.000000       0.322519         0.5489       0.000000         0.0000    -999.250000      0.0296553       0.098885       0.128541       0.128541         0.7821         0.8437
       8165.50      7601.0828        67.0122         3.3352         3.1704    -999.250000      -999.2500       0.000000       0.252959         0.6533       0.000000         0.0000    -999.250000      0.0210405       0.072691       0.093731       0.093731         0.7755         0.2933
       8166.00      7601.4899        65.9541         3.1660         3.1553    -999.250000      -999.2500       0.000000       0.267506         0.6317       0.000000         0.0000    -999.250000      0.0211512       0.079627       0.100778       0.100778         0.7901         0.3633
       8166.50      7601.8970        61.3691         3.2065         3.2258    -999.250000      -999.2500       0.000000       0.329619         0.5381       0.000000         0.0000    -999.250000      0.0273968       0.104839       0.132236       0.132236         0.7956         0.9438
       8167.00      7602.3040        58.9002         3.3720         3.3913    -999.250000      -999.2500       0.000000       0.362514         0.4878       0.000000         0.0000    -999.250000      0.0330055       0.116722       0.149727       0.149727         0.7822         1.6048
       8167.50      7602.7111        61.0164         3.3235         3.5493    -999.250000      -999.2500       0.000000       0.334347         0.5309       0.000000         0.0000    -999.250000      0.0335829       0.101123       0.134706       0.134706         0.7803         1.0173
       8168.00      7603.1182        68.4230         3.1552         3.3280    -999.250000      -999.2500       0.000000       0.233437         0.6821       0.000000         0.0000    -999.250000      0.0199672       0.064494       0.084461       0.084461         0.7879         0.2214
       8168.50      7603.5252        75.8296         3.1264         3.0385    -999.250000      -999.2500       0.000000       0.127805         0.8333       0.000000         0.0000    -999.250000      0.0075657       0.031372       0.038938       0.038938         0.8057         0.0556
       8169.00      7603.9323        74.7715         3.2466         3.1032    -999.250000      -999.2500       0.000000       0.143274         0.8117       0.000000         0.0000    -999.250000      0.0094863       0.035577       0.045063       0.045063         0.7895         0.0670
       8169.50      7604.3393        65.4251         3.3804         3.3377    -999.250000      -999.2500       0.000000       0.274760         0.6209       0.000000         0.0000    -999.250000      0.0246947       0.079625       0.104320       0.104320         0.7633         0.4045
       8170.00      7604.7463        55.3733         3.5233         3.6366    -999.250000      -999.2500       0.000000       0.408923         0.4158       0.000000         0.0000    -999.250000      0.0411318       0.134164       0.175296       0.175296         0.7797         3.4866
       8170.50      7605.1533        49.5538         3.6272         3.7227    -999.250000      -999.2500       0.000000       0.484103         0.2970       0.000000         0.0000    -999.250000      0.0455922       0.173288       0.218881       0.218881         0.8039        13.0872
       8171.00      7605.5604        48.3193         3.6844         3.8843    -999.250000      -999.2500       0.000000       0.499855         0.2718       0.000000         0.0000    -999.250000      0.0500151       0.178308       0.228323       0.228323         0.8056        17.4299
       8171.50      7605.9674        48.9072         3.5924         3.9063    -999.250000      -999.2500       0.000000       0.492367         0.2838       0.000000         0.0000    -999.250000      0.0505502       0.173262       0.223812       0.223812         0.8132        15.1999
       8172.00      7606.3744        49.4950         3.4650         3.7482    -999.250000      -999.2500       0.000000       0.484866         0.2958       0.000000         0.0000    -999.250000      0.0462867       0.173030       0.219317       0.219317         0.8263        13.2616
       8172.50      7606.7814        51.3760         3.4783         3.6342    -999.250000      -999.2500       0.000000       0.460750         0.3342       0.000000         0.0000    -999.250000      0.0430170       0.162029       0.205046       0.205046         0.8109         8.6000
       8173.00      7607.1884        54.0800         3.6693         3.7448    -999.250000      -999.2500       0.000000       0.425791         0.3894       0.000000         0.0000    -999.250000      0.0444452       0.140376       0.184821       0.184821         0.7687         4.6552
       8173.50      7607.5954        54.7854         3.6151         3.7075    -999.250000      -999.2500       0.000000       0.416615         0.4038       0.000000         0.0000    -999.250000      0.0431103       0.136491       0.179602       0.179602         0.7713         3.9733
       8174.00      7608.0024        53.1395         3.4675         3.5478    -999.250000      -999.2500       0.000000       0.437998         0.3702       0.000000         0.0000    -999.250000      0.0403092       0.151500       0.191809       0.191809         0.8006         5.7549
       8174.50      7608.4094      -999.2500         3.4889         3.5634    -999.250000      -999.2500    -999.250000    -999.250000      -999.2500    -999.250000      -999.2500    -999.250000   -999.2500000    -999.250000    -999.250000    -999.250000      -999.2500      -999.2500
