~Version Information Block
VERS .                  2.0:  CWLS LOG ASCII STANDARD - VERSION 2.0
WRAP .                   NO:  One line per depth step
~Well Information Block
#MNEM.UNIT        Data Type   Information
#---------- ----------------  -----------
STRT .FT               0.00:  START DEPTH
STOP .FT            8213.00:  STOP DEPTH
STEP .FT               0.50:  STEP
NULL .              -999.25:  NULL VALUE
COMP .                     :  COMPANY
WELL .              K-15RD1:  WELL
FLD  .                     :  FIELD
LOC  .                     :  LOCATION
CTRY .                     :  COUNTRY
STAT .                     :  STATE
CNTY .                     :  COUNTY
SRVC .                     :  SERVICE COMPANY
DATE .                     :  DATE
API  .                     :  API NUMBER
UWI  .                     :  UNIQUE WELL ID
~Curve Information Block
#MNEM.UNIT         API CODE   Curve Description
#---------- ----------------  -----------------
DEPTH.FT                   :  Depth
TVDSS.FT                   :  Reference TVD sub-sea log.
GR   .GAPI                 :  Gamma Ray
RT   .OHMM                 :  True Resistivity
RXO  .OHMM                 :  Flushed Zone Resistivity
NPHI .V/V                  :  Neutron Porosity
RHOB .G/C3                 :  Bulk Density
VCALCITE.V/V                  :  Calcite Volume Fraction
VQUARTZ.V/V                  :  Quartz Volume Fraction
VSH  .V/V                  :  Wet Cl/Sh 1 Volume Fraction
VCOAL.V/V                  :  Coal Volume Fraction
VORGSH.V/V                  :  Organic Shale Volume Fraction
VGAS .V/V                  :  X Gas Volume Fraction
VOIL .V/V                  :  X Oil Volume Fraction
VWATER.V/V                  :  X Water Volume Fraction
PHIT .V/V                  :  Total Porosity
PHIE .V/V                  :  Mahakam burial and vsh limited porosity
SWE  .V/V                  :  Effective Water Saturation
PERM .MD                   :  Permeability
~Parameter Information Block
#MNEM.UNIT            Value   Description
#---------- ----------------  -----------
PROJECT.       KERINDINGAN_FE:  
~Other Information Block
# 
~A       DEPTH          TVDSS             GR             RT            RXO           NPHI           RHOB       VCALCITE        VQUARTZ            VSH          VCOAL         VORGSH           VGAS           VOIL         VWATER           PHIT           PHIE            SWE           PERM 
# ...
       7348.50      6939.6382        60.9706         2.7657         2.8413       0.212900         2.5255       0.000000       0.402579         0.5628       0.000000         0.0000       0.000000      0.0020956       0.032545       0.034640       0.034640         0.9539         0.0488
       7349.00      6940.0540        58.6864         2.7711         2.9875       0.203600         2.5070       0.000000       0.430917         0.5213       0.000000         0.0000       0.000000      0.0053410       0.042458       0.047799       0.047799         0.9280         0.0728
       7349.50      6940.4698        59.3892         2.8422         3.0175       0.201800         2.5310       0.000000       0.435601         0.5306       0.000000         0.0000       0.000000      0.0014813       0.032333       0.033815       0.033815         0.9897         0.0476
       7350.00      6940.8855        62.5520         2.7621         2.9040       0.205600         2.5482       0.000000       0.393353         0.5864       0.000000         0.0000       0.000000      0.0001074       0.020137       0.020244       0.020244         1.0000         0.0315
       7350.50      6941.3012        65.1876         2.6902         2.7609       0.211600         2.5518       0.000000       0.352889         0.6326       0.000000         0.0000       0.000000      0.0000000       0.014498       0.014498       0.014498         1.0000         0.0265
       7351.00      6941.7169        65.7147         2.7822         2.6896       0.215700         2.5476       0.000000       0.343048         0.6414       0.000000         0.0000       0.000000      0.0001758       0.015402       0.015578       0.015578         0.9887         0.0274
       7351.50      6942.1325        65.5390         3.0323         2.7330       0.219000         2.5503       0.000000       0.345682         0.6400       0.000000         0.0000       0.000000      0.0004138       0.013917       0.014330       0.014330         0.9711         0.0264
       7352.00      6942.5480        65.7147         2.9897         2.6872       0.213800         2.5552       0.000000       0.348097         0.6405       0.000000         0.0000       0.000000      0.0000000       0.011447       0.011447       0.011447         1.0000         0.0241
       7352.50      6942.9636        62.2006         4.0686         3.2508       0.203000         2.5595       0.999990       0.000000         0.0000       0.000000         0.0000       0.000000      0.0000000       0.000010       0.000010       0.000010         1.0000         0.0171
       7353.00      6943.3790        53.7666         7.1030         5.1549       0.171600         2.5798       0.999990       0.000000         0.0000       0.000000         0.0000       0.000000      0.0000000       0.000010       0.000010       0.000010         1.0000         0.0171
       7353.50      6943.7945        46.0355        10.5000         9.6002       0.133100         2.6029       0.999990       0.000000         0.0000       0.000000         0.0000       0.000000      0.0000000       0.000010       0.000010       0.000010         1.0000         0.0171
       7354.00      6944.2099        40.8814        17.0909        17.5595       0.097900         2.6793       0.999990       0.000000         0.0000       0.000000         0.0000       0.000000      0.0000000       0.000010       0.000010       0.000010         1.0000         0.0171
       7354.50      6944.6252        36.8401        18.5633        21.3258       0.072100         2.6919       0.999990       0.000000         0.0000       0.000000         0.0000       0.000000      0.0000000       0.000010       0.000010       0.000010         1.0000         0.0171
       7355.00      6945.0405        33.8530        24.1595        32.4302       0.054800         2.6795       0.999990       0.000000         0.0000       0.000000         0.0000       0.000000      0.0000000       0.000010       0.000010       0.000010         1.0000         0.0171
       7355.50      6945.4558        30.9246        34.6380        41.1488       0.043800         2.6607       0.999990       0.000000         0.0000       0.000000         0.0000       0.000000      0.0000000       0.000010       0.000010       0.000010         1.0000         0.0171
       7356.00      6945.8710        29.4018        38.5136        37.7898       0.039000         2.6727       0.999990       0.000000         0.0000       0.000000         0.0000       0.000000      0.0000000       0.000010       0.000010       0.000010         1.0000         0.0171
       7356.50      6946.2862        30.7489        37.7839        39.3195       0.039300         2.7003       0.999990       0.000000         0.0000       0.000000         0.0000       0.000000      0.0000000       0.000010       0.000010       0.000010         1.0000         0.0171
       7357.00      6946.7014        30.5732        39.1975        42.9001       0.041100         2.6987       0.999990       0.000000         0.0000       0.000000         0.0000       0.000000      0.0000000       0.000010       0.000010       0.000010         1.0000         0.0171
       7357.50      6947.1165        26.3562        45.2466        61.3403       0.037400         2.7135       0.999990       0.000000         0.0000       0.000000         0.0000       0.000000      0.0000000       0.000010       0.000010       0.000010         1.0000         0.0171
       7358.00      6947.5315        22.6663        48.8707        74.7337       0.033200         2.6596       0.999990       0.000000         0.0000       0.000000         0.0000       0.000000      0.0000000       0.000010       0.000010       0.000010         1.0000         0.0171
       7358.50      6947.9466        23.3691        48.4018        75.1419       0.030500         2.6621       0.999990       0.000000         0.0000       0.000000         0.0000       0.000000      0.0000000       0.000010       0.000010       0.000010         1.0000         0.0171
       7359.00      6948.3615        28.1133        48.6128        62.0278       0.034700         2.6635       0.999990       0.000000         0.0000       0.000000         0.0000       0.000000      0.0000000       0.000010       0.000010       0.000010         1.0000         0.0171
       7359.50      6948.7765        33.7359        49.3053        50.4644       0.039400         2.6796       0.999990       0.000000         0.0000       0.000000         0.0000       0.000000      0.0000000       0.000010       0.000010       0.000010         1.0000         0.0171
       7360.00      6949.1914        34.9659        46.0018        48.5457       0.046000         2.6792       0.999990       0.000000         0.0000       0.000000         0.0000       0.000000      0.0000000       0.000010       0.000010       0.000010         1.0000         0.0171
       7360.50      6949.6062        29.6946        51.6754        56.0697       0.051500         2.6528       0.999990       0.000000         0.0000       0.000000         0.0000       0.000000      0.0000000       0.000010       0.000010       0.000010         1.0000         0.0171
       7361.00      6950.0210        23.1934        55.8823        52.9141       0.059200         2.6333       0.999990       0.000000         0.0000       0.000000         0.0000       0.000000      0.0000000       0.000010       0.000010       0.000010         1.0000         0.0171
       7361.50      6950.4358        20.5578        58.8884        50.2782       0.056700         2.6363       0.999990       0.000000         0.0000       0.000000         0.0000       0.000000      0.0000000       0.000010       0.000010       0.000010         1.0000         0.0171
       7362.00      6950.8505        20.5578        52.7841        58.0881       0.054000         2.6528       0.999990       0.000000         0.0000       0.000000         0.0000       0.000000      0.0000000       0.000010       0.000010       0.000010         1.0000         0.0171
       7362.50      6951.2652        21.4364        42.9117        50.6217       0.047000         2.6549       0.999990       0.000000         0.0000       0.000000         0.0000       0.000000      0.0000000       0.000010       0.000010       0.000010         1.0000         0.0171
