~Version Information Block
VERS .                  2.0:  CWLS LOG ASCII STANDARD - VERSION 2.0
WRAP .                   NO:  One line per depth step
~Well Information Block
#MNEM.UNIT        Data Type   Information
#---------- ----------------  -----------
STRT .FT               0.00:  START DEPTH
STOP .FT            8213.00:  STOP DEPTH
STEP .FT               0.50:  STEP
NULL .              -999.25:  NULL VALUE
COMP .                     :  COMPANY
WELL .              K-15RD1:  WELL
FLD  .                     :  FIELD
LOC  .                     :  LOCATION
CTRY .                     :  COUNTRY
STAT .                     :  STATE
CNTY .                     :  COUNTY
SRVC .                     :  SERVICE COMPANY
DATE .                     :  DATE
API  .                     :  API NUMBER
UWI  .                     :  UNIQUE WELL ID
~Curve Information Block
#MNEM.UNIT         API CODE   Curve Description
#---------- ----------------  -----------------
DEPTH.FT                   :  Depth
TVDSS.FT                   :  Reference TVD sub-sea log.
GR   .GAPI                 :  Gamma Ray
RT   .OHMM                 :  True Resistivity
RXO  .OHMM                 :  Flushed Zone Resistivity
NPHI .V/V                  :  Neutron Porosity
RHOB .G/C3                 :  Bulk Density
VCALCITE.V/V                  :  Calcite Volume Fraction
VQUARTZ.V/V                  :  Quartz Volume Fraction
VSH  .V/V                  :  Wet Cl/Sh 1 Volume Fraction
VCOAL.V/V                  :  Coal Volume Fraction
VORGSH.V/V                  :  Organic Shale Volume Fraction
VGAS .V/V                  :  X Gas Volume Fraction
VOIL .V/V                  :  X Oil Volume Fraction
VWATER.V/V                  :  X Water Volume Fraction
PHIT .V/V                  :  Total Porosity
PHIE .V/V                  :  Mahakam burial and vsh limited porosity
SWE  .V/V                  :  Effective Water Saturation
PERM .MD                   :  Permeability
~Parameter Information Block
#MNEM.UNIT            Value   Description
#---------- ----------------  -----------
PROJECT.       KERINDINGAN_FE:  
~Other Information Block
# 
~A       DEPTH          TVDSS             GR             RT            RXO           NPHI           RHOB       VCALCITE        VQUARTZ            VSH          VCOAL         VORGSH           VGAS           VOIL         VWATER           PHIT           PHIE            SWE           PERM 
# ...
       7754.50      7267.5533        79.7714         1.7341         1.8810       0.254400         2.5530       0.000000       0.101756         0.8970       0.000000         0.0000       0.000000      0.0000000       0.001224       0.001224       0.001224         1.0000         0.0177
       7755.00      7267.9563        74.5001         2.0177         2.0843       0.237700         2.5508       0.000000       0.189917         0.8049       0.000000         0.0000       0.000000      0.0000000       0.005136       0.005136       0.005136         1.0000         0.0199
       7755.50      7268.3593        70.9860         2.3777         2.3337       0.223200         2.5505       0.000000       0.256178         0.7361       0.000000         0.0000       0.000000      0.0000000       0.007701       0.007701       0.007701         1.0000         0.0216
       7756.00      7268.7624        68.8775         2.2804         2.4171       0.219200         2.5343       0.000000       0.284456         0.6972       0.000000         0.0000       0.000588      0.0000000       0.017749       0.018337       0.018337         1.0000         0.0298
       7756.50      7269.1654        67.1204         2.2912         2.4607       0.214300         2.5069       0.000000       0.297628         0.6678       0.000000         0.0000       0.003976      0.0000000       0.030637       0.034614       0.034614         0.9308         0.0488
       7757.00      7269.5684        65.7147         2.5231         2.6128       0.214300         2.5286       0.000000       0.332173         0.6423       0.000000         0.0000       0.001529      0.0000000       0.023973       0.025502       0.025502         0.9611         0.0370
       7757.50      7269.9715        66.4176         2.5493         2.5920       0.215500         2.5339       0.000000       0.324106         0.6541       0.000000         0.0000       0.000969      0.0000000       0.020815       0.021784       0.021784         0.9661         0.0330
       7758.00      7270.3745        67.4718         2.8045         2.6638       0.207300         2.5626       0.000000       0.323679         0.6702       0.000000         0.0000       0.000000      0.0000000       0.006161       0.006161       0.006161         1.0000         0.0206
       7758.50      7270.7776        67.4718         2.7887         2.7137       0.198500         2.5476       0.000000       0.325361         0.6619       0.000000         0.0000       0.000278      0.0000000       0.012436       0.012714       0.012714         0.9781         0.0251
       7759.00      7271.1806        65.7147         3.0938         2.9304       0.178300         2.5700       0.000000       0.367043         0.6280       0.000000         0.0000       0.000000      0.0000000       0.004937       0.004937       0.004937         1.0000         0.0198
       7759.50      7271.5837        58.3350         4.2323         3.8325       0.158900         2.5796       0.999990       0.000000         0.0000       0.000000         0.0000       0.000000      0.0000000       0.000010       0.000010       0.000010         1.0000         0.0171
       7760.00      7271.9868        47.4411         5.7132         5.8577       0.137100         2.6166       0.999990       0.000000         0.0000       0.000000         0.0000       0.000000      0.0000000       0.000010       0.000010       0.000010         1.0000         0.0171
       7760.50      7272.3898        39.8857         7.2072         7.9783       0.118300         2.6153       0.999990       0.000000         0.0000       0.000000         0.0000       0.000000      0.0000000       0.000010       0.000010       0.000010         1.0000         0.0171
       7761.00      7272.7929        37.6015         7.1325        10.0097       0.106700         2.6021       0.999990       0.000000         0.0000       0.000000         0.0000       0.000000      0.0000000       0.000010       0.000010       0.000010         1.0000         0.0171
       7761.50      7273.1960        37.7772         7.1362        10.1034       0.103400         2.5742       0.999990       0.000000         0.0000       0.000000         0.0000       0.000000      0.0000000       0.000010       0.000010       0.000010         1.0000         0.0171
       7762.00      7273.5990        39.3586         7.1214         9.3968       0.108300         2.5686       0.999990       0.000000         0.0000       0.000000         0.0000       0.000000      0.0000000       0.000010       0.000010       0.000010         1.0000         0.0171
       7762.50      7274.0021        41.4670         6.9274         8.3862       0.114400         2.5401       0.999990       0.000000         0.0000       0.000000         0.0000       0.000000      0.0000000       0.000010       0.000010       0.000010         1.0000         0.0171
       7763.00      7274.4052        42.1699         6.8566         6.9085       0.121900         2.5418       0.999990       0.000000         0.0000       0.000000         0.0000       0.000000      0.0000000       0.000010       0.000010       0.000010         1.0000         0.0171
       7763.50      7274.8083        42.8727         6.9237         6.3392       0.123100         2.5696       0.999990       0.000000         0.0000       0.000000         0.0000       0.000000      0.0000000       0.000010       0.000010       0.000010         1.0000         0.0171
       7764.00      7275.2114        42.8727         6.8116         6.6171       0.118200         2.6190       0.999990       0.000000         0.0000       0.000000         0.0000       0.000000      0.0000000       0.000010       0.000010       0.000010         1.0000         0.0171
       7764.50      7275.6145        41.1156         6.7902         6.8442       0.110100         2.5790       0.999990       0.000000         0.0000       0.000000         0.0000       0.000000      0.0000000       0.000010       0.000010       0.000010         1.0000         0.0171
       7765.00      7276.0176        40.0614         6.5489         6.6679       0.113800         2.5737       0.999990       0.000000         0.0000       0.000000         0.0000       0.000000      0.0000000       0.000010       0.000010       0.000010         1.0000         0.0171
       7765.50      7276.4207        39.7100         6.3055         6.7241       0.124100         2.5268       0.000000       0.767314         0.1685       0.000000         0.0000       0.000000      0.0005075       0.063635       0.064142       0.064142         1.0000         0.1195
       7766.00      7276.8238        39.3586         5.7902         6.2721       0.132300         2.4733       0.000000       0.739257         0.1686       0.000000         0.0000       0.000000      0.0179167       0.074260       0.092177       0.092177         0.8400         0.2798
       7766.50      7277.2269        40.0614         5.0806         5.3943       0.138300         2.4320       0.000000       0.701943         0.1853       0.000000         0.0000       0.000000      0.0300241       0.082703       0.112727       0.112727         0.7596         0.5221
       7767.00      7277.6300        41.4670         4.6510         4.7085       0.147800         2.4130       0.000000       0.664736         0.2167       0.000000         0.0000       0.006947      0.0258068       0.085829       0.118583       0.118583         0.7290         0.6236
       7767.50      7278.0331        42.8727         4.3505         4.2653       0.166800         2.3972       0.000000       0.624887         0.2500       0.000000         0.0000       0.006214      0.0319205       0.086956       0.125091       0.125091         0.6951         0.7598
       7768.00      7278.4362        42.8727         4.2220         3.9985       0.178700         2.3865       0.000000       0.612615         0.2551       0.000000         0.0000       0.001817      0.0401196       0.090315       0.132252       0.132252         0.6829         0.9442
       7768.50      7278.8393        41.8185         4.1592         3.8851       0.179900         2.3902       0.000000       0.629257         0.2379       0.000000         0.0000       0.000000      0.0386496       0.094199       0.132849       0.132849         0.7091         0.9615
