~Version Information Block
VERS .                  2.0:  CWLS LOG ASCII STANDARD - VERSION 2.0
WRAP .                   NO:  One line per depth step
~Well Information Block
#MNEM.UNIT        Data Type   Information
#---------- ----------------  -----------
STRT .FT               0.00:  START DEPTH
STOP .FT            8213.00:  STOP DEPTH
STEP .FT               0.50:  STEP
NULL .              -999.25:  NULL VALUE
COMP .                     :  COMPANY
WELL .              K-15RD1:  WELL
FLD  .                     :  FIELD
LOC  .                     :  LOCATION
CTRY .                     :  COUNTRY
STAT .                     :  STATE
CNTY .                     :  COUNTY
SRVC .                     :  SERVICE COMPANY
DATE .                     :  DATE
API  .                     :  API NUMBER
UWI  .                     :  UNIQUE WELL ID
~Curve Information Block
#MNEM.UNIT         API CODE   Curve Description
#---------- ----------------  -----------------
DEPTH.FT                   :  Depth
TVDSS.FT                   :  Reference TVD sub-sea log.
GR   .GAPI                 :  Gamma Ray
RT   .OHMM                 :  True Resistivity
RXO  .OHMM                 :  Flushed Zone Resistivity
NPHI .V/V                  :  Neutron Porosity
RHOB .G/C3                 :  Bulk Density
VCALCITE.V/V                  :  Calcite Volume Fraction
VQUARTZ.V/V                  :  Quartz Volume Fraction
VSH  .V/V                  :  Wet Cl/Sh 1 Volume Fraction
VCOAL.V/V                  :  Coal Volume Fraction
VORGSH.V/V                  :  Organic Shale Volume Fraction
VGAS .V/V                  :  X Gas Volume Fraction
VOIL .V/V                  :  X Oil Volume Fraction
VWATER.V/V                  :  X Water Volume Fraction
PHIT .V/V                  :  Total Porosity
PHIE .V/V                  :  Mahakam burial and vsh limited porosity
SWE  .V/V                  :  Effective Water Saturation
PERM .MD                   :  Permeability
~Parameter Information Block
#MNEM.UNIT            Value   Description
#---------- ----------------  -----------
PROJECT.       KERINDINGAN_FE:  
~Other Information Block
# 
~A       DEPTH          TVDSS             GR             RT            RXO           NPHI           RHOB       VCALCITE        VQUARTZ            VSH          VCOAL         VORGSH           VGAS           VOIL         VWATER           PHIT           PHIE            SWE           PERM 
       5130.00      4817.4721        81.5206         1.5003         1.5419       0.232400         2.4936       0.000000       0.284502         0.6954       0.000000         0.0000       0.000000      0.0000000       0.020078       0.020078       0.020078         1.0000         0.0314
       5130.50      4817.9644        68.1301         1.4610         1.5141       0.327500         2.5021       0.000000       0.379756         0.5798       0.000000         0.0000       0.000000      0.0000000       0.040485       0.040485       0.040485         1.0000         0.0583
       5131.00      4818.4567        67.4349         1.4352         1.4924       0.339400         2.4588       0.000000       0.375378         0.5623       0.000000         0.0000       0.000000      0.0000000       0.062350       0.062350       0.062350         1.0000         0.1132
       5131.50      4818.9490        66.7397         1.2943         1.3832       0.335500         2.4684       0.000000       0.372315         0.5670       0.000000         0.0000       0.000000      0.0000000       0.060719       0.060719       0.060719         1.0000         0.1077
       5132.00      4819.4414        68.5472         1.2061         1.2809       0.325000         2.4655       0.000000       0.349857         0.5898       0.000000         0.0000       0.000000      0.0000000       0.060347       0.060347       0.060347         1.0000         0.1065
       5132.50      4819.9337        71.0500         1.1913         1.2409       0.332800         2.4757       0.000000       0.325357         0.6229       0.000000         0.0000       0.000000      0.0000000       0.051735       0.051735       0.051735         1.0000         0.0820
       5133.00      4820.4261        72.5447         1.1986         1.2313       0.332200         2.4556       0.000000       0.309267         0.6323       0.000000         0.0000       0.000000      0.0000000       0.058400       0.058400       0.058400         1.0000         0.1004
       5133.50      4820.9184        72.9965         1.1929         1.2196       0.336000         2.4645       0.000000       0.304867         0.6415       0.000000         0.0000       0.000000      0.0000000       0.053650       0.053650       0.053650         1.0000         0.0869
       5134.00      4821.4108        74.2132         1.2679         1.2962       0.332200         2.4805       0.000000       0.305013         0.6522       0.000000         0.0000       0.000000      0.0000000       0.042802       0.042802       0.042802         1.0000         0.0625
       5134.50      4821.9031        75.0822         1.2482         1.3032       0.343200         2.4531       0.000000       0.289372         0.6567       0.000000         0.0000       0.000000      0.0000000       0.053920       0.053920       0.053920         1.0000         0.0876
       5135.00      4822.3955        74.1552         1.2554         1.2909       0.344400         2.4495       0.000000       0.296664         0.6460       0.000000         0.0000       0.000000      0.0000000       0.057326       0.057326       0.057326         1.0000         0.0972
       5135.50      4822.8879        71.4903         1.2621         1.2918       0.348600         2.4184       0.000000       0.315266         0.6077       0.000000         0.0000       0.000000      0.0000000       0.077042       0.077042       0.077042         1.0000         0.1768
       5136.00      4823.3803        71.0268         1.2758         1.2927       0.355500         2.4465       0.000000       0.322298         0.6134       0.000000         0.0000       0.000000      0.0000000       0.064261       0.064261       0.064261         1.0000         0.1199
       5136.50      4823.8727        74.3869         1.1975         1.2527       0.347700         2.4673       0.000000       0.291899         0.6585       0.000000         0.0000       0.000000      0.0000000       0.049578       0.049578       0.049578         1.0000         0.0768
       5137.00      4824.3651        75.0822         1.1975         1.2527       0.360600         2.4670       0.000000       0.282279         0.6692       0.000000         0.0000       0.000000      0.0000000       0.048507       0.048507       0.048507         1.0000         0.0744
       5137.50      4824.8575        70.9109         1.1690         1.2029       0.356000         2.4541       0.000000       0.314223         0.6232       0.000000         0.0000       0.000000      0.0000000       0.062597       0.062597       0.062597         1.0000         0.1140
       5138.00      4825.3500        67.4349         1.2288         1.2124       0.373100         2.4433       0.000000       0.341949         0.5847       0.000000         0.0000       0.000000      0.0000000       0.073360       0.073360       0.073360         1.0000         0.1581
       5138.50      4825.8424        63.9589         1.3544         1.3629       0.363300         2.4296       0.000000       0.385985         0.5297       0.000000         0.0000       0.000000      0.0000000       0.084330       0.084330       0.084330         1.0000         0.2205
       5139.00      4826.3349        71.9537         1.1745         1.2495       0.366700         2.4467       0.000000       0.303936         0.6323       0.000000         0.0000       0.000000      0.0000000       0.063770       0.063770       0.063770         1.0000         0.1182
       5139.50      4826.8273        75.7774         1.0984         1.1107       0.389400         2.4462       0.000000       0.252259         0.6883       0.000000         0.0000       0.000000      0.0000000       0.059418       0.059418       0.059418         1.0000         0.1035
       5140.00      4827.3198        74.7346         1.0665         1.0731       0.409300         2.4634       0.000000       0.255671         0.6901       0.000000         0.0000       0.000000      0.0000000       0.054259       0.054259       0.054259         1.0000         0.0885
       5140.50      4827.8123        75.4298         1.0276         1.0358       0.412700         2.4427       0.000000       0.240036         0.6965       0.000000         0.0000       0.000000      0.0000000       0.063460       0.063460       0.063460         1.0000         0.1171
       5141.00      4828.3047        77.1678         1.0244         1.0281       0.406000         2.4443       0.000000       0.225802         0.7144       0.000000         0.0000       0.000000      0.0000000       0.059823       0.059823       0.059823         1.0000         0.1048
       5141.50      4828.7972        76.4726         0.9871         1.0127       0.409900         2.4254       0.000000       0.223995         0.7056       0.000000         0.0000       0.000000      0.0000000       0.070454       0.070454       0.070454         1.0000         0.1447
       5142.00      4829.2897        76.4726         0.9519         0.9783       0.422800         2.4470       0.000000       0.220444         0.7180       0.000000         0.0000       0.000000      0.0000000       0.061542       0.061542       0.061542         1.0000         0.1104
       5142.50      4829.7822        76.8202         0.9618         0.9731       0.424200         2.4175       0.000000       0.211195         0.7144       0.000000         0.0000       0.000000      0.0000000       0.074444       0.074444       0.074444         1.0000         0.1634
       5143.00      4830.2747        78.2106         0.9518         0.9611       0.414900         2.4308       0.000000       0.202349         0.7315       0.000000         0.0000       0.000000      0.0000000       0.066155       0.066155       0.066155         1.0000         0.1270
       5143.50      4830.7673        84.8150         0.9891         0.9720       0.404100         2.4375       0.000000       0.148238         0.8008       0.000000         0.0000       0.000000      0.0000000       0.051003       0.051003       0.051003         1.0000         0.0802
       5144.00      4831.2598        82.7294         1.0079         1.0064       0.381100         2.4710       0.000000       0.185275         0.7756       0.000000         0.0000       0.000000      0.0000000       0.039105       0.039105       0.039105         1.0000         0.0559
