~Version Information Block
VERS .                  2.0:  CWLS LOG ASCII STANDARD - VERSION 2.0
WRAP .                   NO:  One line per depth step
~Well Information Block
#MNEM.UNIT        Data Type   Information
#---------- ----------------  -----------
STRT .FT               0.00:  START DEPTH
STOP .FT            8213.00:  STOP DEPTH
STEP .FT               0.50:  STEP
NULL .              -999.25:  NULL VALUE
COMP .                     :  COMPANY
WELL .              K-15RD1:  WELL
FLD  .                     :  FIELD
LOC  .                     :  LOCATION
CTRY .                     :  COUNTRY
STAT .                     :  STATE
CNTY .                     :  COUNTY
SRVC .                     :  SERVICE COMPANY
DATE .                     :  DATE
API  .                     :  API NUMBER
UWI  .                     :  UNIQUE WELL ID
~Curve Information Block
#MNEM.UNIT         API CODE   Curve Description
#---------- ----------------  -----------------
DEPTH.FT                   :  Depth
TVDSS.FT                   :  Reference TVD sub-sea log.
GR   .GAPI                 :  Gamma Ray
RT   .OHMM                 :  True Resistivity
RXO  .OHMM                 :  Flushed Zone Resistivity
NPHI .V/V                  :  Neutron Porosity
RHOB .G/C3                 :  Bulk Density
VCALCITE.V/V                  :  Calcite Volume Fraction
VQUARTZ.V/V                  :  Quartz Volume Fraction
VSH  .V/V                  :  Wet Cl/Sh 1 Volume Fraction
VCOAL.V/V                  :  Coal Volume Fraction
VORGSH.V/V                  :  Organic Shale Volume Fraction
VGAS .V/V                  :  X Gas Volume Fraction
VOIL .V/V                  :  X Oil Volume Fraction
VWATER.V/V                  :  X Water Volume Fraction
PHIT .V/V                  :  Total Porosity
PHIE .V/V                  :  Mahakam burial and vsh limited porosity
SWE  .V/V                  :  Effective Water Saturation
PERM .MD                   :  Permeability
~Parameter Information Block
#MNEM.UNIT            Value   Description
#---------- ----------------  -----------
PROJECT.       KERINDINGAN_FE:  
~Other Information Block
# 
~A       DEPTH          TVDSS             GR             RT            RXO           NPHI           RHOB       VCALCITE        VQUARTZ            VSH          VCOAL         VORGSH           VGAS           VOIL         VWATER           PHIT           PHIE            SWE           PERM 
# ...
       6145.00      5818.7783        15.4898        11.2362        10.8104       0.060400         2.2046       0.000000       0.755809         0.0418       0.000000         0.0000       0.106591      0.0000000       0.095846       0.202438       0.202438         0.4900         7.9456
       6145.50      5819.2703        14.0245        13.0236        16.2740       0.050900         2.1501       0.000000       0.755525         0.0264       0.000000         0.0000       0.139442      0.0000000       0.078658       0.218100       0.218100         0.4306        12.7807
       6146.00      5819.7623        13.4315        14.7450        20.7101       0.046000         2.1103       0.000000       0.748519         0.0212       0.000000         0.0000       0.161048      0.0000000       0.069204       0.230252       0.230252         0.3833        18.4807
       6146.50      5820.2543        14.3036        15.3776        20.8735       0.044600         2.1143       0.000000       0.741592         0.0312       0.000000         0.0000       0.160302      0.0000000       0.066931       0.227234       0.227234         0.3723        16.8632
       6147.00      5820.7463        14.8269        16.4236        22.3154       0.045400         2.1166       0.000000       0.737480         0.0378       0.000000         0.0000       0.161076      0.0000000       0.063662       0.224738       0.224738         0.3578        15.6334
       6147.50      5821.2383        14.5362        16.9948        19.6251       0.049300         2.1170       0.000000       0.738350         0.0348       0.000000         0.0000       0.157444      0.0000000       0.069439       0.226883       0.226883         0.3494        16.6847
       6148.00      5821.7303        14.4199        16.8189        17.6938       0.052600         2.1377       0.000000       0.746477         0.0326       0.000000         0.0000       0.146482      0.0000000       0.074437       0.220919       0.220919         0.3619        13.9222
       6148.50      5822.2222        14.5362        16.5207        16.7622       0.059200         2.1614       0.000000       0.753032         0.0340       0.000000         0.0000       0.135262      0.0000000       0.077695       0.212957       0.212957         0.3778        10.9337
       6149.00      5822.7142        15.6991        15.7304        14.8983       0.063800         2.2039       0.000000       0.756682         0.0463       0.000000         0.0000       0.116241      0.0000000       0.080747       0.196988       0.196988         0.4099         6.7345
       6149.50      5823.2062        17.4435        16.0972        14.2415       0.064200         2.1894       0.000000       0.731761         0.0684       0.000000         0.0000       0.122465      0.0000000       0.077388       0.199853       0.199853         0.3872         7.3462
       6150.00      5823.6982        17.6760        17.4435        15.7477       0.057800         2.1428       0.000000       0.711871         0.0725       0.000000         0.0000       0.143060      0.0000000       0.072602       0.215663       0.215663         0.3373        11.8695
       6150.50      5824.1902        16.1643        18.8194        18.1563       0.052700         2.1011       0.000000       0.712705         0.0558       0.000000         0.0000       0.162253      0.0000000       0.069264       0.231518       0.231518         0.3113        19.2045
       6151.00      5824.6822        15.2339        18.8719        18.8188       0.052000         2.0951       0.000000       0.720426         0.0449       0.000000         0.0000       0.165013      0.0000000       0.069676       0.234688       0.234688         0.3126        21.1443
       6151.50      5825.1742        16.7457        18.8895        20.3865       0.053000         2.1321       0.000000       0.720985         0.0616       0.000000         0.0000       0.153266      0.0000000       0.064169       0.217435       0.217435         0.3257        12.5255
       6152.00      5825.6662        17.0946        18.6059        19.5600       0.057700         2.1553       0.000000       0.725575         0.0655       0.000000         0.0000       0.143145      0.0000000       0.065730       0.208875       0.208875         0.3384         9.6598
       6152.50      5826.1582        12.5593        19.6051        19.3326       0.055900         2.1478       0.000000       0.770271         0.0107       0.000000         0.0000       0.143141      0.0000000       0.075937       0.219078       0.219078         0.3466        13.1658
       6153.00      5826.6502        11.8615        21.3858        22.4372       0.048100         2.1021       0.000000       0.761555         0.0037       0.000000         0.0000       0.164993      0.0000000       0.069801       0.234794       0.234794         0.3110        21.2123
       6153.50      5827.1422        11.1638        22.0327        23.8223       0.039900         2.0822       0.000000       0.758499         0.0000       0.000000         0.0000       0.174891      0.0000000       0.066610       0.241501       0.241501         0.2988        26.0007
       6154.00      5827.6342        11.1638        20.9227        23.1975       0.035500         2.1012       0.000000       0.765703         0.0000       0.000000         0.0000       0.167490      0.0000000       0.066807       0.234297       0.234297         0.3175        20.8944
       6154.50      5828.1262        11.1638        19.7487        21.4207       0.037800         2.1293       0.000000       0.775163         0.0000       0.000000         0.0000       0.154482      0.0000000       0.070355       0.224837       0.224837         0.3423        15.6802
       6155.00      5828.6182        11.1638        18.6424        18.7097       0.040900         2.1295       0.000000       0.773165         0.0000       0.000000         0.0000       0.150751      0.0000000       0.076084       0.226835       0.226835         0.3510        16.6606
       6155.50      5829.1102        11.1638        18.1419        18.4960       0.045900         2.1136       0.000000       0.766579         0.0000       0.000000         0.0000       0.155969      0.0000000       0.077452       0.233421       0.233421         0.3466        20.3464
       6156.00      5829.6023        11.1638        17.5825        16.7865       0.046900         2.1105       0.000000       0.763912         0.0000       0.000000         0.0000       0.154537      0.0000000       0.081551       0.236088       0.236088         0.3490        22.0616
       6156.50      5830.0943        13.2570        16.1241        15.8763       0.046700         2.1008       0.000000       0.743303         0.0187       0.000000         0.0000       0.157952      0.0000000       0.080006       0.237958       0.237958         0.3535        23.3499
       6157.00      5830.5863        15.3502        14.2933        14.6289       0.043500         2.0804       0.000000       0.712637         0.0440       0.000000         0.0000       0.165301      0.0000000       0.078067       0.243367       0.243367         0.3562        27.5158
       6157.50      5831.0783        12.9082        12.9527        13.0388       0.043600         2.0854       0.000000       0.738841         0.0138       0.000000         0.0000       0.158511      0.0000000       0.088845       0.247356       0.247356         0.3902        31.0562
       6158.00      5831.5703        12.9082        10.9092        11.2159       0.046400         2.1044       0.000000       0.744129         0.0128       0.000000         0.0000       0.146099      0.0000000       0.097004       0.243103       0.243103         0.4398        27.2955
       6158.50      5832.0623        12.4430         8.6094         8.8212       0.053100         2.1195       0.000000       0.749849         0.0067       0.000000         0.0000       0.130646      0.0000000       0.112797       0.243443       0.243443         0.5097        27.5786
       6159.00      5832.5543        11.6290         7.0628         7.2010       0.067600         2.1627       0.000000       0.766145         0.0000       0.000000         0.0000       0.103205      0.0000000       0.130649       0.233855       0.233855         0.6025        20.6160
